[{"id":"BID01A","label":"Przy sklepie Chata Polska","address":"Zjednoczenia 12","city":"Biedrusko","longitude":16.9456,"latitude":52.54565,"description":["24/7"]},{"id":"BKP01M","label":"Przy Polskim Sklepie","address":"Mieszka I 2","city":"Biskupice","longitude":17.17082,"latitude":52.46772,"description":["24/7"]},{"id":"BOW01G","label":"Na stacji Shell","address":"Poznańska 3","city":"Bolechowo","longitude":16.98219,"latitude":52.53768,"description":["24/7"]},{"id":"BOW01M","label":"Przy Sklepie","address":"Poznańska 47","city":"Borówiec","longitude":17.04676,"latitude":52.28671,"description":["24/7"]},{"id":"BOW01N","label":"Przy parkingu Biedronki","address":"Główna 2A","city":"Borówiec","longitude":17.04045,"latitude":52.28038,"description":["24/7"]},{"id":"BOW02N","label":"Parking przed Sklepem Familijnym","address":"Główna 28C","city":"Borówiec","longitude":17.02356,"latitude":52.28094,"description":["24/7"]},{"id":"BWO01M","label":"Na terenie Parku Handlowego","address":"Szamotulska 26","city":"Baranowo","longitude":16.78706,"latitude":52.44631,"description":["24/7"]},{"id":"CDO01E","label":"Na terenie myjni","address":"Golęczewska 14B","city":"Chludowo","longitude":16.8385,"latitude":52.55353,"description":["24/7"]},{"id":"CDO01M","label":"przy Restauracji Ogród Przysmaków","address":"Dworcowa nr działki 396","city":"Chludowo","longitude":16.84185,"latitude":52.55852,"description":["24/7"]},{"id":"CPR01M","label":"Narożnik niezabudowanej działki od ul. Poznańskiej","address":"Poznańska 79","city":"Czapury","longitude":16.914,"latitude":52.32123,"description":["24/7"]},{"id":"CPR02M","label":"Na parkingu marketu Dino","address":"Poznańska 43 A","city":"Czapury","longitude":16.91097,"latitude":52.32724,"description":["24/7"]},{"id":"CZK01A","label":"Parking Czerwona Torebka","address":"Leśna 1","city":"Czerwonak","longitude":16.98174,"latitude":52.465,"description":["24/7"]},{"id":"CZK01N","label":"Przy sklepie Żabka","address":"Krótka 1","city":"Czerwonak","longitude":16.97936,"latitude":52.47722,"description":["24/7"]},{"id":"DAB01L","label":"Przy prywatnej posesji","address":"Lipowa 20","city":"Dąbrówka","longitude":16.74423,"latitude":52.38276,"description":["24/7"]},{"id":"DAB01M","label":"Naprzeciwko wjazdu na parking P+R przy dworcu PKP Palędzie","address":"Kolejowa 3","city":"Dąbrówka","longitude":16.74201,"latitude":52.37487,"description":["24/7"]},{"id":"DAB01N","label":"Przy sklepie Freshmarket","address":"Kolejowa 67","city":"Dąbrówka","longitude":16.74479,"latitude":52.37889,"description":["24/7"]},{"id":"DIN01M","label":"Przy budynku handlowym","address":"Generała Sikorskiego 78A","city":"Dębienko","longitude":16.72494,"latitude":52.28965,"description":["24/7"]},{"id":"DOP01A","label":"Przy sklepie budowlanym Modernika","address":"Stawna 17","city":"Dopiewo","longitude":16.67328,"latitude":52.36234,"description":["24/7"]},{"id":"DOP01M","label":"Na działce","address":"Więckowska 30","city":"Dopiewo","longitude":16.67008,"latitude":52.36541,"description":["24/7"]},{"id":"DOP01N","label":"Przy sklepie Lewiatan","address":"Poznańska 13","city":"Dopiewo","longitude":16.67625,"latitude":52.35811,"description":["24/7"]},{"id":"DOP02M","label":"Na parkingu marketu Dino","address":"Bukowska 9","city":"Dopiewo","longitude":16.67428,"latitude":52.35647,"description":["24/7"]},{"id":"DPC01M","label":"Przy sklepie spożywczym","address":"Szkolna 13","city":"Dopiewiec","longitude":16.70792,"latitude":52.35999,"description":["24/7"]},{"id":"DWA01M","label":"Po prawej stronie parkingu","address":"Szafirowa 1A","city":"Dąbrowa","longitude":16.7567,"latitude":52.3969,"description":["24/7"]},{"id":"GRT01N","label":"Prywatna posesja","address":"Fabryczna 1","city":"Gortatowo","longitude":17.1044,"latitude":52.42687,"description":["24/7"]},{"id":"GWW01A","label":"Przy sklepie Chata Polska","address":"Rabowicka 1","city":"Gowarzewo","longitude":17.125,"latitude":52.3645,"description":["24/7"]},{"id":"GWW01M","label":"Na parkingu marketu Dino","address":"Kleszczewska 1","city":"Gowarzewo","longitude":17.13325,"latitude":52.35992,"description":["24/7"]},{"id":"JEK01A","label":"Przy sklepie Groszek","address":"pl. Piastowski 25","city":"Jerzykowo","longitude":17.1717,"latitude":52.46943,"description":["24/7"]},{"id":"JEL01M","label":"Przy firmie JELIMEX - wjazd od ulicy Czołgowej","address":"Obornicka 10","city":"Jelonek","longitude":16.85644,"latitude":52.48654,"description":["24/7"]},{"id":"KCA01M","label":"Parking przy aptece","address":"Poznańska 113","city":"Kobylnica","longitude":17.07994,"latitude":52.447232,"description":["24/7"]},{"id":"KCA02M","label":"Przy Pawilonie Handlowym.","address":"Swarzędzka 2","city":"Kobylnica","longitude":17.07611,"latitude":52.44534,"description":["24/7"]},{"id":"KCI01M","label":"Na Parkingu obiektu Noclegi pod Orzechem","address":"Poznańska 8","city":"Kicin","longitude":17.01453,"latitude":52.45586,"description":["24/7"]},{"id":"KCO01G","label":"Parking przy sklepie spożywczym","address":"Poznańska 33","city":"Kleszczewo","longitude":17.17075,"latitude":52.33395,"description":["24/7"]},{"id":"KIR01M","label":"Na parkingu marketu Dino","address":"Kierska 2G","city":"Kiekrz","longitude":16.77956,"latitude":52.48476,"description":["24/7"]},{"id":"KMN01N","label":"Naprzeciwko galerii","address":"Platanowa 2","city":"Kamionki","longitude":16.97966,"latitude":52.28957,"description":["24/7"]},{"id":"KMN02N","label":"Przy sklepie Delikatesy Centrum","address":"Mostowa 12","city":"Kamionki","longitude":16.99838,"latitude":52.2873,"description":["24/7"]},{"id":"KOG01A","label":"Na tylnej ścianie (południowej) sklepu \"Pepco\"","address":"Piasko 19","city":"Koziegłowy","longitude":16.98961,"latitude":52.44552,"description":["24/7"]},{"id":"KOG02M","label":"Na parkingu sklepu Lidl","address":"Gdyńska 66","city":"Koziegłowy","longitude":16.98537,"latitude":52.453,"description":["24/7"]},{"id":"KOG03M","label":"Przy sklepie Spec-Market.","address":"Krótka 1A","city":"Koziegłowy","longitude":16.9967,"latitude":52.44718,"description":["24/7"]},{"id":"KOM01A","label":"Przy pasażu Czerwona Torebka","address":"Malinowskiego 9","city":"Komorniki","longitude":16.80033,"latitude":52.33985,"description":["24/7"]},{"id":"KOM01M","label":"Przy sklepie Tesco","address":"Młyńska 4","city":"Komorniki","longitude":16.80668,"latitude":52.33451,"description":["24/7"]},{"id":"KOM01N","label":"Przy sklepie Netto","address":"Nizinna 10","city":"Komorniki","longitude":16.815,"latitude":52.33805,"description":["24/7"]},{"id":"KOM02M","label":"Przy wjeździe na parking sklepu Lidl","address":"Nowa 2","city":"Komorniki","longitude":16.81429,"latitude":52.3403,"description":["24/7"]},{"id":"KOM03M","label":"Na działce przy skrzyżowaniu ulic Św. Rocha i Rosnowskiej","address":"Świętego Rocha 1","city":"Komorniki","longitude":16.79606,"latitude":52.33584,"description":["24/7"]},{"id":"KOM04M","label":"Przy Dino","address":"Żabikowska 37","city":"Komorniki","longitude":16.8332,"latitude":52.33898,"description":["24/7"]},{"id":"KOR02N","label":"Przy markecie Netto","address":"Poznańska 87","city":"Kórnik","longitude":17.07737,"latitude":52.2559,"description":["24/7"]},{"id":"KOR03N","label":"Na parkingu Max Market Chiński","address":"Woźniaka 5","city":"Kórnik","longitude":17.07773,"latitude":52.25388,"description":["24/7"]},{"id":"KST02M","label":"Przy sklepie ABC","address":"Wyszyńskiego 3","city":"Kostrzyn","longitude":17.22343,"latitude":52.39115,"description":["24/7"]},{"id":"KST02N","label":"Przy sklepie Pepco","address":"Warszawska 13","city":"Kostrzyn","longitude":17.2243,"latitude":52.39382,"description":["24/7"]},{"id":"KST03M","label":"Przy sklepie Tesco","address":"Dworcowa 31","city":"Kostrzyn","longitude":17.22432,"latitude":52.39409,"description":["24/7"]},{"id":"KST03N","label":"Przy supermarkecie Chata Polska","address":"Poznańska 37","city":"Kostrzyn","longitude":17.21959,"latitude":52.39776,"description":["24/7"]},{"id":"LBO01A","label":"Przy Centrum Handlowym Factory Outlet","address":"Dębiecka 1","city":"Luboń","longitude":16.88731,"latitude":52.35371,"description":["24/7"]},{"id":"LBO01M","label":"Przy sklepie Społem","address":"Kościuszki 47","city":"Luboń","longitude":16.87095,"latitude":52.35009,"description":["24/7"]},{"id":"LBO01N","label":"Przy sklepie ogrodniczym","address":"Wojska Polskiego 7","city":"Luboń","longitude":16.87196,"latitude":52.34282,"description":["24/7"]},{"id":"LBO02A","label":"Przy sklepie warzywnym","address":"Jana III Sobieskiego 53","city":"Luboń","longitude":16.87584,"latitude":52.33476,"description":["24/7"]},{"id":"LBO02B","label":"Przy Centrum Handlowym Pajo","address":"Żabikowska 66","city":"Luboń","longitude":16.88071,"latitude":52.35052,"description":["24/7"]},{"id":"LBO02M","label":"Przy prywatnej posesji","address":"11 Listopada 30","city":"Luboń","longitude":16.87191,"latitude":52.34568,"description":["24/7"]},{"id":"LBO03A","label":"Przy sklepie Intermarche","address":"Żabikowska 53B","city":"Luboń","longitude":16.882,"latitude":52.34903,"description":["24/7"]},{"id":"LBO03M","label":"Przy parkingu sklepu Lewiatan","address":"Polna 42","city":"Luboń","longitude":16.87235,"latitude":52.32574,"description":["24/7"]},{"id":"LBO04M","label":"Przy sklepie Skrzat.","address":"Żabikowska 45","city":"Luboń","longitude":16.88022,"latitude":52.34695,"description":["24/7"]},{"id":"LBO05A","label":"Przy myjni bezdotykowej","address":"Armii Poznań 51B","city":"Luboń","longitude":16.8899,"latitude":52.3337,"description":["24/7"]},{"id":"LBO05M","label":"Przy myjni bezdotykowej.","address":"Poniatowskiego 66","city":"Luboń","longitude":16.85518,"latitude":52.34547,"description":["24/7"]},{"id":"LBO06M","label":"Przy stacji Lotos.","address":"Armii Poznań 58","city":"Luboń","longitude":16.89496,"latitude":52.34686,"description":["24/7"]},{"id":"LBO07M","label":"Przy sklepie wędkarskim","address":"Armii Poznań 103","city":"Luboń","longitude":16.8878,"latitude":52.32504,"description":["24/7"]},{"id":"LBO08M","label":"Parking przy Pawilonie Handlowym","address":"Sobieskiego 88c","city":"Luboń","longitude":16.87721,"latitude":52.32903,"description":["24/7"]},{"id":"LBO094","label":"Przy sklepie Społem","address":"11 Listopada 141","city":"Luboń","longitude":16.84979,"latitude":52.34452,"description":["24/7"]},{"id":"LBO249","label":"Przy sklepie Żabka","address":"Kościuszki 102","city":"Luboń","longitude":16.86587,"latitude":52.3522,"description":["24/7"]},{"id":"LCC01M","label":"boczna (lewa) ściana Lidla","address":"Poznańska 29","city":"Łęczyca","longitude":16.87851,"latitude":52.31146,"description":["24/7"]},{"id":"LUW01M","label":"Na parkingu marketu Dino","address":"Poznańska 5","city":"Lusowo","longitude":16.70171,"latitude":52.43484,"description":["24/7"]},{"id":"MOS01A","label":"Przy sklepie Żabka","address":"Sowiniecka 9B","city":"Mosina","longitude":16.8573,"latitude":52.24183,"description":["24/7"]},{"id":"MOS01M","label":"boczna, prawa ściana Lidla","address":"Harcerska 3-5","city":"Mosina","longitude":16.84361,"latitude":52.24429,"description":["24/7"]},{"id":"MOS01ML","label":"Przy sklepie Dino","address":"Poniatowskiego 1B","city":"Mosina","longitude":16.8497,"latitude":52.25029,"description":["24/7"]},{"id":"MOS01N","label":"Przy markecie Tesco","address":"Konopnickiej 33","city":"Mosina","longitude":16.84259,"latitude":52.24494,"description":["24/7"]},{"id":"MOS02N","label":"Przy aptece Mosińskie Centrum Zdrowia","address":"Farbiarska 30","city":"Mosina","longitude":16.85478,"latitude":52.24499,"description":["24/7"]},{"id":"MOS04M","label":"Przy budynku MOSINOVA","address":"Niezłomnych 3","city":"Mosina","longitude":16.85007,"latitude":52.24389,"description":["24/7"]},{"id":"MOS05M","label":"Parking przy Netto","address":"Kolejowa 33","city":"Mosina","longitude":16.85341,"latitude":52.24304,"description":["24/7"]},{"id":"MOS06M","label":"Przy sklepie spożywczym","address":"Leśna 21","city":"Mosina","longitude":16.85278,"latitude":52.25958,"description":["24/7"]},{"id":"MUG01M","label":"przy księgarni Grześ","address":"Poznańska 10B","city":"Murowana Goślina","longitude":17.00901,"latitude":52.57411,"description":["24/7"]},{"id":"MUG01N","label":"Przy Urzędzie Gminy","address":"Poznańska 16","city":"Murowana Goślina","longitude":17.00814,"latitude":52.57372,"description":["24/7"]},{"id":"MUG02M","label":"Przy piekarni","address":"Długa 7","city":"Murowana Goślina","longitude":17.00024,"latitude":52.56676,"description":["24/7"]},{"id":"MUG02N","label":"Przy sklepie spożywczym","address":"Akacjowa 17","city":"Murowana Goślina","longitude":16.9998,"latitude":52.56538,"description":["24/7"]},{"id":"OWN01M","label":"Za sklepem Chata Polska","address":"Plac Przemysława 1C","city":"Owińska","longitude":16.97369,"latitude":52.51414,"description":["24/7"]},{"id":"OWN01N","label":"Przy sklepie ABC","address":"Dworcowa 1","city":"Owińska","longitude":16.98699,"latitude":52.51163,"description":["24/7"]},{"id":"PAD01M","label":"Przy Warsztacie","address":"Nowa 3","city":"Palędzie","longitude":16.73927,"latitude":52.37236,"description":["24/7"]},{"id":"PKW01M","label":"przy sklepie ABC","address":"Zapłocie 6A","city":"Paczkowo","longitude":17.15904,"latitude":52.39917,"description":["24/7"]},{"id":"PLW01A","label":"Przy budynku handlowo - usługowym","address":"Grunwaldzka 507","city":"Plewiska","longitude":16.81387,"latitude":52.36965,"description":["24/7"]},{"id":"PLW01M","label":"Na Myjni","address":"Grunwaldzka 513","city":"Plewiska","longitude":16.81299,"latitude":52.36903,"description":["24/7"]},{"id":"PLW01N","label":"Przy Netto","address":"Szarotkowa 21","city":"Poznań","longitude":16.82434,"latitude":52.37828,"description":["24/7"]},{"id":"PLW02M","label":"W płocie od strony ulicy Porannej","address":"Poranna 6","city":"Plewiska","longitude":16.8163,"latitude":52.36019,"description":["24/7"]},{"id":"PLW02N","label":"Przy sklepie Żabka","address":"Kolejowa 85","city":"Plewiska","longitude":16.81379,"latitude":52.36375,"description":["24/7"]},{"id":"PLW03M","label":"Na parkingu żabki","address":"Grunwaldzka 610A","city":"Plewiska","longitude":16.80827,"latitude":52.36504,"description":["24/7"]},{"id":"POI01M","label":"Przy sklepie spożywczym |MILI|","address":"Północna 49","city":"Promnice","longitude":16.96265,"latitude":52.54749,"description":["24/7"]},{"id":"POP-DAB3","label":"PAKERSI DĄBRÓWKA","address":"Poznańska 31","city":"Dąbrówka","longitude":16.7448087,"latitude":52.3813889,"description":["PN-PT 09-18"]},{"id":"POP-DAS1","label":"SKLEP OGÓLNOSPOŻYWCZY RABAT","address":"Poznańska 5","city":"Daszewice","longitude":16.9550054,"latitude":52.3046,"description":["PN-PT 06-20 SB 07-20"]},{"id":"POP-DOP2","label":"SKLEP PINEZKA","address":"Młyńska 4","city":"Dopiewo","longitude":16.6746166,"latitude":52.3576804,"description":["PN-PT 08-20 SB 09-14"]},{"id":"POP-DOP3","label":"EPAKA DOPIEWO","address":"Wyzwolenia 3","city":"Dopiewo","longitude":16.67630734,"latitude":52.35675074,"description":["PN-PT 09-17 SB 09-13"]},{"id":"POP-KMN2","label":"PUNKT KURIERSKI","address":"Platanowa 2","city":"Kamionki","longitude":16.9794273,"latitude":52.2899364,"description":["PN-PT 10-18"]},{"id":"POP-KOG2","label":"DROGERIA STYL","address":"Os. Leśne 24","city":"Koziegłowy","longitude":16.9966889,"latitude":52.4487191,"description":["PN-PT 09-19 SB 09-14"]},{"id":"POP-LBO1","label":"SKLEP ODZIEŻOWY","address":"Sikorskiego 8/4","city":"Luboń","longitude":16.874027,"latitude":52.348969,"description":["PN-PT 10-18 SB 10-14"]},{"id":"POP-LBO4","label":"SKLEP MOTORYZACYJNY","address":"Armii Poznań 23B","city":"Luboń","longitude":16.897326969658,"latitude":52.348783058766,"description":["PN-PT 09-17 SB 09-13"]},{"id":"POP-LBO5","label":"EXPRESS-PACZKA","address":"Wschodnia 21B","city":"Luboń","longitude":16.88130288,"latitude":52.34330502,"description":["PN-PT 10-20 SB 10-16"]},{"id":"POP-LUN1","label":"SKLEP METALOWY","address":"Armii Poznań 111A","city":"Luboń","longitude":16.88767,"latitude":52.32436,"description":["PN-PT 07-17 SB 09-14"]},{"id":"POP-MOS3","label":"TANI KURIER.INFO","address":"Leszczyńska 5","city":"Mosina","longitude":16.8463915,"latitude":52.2400025,"description":["PN-PT 10-18"]},{"id":"POP-MOS5","label":"ALKOSHOP","address":"Pl. 20 października 17","city":"Mosina","longitude":16.8495404,"latitude":52.2451586,"description":["PN-SB 08-22 ND 09-20"]},{"id":"POP-MOS7","label":"SKLEP PRZĄDKA","address":"Leśna 21","city":"Mosina","longitude":16.8529736,"latitude":52.259578,"description":["PN-SB 06-22 ND 09-20"]},{"id":"POP-MUG1","label":"SKLEP SPOŻYWCZO-PRZEMYSŁOWY","address":"Mściszewska 19","city":"Murowana Goślina","longitude":16.9972728,"latitude":52.5761851,"description":["PN-PT 06-18 SB 07-14"]},{"id":"POP-MUG2","label":"UBEZPIECZENIA MARIETTA ŻUROWSKA","address":"Poznańska 34","city":"Murowana Goślina","longitude":17.0079932,"latitude":52.5717556,"description":["PN-PT 09-17 SB 09-14"]},{"id":"POP-PCK1","label":"DELIKATESY ABC","address":"Zapłocie 6A","city":"Paczkowo","longitude":17.158962813459,"latitude":52.399164346617,"description":["PN-PT 06-22 SB 06-19 ND 09-14"]},{"id":"POP-PLW2","label":"SALON AVON","address":"Grunwaldzka 517A","city":"Plewiska","longitude":16.8120891,"latitude":52.3688765,"description":["PN-PT 10-18 SB 10-14"]},{"id":"POP-PLW3","label":"PAKERSI PLEWISKA","address":"Kolejowa 36/3","city":"Plewiska","longitude":16.8078806,"latitude":52.3671942,"description":["PN-PT 09-18 SB 09-13"]},{"id":"POP-POI4","label":"ABC SKLEP SPOŻYWCZY","address":"Północna 56","city":"Promnice","longitude":16.9631443,"latitude":52.5486793,"description":["PN-SB 08-20 ND 08-18"]},{"id":"POP-POZ15","label":"SALONIK PRASOWY E PAPIEROSY","address":"Piłsudskiego 2B","city":"Poznań","longitude":16.9499997,"latitude":52.3926898,"description":["PN-PT 07-18 SB 08-13"]},{"id":"POP-POZ24","label":"MBE MAIL BOX","address":"Głogowska 16","city":"Poznań","longitude":16.907794,"latitude":52.401339,"description":["PN-PT 09-18 SB 10-14"]},{"id":"POP-POZ3","label":"PUNKT OPŁAT","address":"Promienista 104","city":"Poznań","longitude":16.8738,"latitude":52.39033,"description":["PN-PT 09-17"]},{"id":"POP-POZ30","label":"PUNKT OPŁAT","address":"Os. Rzeczpospolitej 14","city":"Poznań","longitude":16.946602,"latitude":52.386733,"description":["PN-PT 09-18"]},{"id":"POP-POZ31","label":"AGENCJA BANKOWA","address":"Leszka 17","city":"Poznań","longitude":17.0233087,"latitude":52.4078192,"description":["PN-PT 10-18 SB 10-14"]},{"id":"POP-POZ32","label":"P.H. MYSZKA","address":"23 Lutego 14","city":"Poznań","longitude":16.92716,"latitude":52.40992,"description":["PN-PT 09-18 SB 10-14"]},{"id":"POP-POZ33","label":"UBEZPIECZENIA BLISKO CIEBIE","address":"Jesionowa 20/4","city":"Poznań","longitude":16.895709,"latitude":52.366844,"description":["PN-PT 10-18"]},{"id":"POP-POZ47","label":"BIURO TURYSTYCZNE KANION","address":"Polna 2","city":"Poznań","longitude":16.8975215,"latitude":52.4138145,"description":["PN-PT 10-18 SB 09-13"]},{"id":"POP-POZ55","label":"MER-CARS","address":"Głuszyna 58B","city":"Poznań","longitude":16.92523509,"latitude":52.33430141,"description":["PN-PT 10-18"]},{"id":"POP-POZ56","label":"SALONIK PRASOWY","address":"Os. Przemysława 8C","city":"Poznań","longitude":17.002673,"latitude":52.389813,"description":["PN-PT 09-18 SB 08-13"]},{"id":"POP-POZ60","label":"KIOSK SZEWC KOŚCIELNA","address":"Kościelna/Dąbrowskiego 1","city":"Poznań","longitude":16.903773,"latitude":52.412881,"description":["PN-PT 10-18 SB 10-14"]},{"id":"POP-POZ65","label":"MAIL BOXES ETC.2659","address":"Gałczyńskiego 46","city":"Poznań","longitude":16.8517124,"latitude":52.4083161,"description":["PN-PT 08-18"]},{"id":"POP-POZ66","label":"SKLEP WIELOBRANŻOWY INWAZJA","address":"Os. Orła Białego PAW.3","city":"Poznań","longitude":16.9614987,"latitude":52.3771118,"description":["PN-PT 10-18 SB 08-13"]},{"id":"POP-POZ67","label":"STIHL KIEKRZ","address":"Chojnicka 60","city":"Poznań","longitude":16.7844297,"latitude":52.477661,"description":["PN-PT 09-17 SB 10-14"]},{"id":"POP-POZ68","label":"HURTOWNIA KOMETYKÓW MADRIC","address":"Langiewicza 23/U1","city":"Poznań","longitude":16.917374,"latitude":52.3878222,"description":["PN-PT 11-20"]},{"id":"POP-POZ69","label":"SKLEP LEWIATAN","address":"Głogowska 117","city":"Poznań","longitude":16.8943551,"latitude":52.3903351,"description":["PN-ND 06-00"]},{"id":"POP-POZ70","label":"SKLEP LEWIATAN","address":"Falista 4A","city":"Poznań","longitude":16.9468398,"latitude":52.3693278,"description":["PN-SB 06-22 ND 08-22"]},{"id":"POP-POZ71","label":"SKLEP SPOŻYWCZY","address":"Trzebiatowska 18C","city":"Poznań","longitude":16.8370408,"latitude":52.4369118,"description":["PN-PT 06-22 SB 07-22 ND 16-22"]},{"id":"POP-POZ72","label":"SKLEP UKRAINOCZKA","address":"Na Miasteczku 12/LOK 8","city":"Poznań","longitude":16.949397,"latitude":52.3972775,"description":["PN-PT 09-22 SB 09-20"]},{"id":"POP-POZ74","label":"SKLEP ZOOLOGICZNY","address":"Os. Lecha 43","city":"Poznań","longitude":16.9736789,"latitude":52.3902438,"description":["PN-PT 10-18"]},{"id":"POP-POZ75","label":"AUTOPLATFORMA ","address":"Mylna 23 PARTER UBEZPIECZENIA","city":"Poznań","longitude":16.908214518493,"latitude":52.414796209354,"description":["PN-PT 10-18 SB 09-14"]},{"id":"POP-POZ76","label":"LEWIATAN MAŁGOSIA","address":"Os. Łokietka 1","city":"Poznań","longitude":16.9368307,"latitude":52.4510391,"description":["PN-SB 08-22 ND 10-20"]},{"id":"POP-POZ77","label":"SKLEP ODIDO","address":"Os. Wichrowe Wzgórze PAW.103","city":"Poznań","longitude":16.9397836,"latitude":52.4385603,"description":["PN-PT 07-20 SB 07-19 ND 10-16"]},{"id":"POP-POZ79","label":"PAKERSI MALWOWA","address":"Malwowa 11","city":"Poznań","longitude":16.8311561,"latitude":52.3834688,"description":["PN-PT 10-18"]},{"id":"POP-POZ80","label":"XPRESSION-IT SERWIS KOMPUTEROWY","address":"Os. Zwycięstwa 113","city":"Poznań","longitude":16.9241143,"latitude":52.4385708,"description":["PN-PT 10-18"]},{"id":"POP-POZ85","label":"PAKERSI ARENA","address":"Ostroroga 1/4","city":"Poznań","longitude":16.8817154,"latitude":52.4005531,"description":["PN-PT 09-18"]},{"id":"POP-POZ86","label":"LEWIATAN ORŁA BIAŁEGO","address":"Os. Orła Białego 44A","city":"Poznań","longitude":16.96409668609,"latitude":52.375951076571,"description":["PN-SB 06-22 ND 10-20"]},{"id":"POP-POZ87","label":"LEWIATAN LIBELTA","address":"Karola Libelta 6","city":"Poznań","longitude":16.92360350356,"latitude":52.410467760441,"description":["PN-SB 06-22 ND 10-20"]},{"id":"POP-POZ88","label":"POLSKI DOM FINANSOWY","address":"Św. Antoniego 32","city":"Poznań","longitude":16.930586653639,"latitude":52.364272332963,"description":["PN-PT 10-18"]},{"id":"POP-POZ89","label":"EPAKA KORONNA","address":"Koronna 1A","city":"Poznań","longitude":16.91489864,"latitude":52.43006258,"description":["PN-PT 08-18"]},{"id":"POP-POZ90","label":"EPAKA WOLA","address":"Przelot 10","city":"Poznań","longitude":16.857888138433,"latitude":52.425342847045,"description":["PN-PT 09-17"]},{"id":"POP-POZ91","label":"BELECO CENTRUM KOSMETYCZNE","address":"Górna Wilda 105","city":"Poznań","longitude":16.922230252539,"latitude":52.393828907909,"description":["PN-PT 09-18"]},{"id":"POP-POZ92","label":"BRICOMARCHE POZNAŃ GÓRECKA","address":"Górecka 30A","city":"Poznań","longitude":16.897316,"latitude":52.3814505,"description":["PN-SB 08-20 ND 10-18"]},{"id":"POP-POZ93","label":"BRICOMARCHE PESTKA","address":"Al. Solidarności 47","city":"Poznań","longitude":16.9169425,"latitude":52.4369944,"description":["PN-SB 08-21 ND 10-20"]},{"id":"POP-POZ94","label":"EPAKA POZNAŃ NOWE MIASTO","address":"Skibowa 13A","city":"Poznań","longitude":17.0094523,"latitude":52.3641157,"description":["PN-PT 09-17"]},{"id":"POP-POZ95","label":"PAKERSI PIĄTKOWO","address":"Zygmunta Starego 14","city":"Poznań","longitude":16.910460839546,"latitude":52.459424104012,"description":["PN-PT 10-18 SB 09-13"]},{"id":"POP-ROK1","label":"SKLEP KOMPUTEROWY","address":"Gminna 3 OBOK URZĘDU GMINY","city":"Rokietnica","longitude":16.754808,"latitude":52.5103862,"description":["PN-PT 09-17"]},{"id":"POP-ROK2","label":"SKLEP SPOŻYWCZY","address":"Golecińska 15","city":"Rokietnica","longitude":16.75541756,"latitude":52.50653391,"description":["PN-PT 06-18 SB 07-16"]},{"id":"POP-SLS4","label":"MBE MAILBOX","address":"Nowy Rynek 4","city":"Suchy Las","longitude":16.8794595,"latitude":52.4750416,"description":["PN-PT 09-17"]},{"id":"POP-SLS5","label":"REDAKCJA AGROPROFIL","address":"Osiedle Jagodowe 5","city":"Suchy Las","longitude":16.86735594,"latitude":52.47239773,"description":["PN-PT 08-18"]},{"id":"POP-SWD11","label":"SKLEP LATYNKA","address":"Rynek 28","city":"Swarzędz","longitude":17.07732599,"latitude":52.410674,"description":["PN-PT 10-18 SB 10-14"]},{"id":"POP-TRW4","label":"PUNKT INPOST OSIEDLE TARNOWO CENTRUM","address":"Ks. Zbigniewa Sasa 4/U3","city":"Tarnowo Podgórne","longitude":16.6658284,"latitude":52.4673337,"description":["PN-PT 09-18 SB 09-13"]},{"id":"POP-ZAS2","label":"JULANDO SKLEP Z ART DZIECIĘCYMI","address":"Planetarna 15A","city":"Zalasewo","longitude":17.07046,"latitude":52.3898666,"description":["PN-PT 10-18"]},{"id":"POP-ZLN1","label":"SKLEP OGÓLNOSPOŻYWCZY","address":"Łagiewnicka 28","city":"Złotniki","longitude":16.8489952,"latitude":52.4948418,"description":["PN-SB 06-18 ND 09-13"]},{"id":"POZ01A","label":"Przy Fitness Club Podolany","address":"Strzeszyńska 61A","city":"Poznań","longitude":16.89353,"latitude":52.44772,"description":["24/7"]},{"id":"POZ01HO","label":"poziom -3 przy schodach ruchomych","address":"Półwiejska 42","city":"Poznań","longitude":16.9275,"latitude":52.40174,"description":["PN-SB 09-21"]},{"id":"POZ01M","label":"Przy pasażu handlowym","address":"os. Rusa 54","city":"Poznań","longitude":16.9869,"latitude":52.39128,"description":["24/7"]},{"id":"POZ01N","label":"Stacja paliw Watis","address":"Wieruszowska 20","city":"Poznań","longitude":16.84755,"latitude":52.38172,"description":["24/7"]},{"id":"POZ02A","label":"Przy sklepie Żabka","address":"Os. Orła Białego 58","city":"Poznań","longitude":16.96652,"latitude":52.37717,"description":["24/7"]},{"id":"POZ02B","label":"Stacja paliw BP","address":"Bukowska 285","city":"Poznań","longitude":16.83406,"latitude":52.4133,"description":["24/7"]},{"id":"POZ02M","label":"Przy Osiedlowym Domu Kultury Orle Gniazdo","address":"os. Lecha 43","city":"Poznań","longitude":16.975,"latitude":52.39052,"description":["24/7"]},{"id":"POZ02N","label":"Przy markecie Rabat","address":"Łabiszyńska 2","city":"Poznań","longitude":16.98243,"latitude":52.41253,"description":["24/7"]},{"id":"POZ03A","label":"Przy markecie Netto","address":"Czeremchowa 3-5","city":"Poznań","longitude":16.89551,"latitude":52.37424,"description":["24/7"]},{"id":"POZ03B","label":"Parking pasażu Czerwona Torebka","address":"Szwajcarska 1","city":"Poznań","longitude":16.99138,"latitude":52.39374,"description":["24/7"]},{"id":"POZ03L","label":"Przy myjni bezdotykowej","address":"Bułgarska 117","city":"Poznań","longitude":16.8679,"latitude":52.40988,"description":["24/7"]},{"id":"POZ03M","label":"Przy prywatnej posesji na ulicy Dąbrowskiego 154B","address":"Dąbrowskiego 154B","city":"Poznań","longitude":16.88113,"latitude":52.41762,"description":["24/7"]},{"id":"POZ03N","label":"Przy markecie Rabat","address":"Pniewska 15","city":"Poznań","longitude":16.82384,"latitude":52.43111,"description":["24/7"]},{"id":"POZ04A","label":"Stacja paliw Shell","address":"Bułgarska 119","city":"Poznań","longitude":16.86814,"latitude":52.41052,"description":["24/7"]},{"id":"POZ04B","label":"Stacja paliw Shell","address":"Jana Pawła II 12","city":"Poznań","longitude":16.95335,"latitude":52.40515,"description":["24/7"]},{"id":"POZ04L","label":"Stacja paliw Lotos","address":"Żeromskiego 3","city":"Poznań","longitude":16.8913,"latitude":52.41574,"description":["24/7"]},{"id":"POZ04M","label":"Przy parkingu DS Eskulap","address":"Przybyszewskiego 39","city":"Poznań","longitude":16.88928,"latitude":52.40524,"description":["24/7"]},{"id":"POZ05A","label":"Stacja paliw Shell","address":"Al. Solidarności 55","city":"Poznań","longitude":16.91461,"latitude":52.43599,"description":["24/7"]},{"id":"POZ05B","label":"Przy Centrum Handlowym 24","address":"Tatrzańska 1/5","city":"Poznań","longitude":16.84914,"latitude":52.42978,"description":["24/7"]},{"id":"POZ05M","label":"Przy budynku usługowo handlowym","address":"Naramowicka 342","city":"Poznań","longitude":16.94683,"latitude":52.47502,"description":["24/7"]},{"id":"POZ05N","label":"Stacja paliw Circle K","address":"Piłsudskiego 110","city":"Poznań","longitude":16.96114,"latitude":52.38632,"description":["24/7"]},{"id":"POZ06A","label":"Stacja paliw Shell","address":"Lechicka 2","city":"Poznań","longitude":16.91042,"latitude":52.4429,"description":["24/7"]},{"id":"POZ06L","label":"Stacja paliw Shell","address":"Krzywoustego 309","city":"Poznań","longitude":16.99442,"latitude":52.35682,"description":["24/7"]},{"id":"POZ06M","label":"Na dziedzińcu pawilonu handlowego","address":"Racjonalizatorów 3","city":"Poznań","longitude":16.90478,"latitude":52.36652,"description":["24/7"]},{"id":"POZ06N","label":"Przy markecie Lewiatan","address":"Chojnicka 53","city":"Poznań","longitude":16.78218,"latitude":52.47749,"description":["24/7"]},{"id":"POZ07B","label":"Stacja paliw AMIC ENERGY","address":"Głogowska 268","city":"Poznań","longitude":16.86899,"latitude":52.37494,"description":["24/7"]},{"id":"POZ07L","label":"Przy sklepie Agata Meble","address":"Głogowska 422","city":"Poznań","longitude":16.84901,"latitude":52.35777,"description":["24/7"]},{"id":"POZ07M","label":"Przy biurowcu Victoria","address":"Strzelecka 49","city":"Poznań","longitude":16.93657,"latitude":52.39996,"description":["24/7"]},{"id":"POZ08A","label":"Stacja paliw BP","address":"Grunwaldzka 108","city":"Poznań","longitude":16.86869,"latitude":52.39652,"description":["24/7"]},{"id":"POZ08L","label":"Na podziemnym parkingu Galerii MM","address":"św. Marcin 24","city":"Poznań","longitude":16.92731,"latitude":52.40572,"description":["24/7"]},{"id":"POZ08M","label":"Przy sklepie spożywczym","address":"Jarosławska 10","city":"Poznań","longitude":16.98704,"latitude":52.34097,"description":["24/7"]},{"id":"POZ08N","label":"Przy zakładzie mięsnym Bystry","address":"os. Lotnictwa Polskiego 9","city":"Poznań","longitude":16.86551,"latitude":52.42284,"description":["24/7"]},{"id":"POZ09B","label":"Parking Galerii Malwowej","address":"Malwowa 162","city":"Poznań","longitude":16.80237,"latitude":52.39692,"description":["24/7"]},{"id":"POZ09M","label":"Przy sklepie Żabka","address":"Błażeja 3","city":"Poznań","longitude":16.94642,"latitude":52.45565,"description":["24/7"]},{"id":"POZ09ML","label":"Przy markecie Biedronka","address":"Bolesława Śmiałego 109","city":"Poznań","longitude":16.92298,"latitude":52.4519,"description":["24/7"]},{"id":"POZ09N","label":"Przy Aptece","address":"Naramowicka 172","city":"Poznań","longitude":16.94823,"latitude":52.45154,"description":["24/7"]},{"id":"POZ100M","label":"Przy wjeździe od ul. Lwowskiej","address":"Baraniaka 88a","city":"Poznań","longitude":16.96423,"latitude":52.40084,"description":["24/7"]},{"id":"POZ101M","label":"parking przy hotelu IBIS","address":"Kazimierza Wielkiego 23","city":"Poznań","longitude":16.94201,"latitude":52.4025,"description":["24/7"]},{"id":"POZ103M","label":"Przy pływalni Atlantis","address":"Os. Stefana Batorego 101","city":"Poznań","longitude":16.925041,"latitude":52.456227,"description":["24/7"]},{"id":"POZ104M","label":"Przy pływalni miejskiej Rataje","address":"Os. Piastowskie 55a","city":"Poznań","longitude":16.943888,"latitude":52.393152,"description":["24/7"]},{"id":"POZ105M","label":"Parking przy basenie Chwiałka","address":"Jana Spychalskiego 34","city":"Poznań","longitude":16.927344,"latitude":52.394693,"description":["24/7"]},{"id":"POZ106M","label":"Przy Lodowisku Chwiałka od strony giełdy kwiatowej","address":"o. Mariana Żelazka 1","city":"Poznań","longitude":16.928997,"latitude":52.391722,"description":["24/7"]},{"id":"POZ108M","label":"front prywatnej posesji","address":"Ostrobramska 20","city":"Poznań","longitude":16.881976,"latitude":52.383581,"description":["24/7"]},{"id":"POZ10A","label":"Przy markecie Biedronka","address":"Książęca 3","city":"Poznań","longitude":16.93151,"latitude":52.36694,"description":["24/7"]},{"id":"POZ10B","label":"Przy sklepie Kaufland","address":"Al. Solidarności 42","city":"Poznań","longitude":16.92752,"latitude":52.43531,"description":["24/7"]},{"id":"POZ10M","label":"Na parkingu przy markecie ALDI","address":"Jugosłowiańska 33","city":"Poznań","longitude":16.86683,"latitude":52.39151,"description":["24/7"]},{"id":"POZ10ML","label":"Przy markecie Biedronka","address":"Dolna Wilda 109","city":"Poznań","longitude":16.9222,"latitude":52.38415,"description":["24/7"]},{"id":"POZ10N","label":"Paczkomat umieszczony na bocznej ścianie sklepu","address":"Kwiatkowskiego 55","city":"Poznań","longitude":16.88732,"latitude":52.36757,"description":["24/7"]},{"id":"POZ110M","label":"teren zielony przy kontenerze spożywczym","address":"Babimojska 1","city":"Poznań","longitude":16.859168,"latitude":52.391786,"description":["24/7"]},{"id":"POZ118M","label":"Na parkingu sklepu Lewiatan","address":"Admiralska 25","city":"Poznań","longitude":16.772344,"latitude":52.476961,"description":["24/7"]},{"id":"POZ11A","label":"Stacja paliw Shell","address":"Abp.Baraniaka 100","city":"Poznań","longitude":16.96886,"latitude":52.39987,"description":["24/7"]},{"id":"POZ11M","label":"Na parkingu budynku Usługowo-Handlowego","address":"Obornicka 309","city":"Poznań","longitude":16.89715,"latitude":52.45681,"description":["24/7"]},{"id":"POZ11ML","label":"Przy markecie Biedronka","address":"Czecha 73","city":"Poznań","longitude":16.97684,"latitude":52.38627,"description":["24/7"]},{"id":"POZ12A","label":"Przy Galerii Malta","address":"Maltańska 1","city":"Poznań","longitude":16.95995,"latitude":52.40092,"description":["24/7"]},{"id":"POZ12B","label":"Stacja paliw BP","address":"Dąbrowskiego 543","city":"Poznań","longitude":16.80133,"latitude":52.4337,"description":["24/7"]},{"id":"POZ12M","label":"Przy Cukierni Expresowa","address":"Wilczak 3","city":"Poznań","longitude":16.94879,"latitude":52.42884,"description":["24/7"]},{"id":"POZ12ML","label":"Przy sklepie Dino","address":"Pszczyńska 40","city":"Poznań","longitude":16.87585,"latitude":52.36978,"description":["24/7"]},{"id":"POZ12N","label":"Przy sklepie spożywczym","address":"Ezopa 2","city":"Poznań","longitude":16.83661,"latitude":52.40884,"description":["24/7"]},{"id":"POZ13A","label":"Przy markecie Chata Polska","address":"Muszkowska 2","city":"Poznań","longitude":16.82706,"latitude":52.43463,"description":["24/7"]},{"id":"POZ13M","label":"Przy Lidlu","address":"Głogowska 228-234","city":"Poznań","longitude":16.87394,"latitude":52.37862,"description":["24/7"]},{"id":"POZ13N","label":"Przy sklepie Żabka","address":"Omańkowskiej 108","city":"Poznań","longitude":16.89575,"latitude":52.45699,"description":["24/7"]},{"id":"POZ14A","label":"Przy markecie Chata Polska","address":"Stróżyńskiego 29","city":"Poznań","longitude":16.90312,"latitude":52.46326,"description":["24/7"]},{"id":"POZ14B","label":"Stacja paliw BP","address":"Czechosłowacka 102","city":"Poznań","longitude":16.89423,"latitude":52.37517,"description":["24/7"]},{"id":"POZ14M","label":"Przy Chacie Polskiej","address":"Chrobrego 119","city":"Poznań","longitude":16.91462,"latitude":52.45026,"description":["24/7"]},{"id":"POZ14N","label":"Przy sklepie Bio Family","address":"Murawa 2","city":"Poznań","longitude":16.93655,"latitude":52.42691,"description":["24/7"]},{"id":"POZ15A","label":"Przy markecie Chata Polska","address":"os. Leśne 21A","city":"Koziegłowy","longitude":16.99347,"latitude":52.44875,"description":["24/7"]},{"id":"POZ15B","label":"Przy Zakładzie Opieki Zdrowotnej","address":"Obornicka 262","city":"Poznań","longitude":16.90797,"latitude":52.44796,"description":["24/7"]},{"id":"POZ15M","label":"przy hurtowni GRACJA","address":"Żytnia 17A","city":"Poznań","longitude":16.94385,"latitude":52.4359,"description":["24/7"]},{"id":"POZ15N","label":"Na parkingu","address":"Szczepankowo 99A","city":"Poznań","longitude":17.01712,"latitude":52.36114,"description":["24/7"]},{"id":"POZ16A","label":"Na parkingu Galerii Dębiec","address":"28 Czerwca 1956 roku 384","city":"Poznań","longitude":16.90322,"latitude":52.36281,"description":["24/7"]},{"id":"POZ16B","label":"Stacja paliw AMIC ENERGY","address":"Warszawska 67","city":"Poznań","longitude":16.9731,"latitude":52.40979,"description":["24/7"]},{"id":"POZ16M","label":"Na parkingu sklepu Lidl","address":"Fabryczna 23","city":"Poznań","longitude":16.90893,"latitude":52.38664,"description":["24/7"]},{"id":"POZ16N","label":"Przy sklepie Freshmarket","address":"Głuszyna 2","city":"Poznań","longitude":16.91823,"latitude":52.34176,"description":["24/7"]},{"id":"POZ17A","label":"Przy PIXEL Allegro","address":"Grunwaldzka 182","city":"Poznań","longitude":16.85809,"latitude":52.39154,"description":["24/7"]},{"id":"POZ17B","label":"Na terenie Business Garden","address":"Kolorowa 2","city":"Poznań","longitude":16.86549,"latitude":52.40565,"description":["24/7"]},{"id":"POZ17M","label":"Przy sklepie Chata Polska","address":"Wojska Polskiego 6/8","city":"Poznań","longitude":16.90844,"latitude":52.42472,"description":["24/7"]},{"id":"POZ17N","label":"Przy sklepie Carrefour","address":"Nowogrodzka 13/15","city":"Poznań","longitude":16.98522,"latitude":52.4088,"description":["24/7"]},{"id":"POZ18B","label":"Przy sklepie Społem","address":"Czechosłowacka 53A","city":"Poznań","longitude":16.90052,"latitude":52.37,"description":["24/7"]},{"id":"POZ18M","label":"Przy budynku usługowo-handlowym","address":"Piątkowska 105","city":"Poznań","longitude":16.91506,"latitude":52.43036,"description":["24/7"]},{"id":"POZ18N","label":"Przy sklepie Chata Polska","address":"Naramowicka 234","city":"Poznań","longitude":16.94781,"latitude":52.46131,"description":["24/7"]},{"id":"POZ19A","label":"Przy sklepie Biedronka","address":"Naramowicka 104","city":"Poznań","longitude":16.948,"latitude":52.439,"description":["24/7"]},{"id":"POZ19M","label":"Przy sklepie Lidl","address":"Bobrzańska 19","city":"Poznań","longitude":16.97237,"latitude":52.3831,"description":["24/7"]},{"id":"POZ19N","label":"Przy Galerii A2","address":"Głogowska 440","city":"Poznań","longitude":16.84078,"latitude":52.35382,"description":["24/7"]},{"id":"POZ20A","label":"Parking Apteki Krzyżowniki","address":"Sianowska 151A","city":"Poznań","longitude":16.8095,"latitude":52.43495,"description":["24/7"]},{"id":"POZ20M","label":"Na parkingu sklepu Lidl","address":"28 Czerwca 1956 r. 418","city":"Poznań","longitude":16.90379,"latitude":52.3576,"description":["24/7"]},{"id":"POZ21A","label":"W pobliżu marketu Biedronka","address":"Bogusławskiego 16","city":"Suchy Las","longitude":16.87917,"latitude":52.47441,"description":["24/7"]},{"id":"POZ21M","label":"Na Parkingu przy markecie Lidl","address":"Ku Cytadeli 2","city":"Poznań","longitude":16.9343,"latitude":52.41521,"description":["24/7"]},{"id":"POZ21N","label":"Przy sklepie Green Point","address":"Hetmańska 91","city":"Poznań","longitude":16.91308,"latitude":52.38684,"description":["24/7"]},{"id":"POZ22A","label":"Stacja paliw BP","address":"Przybyszewskiego 39A","city":"Poznań","longitude":16.88914,"latitude":52.40656,"description":["24/7"]},{"id":"POZ22M","label":"Parking Lidla","address":"Bułgarska 113","city":"Poznań","longitude":16.86759,"latitude":52.40884,"description":["24/7"]},{"id":"POZ22N","label":"Przy sklepie Społem PSS","address":"Os. Oświecenia 59","city":"Poznań","longitude":16.95897,"latitude":52.39017,"description":["24/7"]},{"id":"POZ23A","label":"Stacja paliw BP","address":"Rondo Rataje","city":"Poznań","longitude":16.94844,"latitude":52.39657,"description":["24/7"]},{"id":"POZ23N","label":"Przy Centrum Handlowym Świerczewo","address":"Leszczyńska 3","city":"Poznań","longitude":16.88109,"latitude":52.3775,"description":["24/7"]},{"id":"POZ24M","label":"Przy sklepie Aldi","address":"Umultowska 67","city":"Poznań","longitude":16.92726,"latitude":52.45904,"description":["24/7"]},{"id":"POZ25A","label":"Przy sklepie Tesco EXTRA 24H","address":"Serbska 7","city":"Poznań","longitude":16.9516,"latitude":52.43367,"description":["24/7"]},{"id":"POZ25M","label":"Przy parkingu sklepu Lidl","address":"Wilkońskich 1","city":"Poznań","longitude":16.89019,"latitude":52.41695,"description":["24/7"]},{"id":"POZ25N","label":"Na parkingu przy budynku mieszkalnym","address":"Aleksandra Gabszewicza 6","city":"Poznań","longitude":16.9665,"latitude":52.31248,"description":["24/7"]},{"id":"POZ26A","label":"Stacja paliw BP","address":"Bałtycka 37","city":"Poznań","longitude":16.97776,"latitude":52.42669,"description":["24/7"]},{"id":"POZ26M","label":"Na terenie zielonym przy ulicy Raszyńskej 4","address":"Raszyńska 4","city":"Poznań","longitude":16.87518,"latitude":52.38919,"description":["24/7"]},{"id":"POZ26N","label":"Przy markecie Biedronka","address":"Czecha 111","city":"Poznań","longitude":16.98259,"latitude":52.38673,"description":["24/7"]},{"id":"POZ27A","label":"Stacja paliw BP","address":"Serbska 24","city":"Poznań","longitude":16.94669,"latitude":52.431,"description":["24/7"]},{"id":"POZ27M","label":"Na terenie Spółdzielni Mieszkaniowej","address":"Bonin","city":"Poznań","longitude":16.90768,"latitude":52.43075,"description":["24/7"]},{"id":"POZ27N","label":"Przy wejściu do Galerii od ulicy Łubieńskiej","address":"Bukowska 156","city":"Poznań","longitude":16.86306,"latitude":52.40998,"description":["24/7"]},{"id":"POZ28A","label":"Przy markecie E.Leclerc","address":"Winklera 1","city":"Poznań","longitude":16.89106,"latitude":52.38777,"description":["24/7"]},{"id":"POZ28N","label":"Przy markecie Eurospar","address":"Promienista 160","city":"Poznań","longitude":16.86405,"latitude":52.38652,"description":["24/7"]},{"id":"POZ29A","label":"Hol główny dworca PKP - Poznań","address":"Dworcowa 1","city":"Poznań","longitude":16.91328,"latitude":52.4025,"description":["24/7"]},{"id":"POZ29M","label":"Przy budynku obok parkingu sklepu Lidl","address":"Obornicka 282-284","city":"Poznań","longitude":16.90588,"latitude":52.45105,"description":["24/7"]},{"id":"POZ29N","label":"Przy wejściu głównym do budynku","address":"Szamarzewskiego 89","city":"Poznań","longitude":16.88474,"latitude":52.41369,"description":["24/7"]},{"id":"POZ30M","label":"Przy sklepie Lidl, od strony stacji paliw Orlen","address":"Piątkowska 64","city":"Poznań","longitude":16.91841,"latitude":52.42542,"description":["24/7"]},{"id":"POZ30N","label":"Przy domach studenckich","address":"Piątkowska 80","city":"Poznań","longitude":16.91721,"latitude":52.42844,"description":["24/7"]},{"id":"POZ31A","label":"Stacja paliw BP","address":"Umultowska 2","city":"Poznań","longitude":16.92987,"latitude":52.44375,"description":["24/7"]},{"id":"POZ31M","label":"Na parkingu sklepu Lidl","address":"Dymka 212","city":"Poznań","longitude":16.99361,"latitude":52.39305,"description":["24/7"]},{"id":"POZ32A","label":"Stacja paliw BP","address":"Mieszka I 28","city":"Poznań","longitude":16.92134,"latitude":52.43871,"description":["24/7"]},{"id":"POZ32M","label":"Na parkingu sklepu Lidl","address":"Piłsudskiego 116","city":"Poznań","longitude":16.9602,"latitude":52.38636,"description":["24/7"]},{"id":"POZ32N","label":"Parking przy UAM","address":"Krygowskiego 10","city":"Poznań","longitude":16.94085,"latitude":52.46279,"description":["24/7"]},{"id":"POZ33A","label":"Przy lokalu wolnostojącym Sprzedaż okien","address":"os. Zwycięstwa 13","city":"Poznań","longitude":16.9298,"latitude":52.436,"description":["24/7"]},{"id":"POZ33M","label":"Przy sklepie Lidl","address":"Ostrowska 340","city":"Poznań","longitude":16.99312,"latitude":52.36693,"description":["24/7"]},{"id":"POZ33N","label":"Przy Wydziale Fizyki Uniwersytetu im. Adama Mickiewicza","address":"Umultowska 85","city":"Poznań","longitude":16.92876,"latitude":52.46685,"description":["24/7"]},{"id":"POZ34A","label":"Stacja paliw BP","address":"Kurlandzka 2","city":"Poznań","longitude":16.95758,"latitude":52.37651,"description":["24/7"]},{"id":"POZ34M","label":"Na parkingu przy sklepie Lidl","address":"Starołęcka 109B","city":"Poznań","longitude":16.92463,"latitude":52.3579,"description":["24/7"]},{"id":"POZ34N","label":"Przy markecie Biedronka","address":"Piaskowa 2/3","city":"Poznań","longitude":16.93984,"latitude":52.41111,"description":["24/7"]},{"id":"POZ35A","label":"Galeria Handlowa Posnania, poziom -1, strefa Premium Lounge PN-SB 10:00-22:00 ND 10:00-21:00","address":"Pleszewska 1","city":"Poznań","longitude":16.95471,"latitude":52.39832,"description":["PN-SB 10:00-22:00 ND 10:00-21:00"]},{"id":"POZ35M","label":"Przy sklepie spożywczym","address":"Fabianowo 12","city":"Poznań","longitude":16.84585,"latitude":52.36865,"description":["24/7"]},{"id":"POZ35N","label":"Przy Centrum Handlowym Panorama","address":"Górecka 30","city":"Poznań","longitude":16.89641,"latitude":52.38181,"description":["24/7"]},{"id":"POZ36A","label":"Stacja paliw BP","address":"Hetmańska 98","city":"Poznań","longitude":16.91585,"latitude":52.38422,"description":["24/7"]},{"id":"POZ36M","label":"Przy parkingu sklepu Lidl","address":"Wejherowska 4","city":"Poznań","longitude":16.82427,"latitude":52.43125,"description":["24/7"]},{"id":"POZ36N","label":"Przy Domu Studenckim Jowita","address":"Zwierzyniecka 7","city":"Poznań","longitude":16.91034,"latitude":52.40726,"description":["24/7"]},{"id":"POZ37M","label":"Na parkingu sklepu Lidl","address":"Szarych Szeregów 42","city":"Poznań","longitude":16.88449,"latitude":52.45989,"description":["24/7"]},{"id":"POZ38A","label":"Przy prywatnej posesji","address":"Główna 65","city":"Poznań","longitude":16.97537,"latitude":52.42229,"description":["24/7"]},{"id":"POZ38M","label":"Na parkingu za sklepem Lidl, od strony CH Plaza","address":"Księcia Mieszka I 38","city":"Poznań","longitude":16.92115,"latitude":52.4439,"description":["24/7"]},{"id":"POZ38N","label":"Przy Uniwersytecie im. Adama Mickiewicza - Wydział Prawa i Administracji","address":"Al. Niepodległości 53","city":"Poznań","longitude":16.92467,"latitude":52.41522,"description":["24/7"]},{"id":"POZ393","label":"Przy markecie Netto","address":"os. Stare Żegrze 109","city":"Poznań","longitude":16.96673,"latitude":52.38357,"description":["24/7"]},{"id":"POZ39A","label":"Przy sklepie Stokrotka","address":"Jastrzębia 4","city":"Poznań","longitude":16.94989,"latitude":52.38853,"description":["24/7"]},{"id":"POZ39M","label":"Na parkingu sklepu Lidl","address":"Główna 28","city":"Poznań","longitude":16.96869,"latitude":52.41975,"description":["24/7"]},{"id":"POZ39N","label":"Przy Auto Serwisie","address":"Obornicka 288","city":"Poznań","longitude":16.90417,"latitude":52.45182,"description":["24/7"]},{"id":"POZ406","label":"Stacja paliw BP","address":"RONDO OBORNICKIE","city":"Poznań","longitude":16.91032,"latitude":52.44339,"description":["24/7"]},{"id":"POZ40A","label":"Przy sklepie Lidl","address":"Palacza 18","city":"Poznań","longitude":16.88859,"latitude":52.38824,"description":["24/7"]},{"id":"POZ40M","label":"Przy sklepie Lewiatan","address":"Palacza 30/34","city":"Poznań","longitude":16.8851,"latitude":52.38826,"description":["24/7"]},{"id":"POZ40N","label":"Przy bloku mieszkalnym","address":"Szarych Szeregów 24","city":"Poznań","longitude":16.88226,"latitude":52.45851,"description":["24/7"]},{"id":"POZ412","label":"Przy markecie M1","address":"Szwajcarska 14","city":"Poznań","longitude":16.99457,"latitude":52.38252,"description":["24/7"]},{"id":"POZ41A","label":"Przy sklepie Lidl","address":"Zamenhofa 132","city":"Poznań","longitude":16.94344,"latitude":52.38503,"description":["24/7"]},{"id":"POZ41M","label":"Parking przy sklepie Lidl","address":"Kościelna 40","city":"Poznań","longitude":16.90832,"latitude":52.41565,"description":["24/7"]},{"id":"POZ41N","label":"Przy sklepie Wielkie Wina","address":"Olsztyńska 2","city":"Poznań","longitude":16.83779,"latitude":52.43204,"description":["24/7"]},{"id":"POZ42A","label":"Przy sklepie Lidl","address":"Grunwaldzka 533-541","city":"Plewiska","longitude":16.81028,"latitude":52.36748,"description":["24/7"]},{"id":"POZ42M","label":"parking Lidla","address":"Naramowicka 142","city":"Poznań","longitude":16.94804,"latitude":52.44276,"description":["24/7"]},{"id":"POZ42N","label":"Przy sklepie Stokrotka","address":"Leszka 13","city":"Poznań","longitude":17.02432,"latitude":52.40777,"description":["24/7"]},{"id":"POZ43A","label":"Przy sklepie Społem","address":"Podkomorska 2","city":"Poznań","longitude":16.86576,"latitude":52.3977,"description":["24/7"]},{"id":"POZ43M","label":"Niezabudowana posesja od strony ul. Skalskiego","address":"Przelot 39","city":"Poznań","longitude":16.85681,"latitude":52.42255,"description":["24/7"]},{"id":"POZ43N","label":"Przy parkingu strzeżonym","address":"Obrzyca 7","city":"Poznań","longitude":16.94634,"latitude":52.39063,"description":["24/7"]},{"id":"POZ44M","label":"Przy Pasażu Handlowym","address":"os. Jagiellońskie 121b 121B","city":"Poznań","longitude":16.95252,"latitude":52.39116,"description":["24/7"]},{"id":"POZ45A","label":"Przy Aptece","address":"os. Stare Żegrze 110A","city":"Poznań","longitude":16.96734,"latitude":52.38358,"description":["24/7"]},{"id":"POZ45M","label":"Przy Żabce","address":"Pawia 16","city":"Poznań","longitude":16.94562,"latitude":52.38082,"description":["24/7"]},{"id":"POZ45N","label":"Przy sklepie Społem","address":"Grunwaldzka 279","city":"Poznań","longitude":16.84392,"latitude":52.38678,"description":["24/7"]},{"id":"POZ46M","label":"Teren zielony przed sklepem Stokrotka","address":"Langiewicza 23","city":"Poznań","longitude":16.91703,"latitude":52.38762,"description":["24/7"]},{"id":"POZ46N","label":"Na parkingu","address":"Piekary 1","city":"Poznań","longitude":16.92761,"latitude":52.40565,"description":["24/7"]},{"id":"POZ47A","label":"Na stacji paliw Circle K","address":"Bobrzańska 21","city":"Poznań","longitude":16.97356,"latitude":52.3822,"description":["24/7"]},{"id":"POZ47N","label":"Myjnia samochodowa F1 CarWash","address":"Złotowska 6-8","city":"Poznań","longitude":16.83204,"latitude":52.41251,"description":["24/7"]},{"id":"POZ48M","label":"Na Terenie firmy |Ferrodo| od strony ul. Biskupińskiej","address":"Zakopiańska 239","city":"Poznań","longitude":16.86607,"latitude":52.46158,"description":["24/7"]},{"id":"POZ48N","label":"Na tyłach stacji paliw Circle K","address":"Chartowo 21","city":"Poznań","longitude":16.98116,"latitude":52.39182,"description":["24/7"]},{"id":"POZ49A","label":"Przy sklepie Lidl","address":"Grunwaldzka 104","city":"Poznań","longitude":16.87005,"latitude":52.39646,"description":["24/7"]},{"id":"POZ49M","label":"Przy Hotelu Dorrian","address":"Stanisława Wyspiańskiego 29","city":"Poznań","longitude":16.89319,"latitude":52.3991,"description":["24/7"]},{"id":"POZ49N","label":"Na parkingu przy sklepie Biedronka","address":"Starołęcka 1","city":"Poznań","longitude":16.9433,"latitude":52.37853,"description":["24/7"]},{"id":"POZ50A","label":"Na parkingu przy sklepie Lidl","address":"Szymanowskiego 13","city":"Poznań","longitude":16.90846,"latitude":52.45956,"description":["24/7"]},{"id":"POZ50M","label":"Teren zielony przy pawilonie handlowym","address":"Gminna 3","city":"Poznań","longitude":17.02659,"latitude":52.35066,"description":["24/7"]},{"id":"POZ50N","label":"Na parkingu naziemnym przy Galerii Pestka","address":"Aleje Solidarności 47","city":"Poznań","longitude":16.91797,"latitude":52.43717,"description":["24/7"]},{"id":"POZ51A","label":"Na terenie myjni samoobsługowej","address":"Kacza 15","city":"Poznań","longitude":16.86187,"latitude":52.38195,"description":["24/7"]},{"id":"POZ51M","label":"Przy sklepie Lewiatan","address":"Winiary 54","city":"Poznań","longitude":16.91072,"latitude":52.43358,"description":["24/7"]},{"id":"POZ51N","label":"Przy supermarkecie Intermarche po prawej stronie","address":"Umultowska 32","city":"Poznań","longitude":16.92924,"latitude":52.45161,"description":["24/7"]},{"id":"POZ52A","label":"Niezabudowana działka od strony ul. Wachowiaka","address":"Wachowiaka 15","city":"Poznań","longitude":16.92319,"latitude":52.44873,"description":["24/7"]},{"id":"POZ52M","label":"Parking przy sklepie Społem","address":"Andrychowska 27","city":"Poznań","longitude":16.92407,"latitude":52.34159,"description":["24/7"]},{"id":"POZ52N","label":"przy parkingu","address":"Rabczańska 1","city":"Poznań","longitude":16.88434,"latitude":52.44512,"description":["24/7"]},{"id":"POZ53M","label":"Skrzyżowanie ulic Morasko/Hodowlana","address":"Morasko","city":"Poznań","longitude":16.90519,"latitude":52.47561,"description":["24/7"]},{"id":"POZ53N","label":"Przy sklepie Społem","address":"Lelewela 8","city":"Poznań","longitude":16.88573,"latitude":52.36008,"description":["24/7"]},{"id":"POZ54M","label":"wzdłuż bocznej ściany budynku","address":"Szamarzewskiego 53","city":"Poznań","longitude":16.89363,"latitude":52.41193,"description":["24/7"]},{"id":"POZ54N","label":"Przy prywatnej posesji","address":"Skwierzyńska 1","city":"Poznań","longitude":16.93595,"latitude":52.44628,"description":["24/7"]},{"id":"POZ55M","label":"Teren zielony przed blokIem","address":"Dolina 11","city":"Poznań","longitude":16.92434,"latitude":52.39291,"description":["24/7"]},{"id":"POZ56M","label":"Przy Sklepie spożywczo-monopolowym","address":"os. Armii Krajowej 94A","city":"Poznań","longitude":16.95071,"latitude":52.38137,"description":["24/7"]},{"id":"POZ56N","label":"Przy sklepie Ecomark","address":"Rzeszowska 2","city":"Poznań","longitude":16.85046,"latitude":52.45345,"description":["24/7"]},{"id":"POZ57M","label":"Przy budynku administarcji osiedla","address":"os. Przemysława 21","city":"Poznań","longitude":17.00318,"latitude":52.38794,"description":["24/7"]},{"id":"POZ58M","label":"Stacja paliw Lotos","address":"Chociszewskiego 49","city":"Poznań","longitude":16.88521,"latitude":52.39392,"description":["24/7"]},{"id":"POZ59M","label":"Teren zielony przed budynkiem","address":"Bogusławskiego 31","city":"Poznań","longitude":16.89302,"latitude":52.39199,"description":["24/7"]},{"id":"POZ59N","label":"Przy Delikatesach Szymex","address":"Wspólna 32","city":"Poznań","longitude":16.90985,"latitude":52.37706,"description":["24/7"]},{"id":"POZ60M","label":"Parking przy skrzyżowaniu ulic Poznańska i Wąska","address":"Poznańska 11-17","city":"Poznań","longitude":16.90596,"latitude":52.41388,"description":["24/7"]},{"id":"POZ60N","label":"na parkingu za centrum handlowym","address":"Łukaszewicza 43","city":"Poznań","longitude":16.90326,"latitude":52.3899,"description":["24/7"]},{"id":"POZ61M","label":"Przy Aptece GEMINI","address":"Os. Wichrowe Wzgórze 105","city":"Poznań","longitude":16.93995,"latitude":52.43837,"description":["24/7"]},{"id":"POZ62M","label":"Przy budynku produkcyjnym","address":"Ostrówek 8","city":"Poznań","longitude":16.95225,"latitude":52.4116,"description":["24/7"]},{"id":"POZ62N","label":"Parking samochodowy","address":"Strzałowa 6","city":"Poznań","longitude":16.93139,"latitude":52.40317,"description":["24/7"]},{"id":"POZ63M","label":"Pensjonat Akropol od ul. Wegiliusza","address":"Teokryta 34","city":"Poznań","longitude":16.88082,"latitude":52.44471,"description":["24/7"]},{"id":"POZ63N","label":"Na stacji paliw Poztel","address":"Wołczyńska 50","city":"Poznań","longitude":16.82822,"latitude":52.37622,"description":["24/7"]},{"id":"POZ64M","label":"Niezabudowana działka przy pawilonie handlowym","address":"Kórnicka 28","city":"Poznań","longitude":16.95141,"latitude":52.39949,"description":["24/7"]},{"id":"POZ65M","label":"Na parkingu samochodowym","address":"Sokoła 5a","city":"Poznań","longitude":16.91208,"latitude":52.4244,"description":["24/7"]},{"id":"POZ65N","label":"Przy sklepie Społem","address":"Główna 35","city":"Poznań","longitude":16.96979,"latitude":52.42101,"description":["24/7"]},{"id":"POZ66M","label":"Przy Administracji Osiedla","address":"Os. Przyjaźni 142","city":"Poznań","longitude":16.92128,"latitude":52.4298,"description":["24/7"]},{"id":"POZ66N","label":"Na parkingu sklepu Zaopatrzenie Ogrodnicze","address":"Franowo 1","city":"Poznań","longitude":16.98341,"latitude":52.37738,"description":["24/7"]},{"id":"POZ67M","label":"Paczkomat umieszczony wzdłuż chodnika, na pasie zieleni","address":"Zorza 3","city":"Poznań","longitude":16.87953,"latitude":52.40693,"description":["24/7"]},{"id":"POZ67N","label":"Teren zielony przed budynkiem nr 4","address":"Falista 4","city":"Poznań","longitude":16.94816,"latitude":52.36998,"description":["24/7"]},{"id":"POZ68M","label":"Parking przy budynku usługowo-handlowym","address":"Ławica 2","city":"Poznań","longitude":16.82367,"latitude":52.41004,"description":["24/7"]},{"id":"POZ68N","label":"Przy sklepie Duży Ben od strony ul. Połabskiej","address":"Os. Wichrowe Wzgórze 121","city":"Poznań","longitude":16.9312,"latitude":52.43919,"description":["24/7"]},{"id":"POZ69M","label":"Parking warsztatu samochodowego","address":"28 Czerwca 1956 r. 283","city":"Poznań","longitude":16.90557,"latitude":52.37507,"description":["24/7"]},{"id":"POZ69N","label":"Przy Centrum Fitness","address":"Budziszyńska 23/27","city":"Poznań","longitude":16.84568,"latitude":52.38953,"description":["24/7"]},{"id":"POZ70M","label":"Przy posesji","address":"Murawa 26a","city":"Poznań","longitude":16.93646,"latitude":52.42925,"description":["24/7"]},{"id":"POZ71M","label":"Przy sklepie Żabka","address":"Łozowa 101","city":"Poznań","longitude":16.90705,"latitude":52.36298,"description":["24/7"]},{"id":"POZ72M","label":"Przy punkcie ksero","address":"Wołyńska 42","city":"Poznań","longitude":16.90768,"latitude":52.42793,"description":["24/7"]},{"id":"POZ73M","label":"Na parkingu marketu Dino","address":"Starołęcka 219","city":"Poznań","longitude":16.91869,"latitude":52.34413,"description":["24/7"]},{"id":"POZ74M","label":"Przy supermarkecie","address":"Chojnicka 72/74","city":"Poznań","longitude":16.7823,"latitude":52.4784,"description":["24/7"]},{"id":"POZ76M","label":"Stacja paliw Lotos","address":"Al.Solidarności 48","city":"Poznań","longitude":16.92341,"latitude":52.43533,"description":["24/7"]},{"id":"POZ77M","label":"Przy wypożyczalni Ramirent","address":"Głogowska 267","city":"Poznań","longitude":16.8689,"latitude":52.37391,"description":["24/7"]},{"id":"POZ78M","label":"Ściana frontowa ALDI","address":"Bobrzańska 11","city":"Poznań","longitude":16.96803,"latitude":52.38698,"description":["24/7"]},{"id":"POZ79M","label":"Pod schodami od ulicy Kościuszki","address":"Andersa 1","city":"Poznań","longitude":16.92485,"latitude":52.40189,"description":["24/7"]},{"id":"POZ80M","label":"Trawnik przy bloku mieszkalnym","address":"Junacka 2","city":"Poznań","longitude":16.86799,"latitude":52.39046,"description":["24/7"]},{"id":"POZ81M","label":"Przy biurowcu","address":"Jugosłowiańska 22","city":"Poznań","longitude":16.86334,"latitude":52.39398,"description":["24/7"]},{"id":"POZ82M","label":"Przy wjeździe na posesję","address":"Śniadeckich 40","city":"Poznań","longitude":16.90296,"latitude":52.40274,"description":["24/7"]},{"id":"POZ84M","label":"Parking samochodowy","address":"Piątkowska 149","city":"Poznań","longitude":16.91244,"latitude":52.43502,"description":["24/7"]},{"id":"POZ85M","label":"Parking przed Mleczarnią Naramowice","address":"Karpia 31","city":"Poznań","longitude":16.96133,"latitude":52.44456,"description":["24/7"]},{"id":"POZ86M","label":"Przy pasażu handlowym","address":"Os. Przyjaźni 125A","city":"Poznań","longitude":16.9295,"latitude":52.43086,"description":["24/7"]},{"id":"POZ87M","label":"Przy stacji paliwowej Shell","address":"Obornicka 337","city":"Poznań","longitude":16.89308,"latitude":52.45994,"description":["24/7"]},{"id":"POZ88M","label":"Za Apteką Wrzosowa, od strony ul. Turkusowej","address":"Błękitna 1-7","city":"Poznań","longitude":16.90425,"latitude":52.43051,"description":["24/7"]},{"id":"POZ89M","label":"Przy sklepie Społem","address":"Okulickiego 68","city":"Poznań","longitude":16.88337,"latitude":52.36383,"description":["24/7"]},{"id":"POZ90M","label":"Parking przed kościołem","address":"Warzywna 17","city":"Poznań","longitude":16.92875,"latitude":52.42789,"description":["24/7"]},{"id":"POZ91M","label":"Prywatna posesja od ul. Kasprzaka","address":"Hetmańska 42","city":"Poznań","longitude":16.89277,"latitude":52.39031,"description":["24/7"]},{"id":"POZ92M","label":"Na parkingu myjni Banieczka","address":"Dmowskiego 105","city":"Poznań","longitude":16.89415,"latitude":52.38378,"description":["24/7"]},{"id":"POZ93M","label":"Kompleks garaży od ulicy Kordeckiego","address":"Kordeckiego 8A","city":"Poznań","longitude":16.88136,"latitude":52.38655,"description":["24/7"]},{"id":"POZ94M","label":"Przy parkingu samochodowym","address":"Mickiewicza 11","city":"Poznań","longitude":16.9114,"latitude":52.41198,"description":["24/7"]},{"id":"POZ95M","label":"teren zielony przy bloku mieszkalnym ul. Czeremchowa 2","address":"Czechosłowacka 98","city":"Poznań","longitude":16.89493,"latitude":52.37349,"description":["24/7"]},{"id":"POZ96M","label":"na tyłach posesji od strony stacji paliw Orlen","address":"Stróżyńskiego 19","city":"Poznań","longitude":16.90322,"latitude":52.45744,"description":["24/7"]},{"id":"POZ97M","label":"Parking hotelowy od ulicy Zwierzynieckiej","address":"Roosevelta 20","city":"Poznań","longitude":16.91081,"latitude":52.4085,"description":["24/7"]},{"id":"POZ989","label":"Przy Delikatesach Centrum","address":"Osiedle Armii Krajowej 125","city":"Poznań","longitude":16.95368,"latitude":52.37945,"description":["24/7"]},{"id":"POZ98M","label":"Przy biurowcu","address":"Kargowska 7","city":"Poznań","longitude":16.876281,"latitude":52.390882,"description":["24/7"]},{"id":"POZ99M","label":"Przy boisku Szkoły Podstawowej","address":"Druskienicka 32","city":"Poznań","longitude":16.88774,"latitude":52.45118,"description":["24/7"]},{"id":"PRM01A","label":"Przy pasażu Przeźmierowo","address":"Rynkowa 75 C","city":"Przeźmierowo","longitude":16.78622,"latitude":52.42614,"description":["24/7"]},{"id":"PRM01M","label":"Na parkingu Sklepu Rowerowego Małgośka","address":"Rynkowa 26","city":"Przeźmierowo","longitude":16.7817265824,"latitude":52.4328928748,"description":["24/7"]},{"id":"PUS01A","label":"Przy sklepie Żabka","address":"Poznańska 46B","city":"Puszczykowo","longitude":16.85886,"latitude":52.29004,"description":["24/7"]},{"id":"PUS01M","label":"Na parkingu przy sklepie Stokrotka","address":"Moniuszki 1A","city":"Puszczykowo","longitude":16.86251,"latitude":52.27101,"description":["24/7"]},{"id":"PUS01N","label":"Przy sklepie Społem PSS","address":"Dworcowa 45","city":"Puszczykowo","longitude":16.8597,"latitude":52.27242,"description":["24/7"]},{"id":"PUS02M","label":"Na ścianie frontowej sklepu","address":"Piaskowa 28a","city":"Puszczykowo","longitude":16.85356,"latitude":52.27831,"description":["24/7"]},{"id":"PUS04M","label":"Przy sklepie Arturo","address":"Nowe Osiedle 7","city":"Puszczykowo","longitude":16.86867,"latitude":52.26891,"description":["24/7"]},{"id":"PUS392","label":"Przy sklepie Społem","address":"Poznańska 75","city":"Puszczykowo","longitude":16.85712,"latitude":52.28747,"description":["24/7"]},{"id":"RGN01M","label":"Parking przy Aptece","address":"Mostowa 10","city":"Rogalinek","longitude":16.89622,"latitude":52.25107,"description":["24/7"]},{"id":"RGN02M","label":"Przy sklepie wielobranżowym","address":"Kościelna 1","city":"Rogalinek","longitude":16.89946,"latitude":52.24874,"description":["24/7"]},{"id":"ROA01N","label":"Na parkingu za budynkiem Centrum Medycznego KORMED","address":"Szkolna 18","city":"Robakowo","longitude":17.05732,"latitude":52.30071,"description":["24/7"]},{"id":"ROK01M","label":"Na parkingu Galerii Napoleońskiej","address":"Trakt Napoleoński 11","city":"Rokietnica","longitude":16.73785,"latitude":52.50817,"description":["24/7"]},{"id":"ROK01ML","label":"Przy sklepie Dino","address":"Obornicka 1b","city":"Rokietnica","longitude":16.75472,"latitude":52.51242,"description":["24/7"]},{"id":"ROK01N","label":"Przy budynku dentysty Rokietnica Trakt Napoleoński 41","address":"Trakt Napoleoński 41","city":"Rokietnica","longitude":16.73152,"latitude":52.51285,"description":["24/7"]},{"id":"ROK02A","label":"Na parkingu przy Galerii Handlowej","address":"Szamotulska 29D","city":"Rokietnica","longitude":16.7409,"latitude":52.51295,"description":["24/7"]},{"id":"ROK02M","label":"na parkingu","address":"Szamotulska 1B","city":"Rokietnica","longitude":16.75211,"latitude":52.51267,"description":["24/7"]},{"id":"ROK02N","label":"Na parkingu stacji paliw BP","address":"Poznańska 126","city":"Rokietnica","longitude":16.75493,"latitude":52.49771,"description":["24/7"]},{"id":"SDM01N","label":"Przy hipermarkecie Auchan","address":"św. Antoniego 2","city":"Swadzim","longitude":16.76406,"latitude":52.43933,"description":["24/7"]},{"id":"SDY01M","label":"Przy Żabce","address":"Kobylnicka 2a","city":"Sady","longitude":16.72522,"latitude":52.44993,"description":["24/7"]},{"id":"SII01M","label":"Przy pawilonie handlowym","address":"Kościelna 1","city":"Siekierki Wielkie","longitude":17.16347,"latitude":52.38123,"description":["24/7"]},{"id":"SKW01M","label":"Przy Lidlu","address":"Poznańska 100","city":"Skórzewo","longitude":16.80178,"latitude":52.3956,"description":["24/7"]},{"id":"SKW01N","label":"Przy sklepie Żabka","address":"Poznańska 40","city":"Skórzewo","longitude":16.78933,"latitude":52.39001,"description":["24/7"]},{"id":"SKW02A","label":"Przy markecie Bricomarche","address":"Poznańska 98A","city":"Skórzewo","longitude":16.8014,"latitude":52.39469,"description":["24/7"]},{"id":"SKW02M","label":"Przy prywatnej posesji","address":"Sadowa 11","city":"Skórzewo","longitude":16.80139,"latitude":52.38507,"description":["24/7"]},{"id":"SKW03M","label":"Na parkingu przychodni La Medica","address":"Lawendowa 20","city":"Skórzewo","longitude":16.78025,"latitude":52.39618,"description":["24/7"]},{"id":"SLS01A","label":"Parking przed magazynem Grupa Aptekarska","address":"Nektarowa 15","city":"Suchy Las","longitude":16.86044,"latitude":52.48093,"description":["24/7"]},{"id":"SLS01G","label":"Przy sklepie Żabka","address":"Leśna 62","city":"Suchy Las","longitude":16.89152,"latitude":52.47465,"description":["24/7"]},{"id":"SLS01M","label":"Przy wejściu na teren posesji","address":"Stefana Stefańskiego 2","city":"Suchy Las","longitude":16.86883,"latitude":52.46637,"description":[""]},{"id":"SLS01N","label":"Po lewej stronie od wejścia do Galerii","address":"Obornicka 85","city":"Suchy Las","longitude":16.87514,"latitude":52.47298,"description":["24/7"]},{"id":"SLS02M","label":"Na parkingu sklepu Lidl","address":"Obornicka 127","city":"Suchy Las","longitude":16.86949,"latitude":52.47721,"description":["24/7"]},{"id":"SLS03M","label":"Na prywatnej posesji w miejscu ogrodzenia terenu","address":"Bogusławskiego 58","city":"Suchy Las","longitude":16.87932,"latitude":52.4801,"description":["24/7"]},{"id":"SWD01A","label":"Przy markecie Tesco","address":"Cieszkowskiego 39","city":"Swarzędz","longitude":17.0827,"latitude":52.41968,"description":["24/7"]},{"id":"SWD01B","label":"Stacja paliw BP","address":"Poznańska 45","city":"Swarzędz","longitude":17.05383,"latitude":52.40347,"description":["24/7"]},{"id":"SWD01HO","label":"Przy kasach sklepu SPAR.","address":"Graniczna 55","city":"Swarzędz","longitude":17.06006,"latitude":52.40132,"description":["PN-SB 07-22"]},{"id":"SWD01M","label":"Centrum Handlowe ETC PN-SO 10:00-21:00 ND 11:00-20:00","address":"Poznańska 6","city":"Swarzędz","longitude":17.09435,"latitude":52.4041,"description":["24/7"]},{"id":"SWD01N","label":"Przy markecie Kaufland","address":"Polna 24","city":"Swarzędz","longitude":17.08366,"latitude":52.40891,"description":["24/7"]},{"id":"SWD02A","label":"Przy supermarkecie Eurospar","address":"Graniczna 55","city":"Swarzędz","longitude":17.06001,"latitude":52.40132,"description":["24/7"]},{"id":"SWD02M","label":"Przy parkingu sklepu Lidl","address":"Polna 23","city":"Swarzędz","longitude":17.08275,"latitude":52.40738,"description":["24/7"]},{"id":"SWD02N","label":"Przy sklepie Media Expert","address":"Dworcowa 7","city":"Swarzędz","longitude":17.07424,"latitude":52.40569,"description":["24/7"]},{"id":"SWD03A","label":"Przy sklepie Żabka","address":"Tysiąclecia 4A","city":"Swarzędz","longitude":17.07395,"latitude":52.4024,"description":["24/7"]},{"id":"SWD03M","label":"Parking przy Parku Handlowym","address":"Graniczna 63","city":"Swarzędz","longitude":17.05657,"latitude":52.40179,"description":["24/7"]},{"id":"SWD03N","label":"Przy budynku usługowo-handlowym","address":"Serdeczna 3","city":"Swarzędz","longitude":17.07552,"latitude":52.38613,"description":["24/7"]},{"id":"SWD04M","label":"Parking na terenie posesji","address":"Napoleońska 14","city":"Swarzędz","longitude":17.06729,"latitude":52.40711,"description":["24/7"]},{"id":"SWD04N","label":"Przy sklepie Stokrotka","address":"Kórnicka 91","city":"Swarzędz","longitude":17.07776,"latitude":52.39948,"description":["24/7"]},{"id":"SWD05M","label":"Boki sklepu odzieżowego","address":"Czwartaków 13 (dz. 103/37)","city":"Swarzędz","longitude":17.079956,"latitude":52.417462,"description":["24/7"]},{"id":"SWD971","label":"Przy markecie POLOmarket","address":"Tysiąclecia 17","city":"Swarzędz","longitude":17.06917,"latitude":52.40216,"description":["24/7"]},{"id":"SYT01M","label":"Parking budynku handlowego","address":"Jeziorna 4","city":"Szczytniki","longitude":17.01763,"latitude":52.30265,"description":["24/7"]},{"id":"TRP01A","label":"Na parkingu przy sklepie Żabka","address":"Poznańska 100B","city":"Tarnowo Podgórne","longitude":16.65718,"latitude":52.46343,"description":["24/7"]},{"id":"TRP01M","label":"Przy sklepie Lidl","address":"Poznańska 135","city":"Tarnowo Podgórne","longitude":16.65316,"latitude":52.46095,"description":["24/7"]},{"id":"TRP01N","label":"Przy markecie Tesco","address":"Krucza 1","city":"Tarnowo Podgórne","longitude":16.6763,"latitude":52.46119,"description":["24/7"]},{"id":"TRP03M","label":"Na parkingu sklepu Dino","address":"Rokietnicka 21A","city":"Tarnowo Podgórne","longitude":16.67044,"latitude":52.46704,"description":["24/7"]},{"id":"TUC01M","label":"Na terenie myjni","address":"Dębowa 46","city":"Tulce","longitude":17.074,"latitude":52.34849,"description":["24/7"]},{"id":"TUC01N","label":"Przy sklepie spożywczym","address":"Poznańska 10","city":"Tulce","longitude":17.07429,"latitude":52.34377,"description":["24/7"]},{"id":"WIY01M","label":"Przy myjni bezdotykowej Banieczka.","address":"Polna 1","city":"Wiry","longitude":16.85318,"latitude":52.32086,"description":["24/7"]},{"id":"ZAL01M","label":"Niezabudowana działka naprzeciw Centrum Medycznego Diagnosis","address":"Planetarna 13","city":"Zalasewo","longitude":17.06912,"latitude":52.39121,"description":["24/7"]},{"id":"ZAL02M","label":"Parking przy Lidlu","address":"Planetarna 20","city":"Zalasewo","longitude":17.06699,"latitude":52.39031,"description":["24/7"]},{"id":"ZAL03M","label":"Tył marketu DINO","address":"Kórnicka 188","city":"Zalasewo","longitude":17.076656,"latitude":52.390952,"description":["24/7"]},{"id":"ZLT01G","label":"Przy myjni samochodowej","address":"Łagiewnicka 23","city":"Złotniki","longitude":16.84528,"latitude":52.4935,"description":["24/7"]}]