[{"id":"243","label":"Chludowo/Szkoła","address":"","city":"","longitude":"16.8443741700","latitude":"52.5561078600","closestLines":["905","907"],"popupLines":["905,907"]},{"id":"244","label":"Chludowo/Rynek","address":"","city":"","longitude":"16.8493123200","latitude":"52.5552510800","closestLines":["905","907"],"popupLines":["905,907"]},{"id":"245","label":"Chludowo/Kościół","address":"","city":"","longitude":"16.8454754500","latitude":"52.5574263100","closestLines":["905","907"],"popupLines":["905,907"]},{"id":"246","label":"Chludowo/Tysiąclecia","address":"","city":"","longitude":"16.8384256000","latitude":"52.5593526200","closestLines":["905","907"],"popupLines":["905,907"]},{"id":"247","label":"Chludowo/Tysiąclecia","address":"","city":"","longitude":"16.8382236600","latitude":"52.5594717900","closestLines":["905","907"],"popupLines":["905,907"]},{"id":"248","label":"Chludowo/Wargowska","address":"","city":"","longitude":"16.8321087600","latitude":"52.5600436400","closestLines":["905","907"],"popupLines":["905,907"]},{"id":"249","label":"Chludowo/Wargowska","address":"","city":"","longitude":"16.8342824400","latitude":"52.5600632600","closestLines":["905","907"],"popupLines":["905,907"]},{"id":"250","label":"Chludowo/Stacja","address":"","city":"","longitude":"16.8271220300","latitude":"52.5599405900","closestLines":["905","907"],"popupLines":["905,907"]},{"id":"251","label":"Chludowo/Stacja","address":"","city":"","longitude":"16.8263996400","latitude":"52.5600370600","closestLines":["905","907"],"popupLines":["905,907"]},{"id":"252","label":"Chludowo/Nad Torem","address":"","city":"","longitude":"16.8196280500","latitude":"52.5604177800","closestLines":["905","907"],"popupLines":["905,907"]},{"id":"253","label":"Chludowo/Nad Torem","address":"","city":"","longitude":"16.8210855900","latitude":"52.5602843600","closestLines":["905","907"],"popupLines":["905,907"]},{"id":"254","label":"Zielątkowo/Wspólna","address":"","city":"","longitude":"16.8126771500","latitude":"52.5605640700","closestLines":["905","907"],"popupLines":["905,907"]},{"id":"255","label":"Zielątkowo/Wspólna","address":"","city":"","longitude":"16.8127820000","latitude":"52.5606240800","closestLines":["905","907"],"popupLines":["905,907"]},{"id":"256","label":"Zielątkowo/Pogodna","address":"","city":"","longitude":"16.8069706400","latitude":"52.5600237900","closestLines":["905","907"],"popupLines":["905,907"]},{"id":"257","label":"Zielątkowo/Pogodna","address":"","city":"","longitude":"16.8048330200","latitude":"52.5598768500","closestLines":["905","907"],"popupLines":["905,907"]},{"id":"258","label":"Zielątkowo/OSP","address":"","city":"","longitude":"16.7977223800","latitude":"52.5599872100","closestLines":["905","907"],"popupLines":["905,907"]},{"id":"259","label":"Zielątkowo/OSP","address":"","city":"","longitude":"16.7978700900","latitude":"52.5605177300","closestLines":["905","907"],"popupLines":["905,907"]},{"id":"260","label":"Zielątkowo/Świerkowa","address":"","city":"","longitude":"16.7978270700","latitude":"52.5538325900","closestLines":["905","907"],"popupLines":["905,907"]},{"id":"261","label":"Zielątkowo/Świerkowa","address":"","city":"","longitude":"16.7979004100","latitude":"52.5544832400","closestLines":["905","907"],"popupLines":["905,907"]},{"id":"262","label":"Zielątkowo/Las","address":"","city":"","longitude":"16.8001455900","latitude":"52.5462284100","closestLines":["905","907"],"popupLines":["905,907"]},{"id":"263","label":"Zielątkowo/Las","address":"","city":"","longitude":"16.8000753000","latitude":"52.5463516400","closestLines":["905","907"],"popupLines":["905,907"]},{"id":"264","label":"Golęczewo/Promienista","address":"","city":"","longitude":"16.8116125400","latitude":"52.5371394900","closestLines":["905","907"],"popupLines":["905,907"]},{"id":"265","label":"Golęczewo/Promienista","address":"","city":"","longitude":"16.8109521500","latitude":"52.5372995800","closestLines":["905","907"],"popupLines":["905,907"]},{"id":"266","label":"Golęczewo/Szkoła","address":"","city":"","longitude":"16.8195953300","latitude":"52.5350047900","closestLines":["905","907"],"popupLines":["905,907"]},{"id":"267","label":"Golęczewo/Szkoła","address":"","city":"","longitude":"16.8190061700","latitude":"52.5350996600","closestLines":["905","907"],"popupLines":["905,907"]},{"id":"268","label":"Golęczewo/Stacja","address":"","city":"","longitude":"16.8268641000","latitude":"52.5349678600","closestLines":["905","907"],"popupLines":["905,907"]},{"id":"269","label":"Golęczewo/Stacja","address":"","city":"","longitude":"16.8254695100","latitude":"52.5352214100","closestLines":["905","907"],"popupLines":["905,907"]},{"id":"270","label":"Golęczewo/Obornicka","address":"","city":"","longitude":"16.8346253700","latitude":"52.5354452900","closestLines":["905","907"],"popupLines":["905,907"]},{"id":"271","label":"Golęczewo/Obornicka","address":"","city":"","longitude":"16.8354304500","latitude":"52.5350930700","closestLines":["905","907"],"popupLines":["905,907"]},{"id":"272","label":"Złotkowo/Sobocka","address":"","city":"","longitude":"16.8354751900","latitude":"52.5131390900","closestLines":["905","907"],"popupLines":["905,907"]},{"id":"273","label":"Złotkowo/Sobocka","address":"","city":"","longitude":"16.8354985600","latitude":"52.5132079000","closestLines":["905","907"],"popupLines":["905,907"]},{"id":"274","label":"Złotkowo/Wieś","address":"","city":"","longitude":"16.8391927100","latitude":"52.5115741800","closestLines":["905","907"],"popupLines":["905,907"]},{"id":"275","label":"Złotkowo/Wieś","address":"","city":"","longitude":"16.8395369200","latitude":"52.5114700600","closestLines":["905","907"],"popupLines":["905,907"]},{"id":"276","label":"Złotkowo/Cedrowa","address":"","city":"","longitude":"16.8369692000","latitude":"52.5088791200","closestLines":["905","907"],"popupLines":["905,907"]},{"id":"277","label":"Złotkowo/Cedrowa","address":"","city":"","longitude":"16.8357042100","latitude":"52.5080470900","closestLines":["905","907"],"popupLines":["905,907"]},{"id":"278","label":"Złotkowo/Żytnia","address":"","city":"","longitude":"16.8372413600","latitude":"52.5012182000","closestLines":["832","905","907"],"popupLines":["832,905,907"]},{"id":"279","label":"Złotkowo/Żytnia","address":"","city":"","longitude":"16.8370466500","latitude":"52.5021057200","closestLines":["832","905","907"],"popupLines":["832,905,907"]},{"id":"280","label":"Złotniki/Pawłowicka","address":"","city":"","longitude":"16.8398987000","latitude":"52.4976979800","closestLines":["832","905","907"],"popupLines":["832,905,907"]},{"id":"281","label":"Złotniki/Pawłowicka","address":"","city":"","longitude":"16.8391154200","latitude":"52.4981670100","closestLines":["832","907"],"popupLines":["832,907"]},{"id":"282","label":"Złotniki/Łagiewnicka","address":"","city":"","longitude":"16.8466062100","latitude":"52.4914781500","closestLines":["832","905","907"],"popupLines":["832,905,907"]},{"id":"283","label":"Złotniki/Łagiewnicka","address":"","city":"","longitude":"16.8460696500","latitude":"52.4921588600","closestLines":["832","905","907"],"popupLines":["832,905,907"]},{"id":"285","label":"Złotniki/Zielona","address":"","city":"","longitude":"16.8410081800","latitude":"52.4916171612","closestLines":["905"],"popupLines":["905"]},{"id":"286","label":"Złotniki/Wieś","address":"","city":"","longitude":"16.8311198800","latitude":"52.4867062600","closestLines":["905"],"popupLines":["905"]},{"id":"291","label":"Złotniki/Złotnicka","address":"","city":"","longitude":"16.8546857500","latitude":"52.4856637100","closestLines":["832","901","904","905","907"],"popupLines":["832,901,904,905,907"]},{"id":"292","label":"Złotniki/Złotnicka","address":"","city":"","longitude":"16.8557331300","latitude":"52.4866893800","closestLines":["901","904"],"popupLines":["901,904"]},{"id":"293","label":"Jelonek/Nektarowa","address":"","city":"","longitude":"16.8602369300","latitude":"52.4826130400","closestLines":["832","901","904","905","907"],"popupLines":["832,901,904,905,907"]},{"id":"294","label":"Jelonek/Nektarowa","address":"","city":"","longitude":"16.8592365100","latitude":"52.4832714600","closestLines":["832","901","904","905","907"],"popupLines":["832,901,904,905,907"]},{"id":"295","label":"Złotniki/Os. Grzybowe","address":"","city":"","longitude":"16.8584920500","latitude":"52.4797848400","closestLines":["901"],"popupLines":["901"]},{"id":"297","label":"Złotniki/Złotnicka","address":"","city":"","longitude":"16.8534343900","latitude":"52.4868397800","closestLines":["832","905","907"],"popupLines":["832,905,907"]},{"id":"298","label":"Suchy Las/Konwaliowa","address":"","city":"","longitude":"16.8696378530","latitude":"52.4780036366","closestLines":["832","904","905","907"],"popupLines":["832,904,905,907"]},{"id":"299","label":"Suchy Las/Konwaliowa","address":"","city":"","longitude":"16.8687966719","latitude":"52.4784712780","closestLines":["832","904","905","907"],"popupLines":["832,904,905,907"]},{"id":"300","label":"Suchy Las/Szkoła","address":"","city":"","longitude":"16.8735462100","latitude":"52.4753299200","closestLines":["832","904","905","907"],"popupLines":["832,904,905,907"]},{"id":"301","label":"Suchy Las/Szkoła","address":"","city":"","longitude":"16.8722816600","latitude":"52.4763622500","closestLines":["832","904","905","907"],"popupLines":["832,904,905,907"]},{"id":"302","label":"Suchy Las/Kościół","address":"","city":"","longitude":"16.8772196700","latitude":"52.4731420800","closestLines":["832","904","905","907"],"popupLines":["832,904,905,907"]},{"id":"303","label":"Suchy Las/Kościół","address":"","city":"","longitude":"16.8782179000","latitude":"52.4736033600","closestLines":["901"],"popupLines":["901"]},{"id":"304","label":"Suchy Las/Os. Szafirowe","address":"","city":"","longitude":"16.8753490300","latitude":"52.4708894787","closestLines":["901"],"popupLines":["901"]},{"id":"305","label":"Suchy Las/Kościół","address":"","city":"","longitude":"16.8780680300","latitude":"52.4723317000","closestLines":["832","904","907"],"popupLines":["832,904,907"]},{"id":"306","label":"Suchy Las/Nowy Rynek","address":"","city":"","longitude":"16.8791538900","latitude":"52.4750612400","closestLines":["901","905"],"popupLines":["901,905"]},{"id":"307","label":"Suchy Las/Nowy Rynek","address":"","city":"","longitude":"16.8807941000","latitude":"52.4752666000","closestLines":["901","905"],"popupLines":["901,905"]},{"id":"308","label":"Suchy Las/Strażacka","address":"","city":"","longitude":"16.8851559500","latitude":"52.4750086700","closestLines":["901","905"],"popupLines":["901,905"]},{"id":"309","label":"Suchy Las/Strażacka","address":"","city":"","longitude":"16.8836674700","latitude":"52.4751292700","closestLines":["901","905"],"popupLines":["901,905"]},{"id":"310","label":"Suchy Las/Łąkowa","address":"","city":"","longitude":"16.8790950300","latitude":"52.4811305700","closestLines":["901","902","905"],"popupLines":["901,902,905"]},{"id":"311","label":"Suchy Las/Łąkowa","address":"","city":"","longitude":"16.8790552200","latitude":"52.4805539000","closestLines":["901","902","905"],"popupLines":["901,902,905"]},{"id":"312","label":"Suchy Las/Działki","address":"","city":"","longitude":"16.8796299900","latitude":"52.4866868400","closestLines":["901","902","905"],"popupLines":["901,902,905"]},{"id":"313","label":"Suchy Las/Krańcowa","address":"","city":"","longitude":"16.8864448500","latitude":"52.4813876500","closestLines":["902"],"popupLines":["902"]},{"id":"314","label":"Suchy Las/Krańcowa","address":"","city":"","longitude":"16.8860568100","latitude":"52.4813058000","closestLines":["902"],"popupLines":["902"]},{"id":"315","label":"Morasko","address":"","city":"","longitude":"16.9054379000","latitude":"52.4892681800","closestLines":["902"],"popupLines":["902"]},{"id":"316","label":"Morasko Kościół","address":"","city":"","longitude":"16.9084893200","latitude":"52.4887599500","closestLines":["902"],"popupLines":["902"]},{"id":"317","label":"Morasko Kościół","address":"","city":"","longitude":"16.9089182200","latitude":"52.4884915500","closestLines":["902"],"popupLines":["902"]},{"id":"318","label":"Morasko Cmentarz","address":"","city":"","longitude":"16.9100089000","latitude":"52.4844634100","closestLines":["902"],"popupLines":["902"]},{"id":"319","label":"Morasko Cmentarz","address":"","city":"","longitude":"16.9101536300","latitude":"52.4846278500","closestLines":["902"],"popupLines":["902"]},{"id":"320","label":"Szklarniowa","address":"","city":"","longitude":"16.9062235400","latitude":"52.4771069700","closestLines":["902"],"popupLines":["902"]},{"id":"321","label":"Szklarniowa","address":"","city":"","longitude":"16.9066457200","latitude":"52.4775378300","closestLines":["902"],"popupLines":["902"]},{"id":"322","label":"Deszczowa","address":"","city":"","longitude":"16.9019816600","latitude":"52.4716679700","closestLines":["902"],"popupLines":["902"]},{"id":"323","label":"Deszczowa","address":"","city":"","longitude":"16.9023406135","latitude":"52.4719328406","closestLines":["902"],"popupLines":["902"]},{"id":"324","label":"Suchy Las/Os. Przylesie","address":"","city":"","longitude":"16.8977641800","latitude":"52.4734913200","closestLines":["901","905"],"popupLines":["901,905"]},{"id":"325","label":"Suchy Las/Os. Przylesie","address":"","city":"","longitude":"16.8979097800","latitude":"52.4733187600","closestLines":["901","905"],"popupLines":["901,905"]},{"id":"326","label":"Suchy Las/Sprzeczna","address":"","city":"","longitude":"16.8935577600","latitude":"52.4746912800","closestLines":["901","905"],"popupLines":["901,905"]},{"id":"327","label":"Suchy Las/Sprzeczna","address":"","city":"","longitude":"16.8936914100","latitude":"52.4746265600","closestLines":["901","905"],"popupLines":["901,905"]},{"id":"328","label":"Suchy Las/Promienista","address":"","city":"","longitude":"16.8605156100","latitude":"52.4783970400","closestLines":["901"],"popupLines":["901"]},{"id":"329","label":"Suchy Las/Promienista","address":"","city":"","longitude":"16.8604308500","latitude":"52.4781626300","closestLines":["901"],"popupLines":["901"]},{"id":"330","label":"Suchy Las/Borówkowa","address":"","city":"","longitude":"16.8626849100","latitude":"52.4743723400","closestLines":["901"],"popupLines":["901"]},{"id":"331","label":"Suchy Las/Borówkowa","address":"","city":"","longitude":"16.8637106000","latitude":"52.4736028600","closestLines":["901"],"popupLines":["901"]},{"id":"332","label":"Suchy Las/Os. Jagodowe","address":"","city":"","longitude":"16.8684930200","latitude":"52.4712284700","closestLines":["901"],"popupLines":["901"]},{"id":"333","label":"Suchy Las/Os. Jagodowe","address":"","city":"","longitude":"16.8673430300","latitude":"52.4716052000","closestLines":["901"],"popupLines":["901"]},{"id":"334","label":"Suchy Las/Os. Poziomkowe","address":"","city":"","longitude":"16.8730062900","latitude":"52.4692361000","closestLines":["901"],"popupLines":["901"]},{"id":"335","label":"Suchy Las/Os. Poziomkowe","address":"","city":"","longitude":"16.8728784300","latitude":"52.4693847100","closestLines":["901"],"popupLines":["901"]},{"id":"336","label":"Suchy Las/Wiadukt","address":"","city":"","longitude":"16.8825359634","latitude":"52.4694683081","closestLines":["832","904","907"],"popupLines":["832,904,907"]},{"id":"337","label":"Suchy Las/Wiadukt","address":"","city":"","longitude":"16.8841298500","latitude":"52.4683773500","closestLines":["832","904","907"],"popupLines":["832,904,907"]},{"id":"375","label":"Wietrzna","address":"","city":"","longitude":"16.9009097300","latitude":"52.4687448900","closestLines":["901","902","905"],"popupLines":["901,902,905"]},{"id":"376","label":"Wietrzna","address":"","city":"","longitude":"16.9005959200","latitude":"52.4683871600","closestLines":["901","902","905"],"popupLines":["901,902,905"]},{"id":"685","label":"Palędzie/Nowa","address":"","city":"","longitude":"16.7386973700","latitude":"52.3730021400","closestLines":["729","797"],"popupLines":["729,797"]},{"id":"686","label":"Palędzie/Nowa","address":"","city":"","longitude":"16.7379570600","latitude":"52.3723335300","closestLines":["729","797"],"popupLines":["729,797"]},{"id":"687","label":"Palędzie/Leśna","address":"","city":"","longitude":"16.7358967300","latitude":"52.3695529000","closestLines":["729","797","799"],"popupLines":["729,797,799"]},{"id":"688","label":"Palędzie/Leśna","address":"","city":"","longitude":"16.7357758500","latitude":"52.3690806300","closestLines":["729","797","799"],"popupLines":["729,797,799"]},{"id":"689","label":"Dopiewiec/","address":"","city":"","longitude":"16.7087657600","latitude":"52.3599654400","closestLines":["729","791","797"],"popupLines":["729,791,797"]},{"id":"690","label":"Dopiewiec/","address":"","city":"","longitude":"16.7091852100","latitude":"52.3599545700","closestLines":["729","791","797"],"popupLines":["729,791,797"]},{"id":"691","label":"Dopiewiec/Przejazd Kolejowy","address":"","city":"","longitude":"16.6898690500","latitude":"52.3594442900","closestLines":["729","791","797"],"popupLines":["729,791,797"]},{"id":"692","label":"Dopiewiec/Przejazd Kolejowy","address":"","city":"","longitude":"16.6915253900","latitude":"52.3595712200","closestLines":["729","791","797"],"popupLines":["729,791,797"]},{"id":"693","label":"Dopiewo/Ośrodek Zdrowia","address":"","city":"","longitude":"16.6837441500","latitude":"52.3591720100","closestLines":["729","791","797"],"popupLines":["729,791,797"]},{"id":"694","label":"Dopiewo/Ośrodek Zdrowia","address":"","city":"","longitude":"16.6825271300","latitude":"52.3591770600","closestLines":["729","791","797"],"popupLines":["729,791,797"]},{"id":"695","label":"Dopiewo/Kościół","address":"","city":"","longitude":"16.6767218800","latitude":"52.3581242100","closestLines":["729","791","792","797"],"popupLines":["729,791,792,797"]},{"id":"696","label":"Dopiewo/Kościół","address":"","city":"","longitude":"16.6763361100","latitude":"52.3579512700","closestLines":["729","791","792","797"],"popupLines":["729,791,792,797"]},{"id":"697","label":"Dopiewo/Dworzec Kolejowy","address":"","city":"","longitude":"16.6787559800","latitude":"52.3542555700","closestLines":["729","791","792","797"],"popupLines":["729,791,792,797"]},{"id":"698","label":"Zakrzewo/Zacisze","address":"","city":"","longitude":"16.7384438100","latitude":"52.3900401000","closestLines":["729"],"popupLines":["729"]},{"id":"699","label":"Zakrzewo/Zacisze","address":"","city":"","longitude":"16.7388852200","latitude":"52.3899850400","closestLines":["729"],"popupLines":["729"]},{"id":"700","label":"Zakrzewo/Sportowa","address":"","city":"","longitude":"16.7267028700","latitude":"52.3928255100","closestLines":["729"],"popupLines":["729"]},{"id":"701","label":"Zakrzewo/Sportowa","address":"","city":"","longitude":"16.7258674700","latitude":"52.3933213600","closestLines":["729"],"popupLines":["729"]},{"id":"702","label":"Zakrzewo/Świerkowa","address":"","city":"","longitude":"16.7160926900","latitude":"52.3987123100","closestLines":["729"],"popupLines":["729"]},{"id":"703","label":"Zakrzewo/Świerkowa","address":"","city":"","longitude":"16.7163313800","latitude":"52.3984719500","closestLines":["729"],"popupLines":["729"]},{"id":"704","label":"Zakrzewo/Bukowska","address":"","city":"","longitude":"16.7180501200","latitude":"52.4049495700","closestLines":["729"],"popupLines":["729"]},{"id":"705","label":"Zakrzewo/Bukowska","address":"","city":"","longitude":"16.7194696000","latitude":"52.4062222900","closestLines":["729"],"popupLines":["729"]},{"id":"706","label":"Dąbrowa/Szkolna","address":"","city":"","longitude":"16.7401152300","latitude":"52.4035842300","closestLines":["729","797"],"popupLines":["729,797"]},{"id":"707","label":"Dąbrowa/Szkolna","address":"","city":"","longitude":"16.7398011500","latitude":"52.4037507600","closestLines":["729","797"],"popupLines":["729,797"]},{"id":"708","label":"Dąbrowa/Krótka","address":"","city":"","longitude":"16.7447766900","latitude":"52.4008825100","closestLines":["729","797"],"popupLines":["729,797"]},{"id":"709","label":"Dąbrowa/Krótka","address":"","city":"","longitude":"16.7446036500","latitude":"52.4008751900","closestLines":["729","797"],"popupLines":["729,797"]},{"id":"720","label":"Os. Kwiatowe","address":"","city":"","longitude":"16.8321241268","latitude":"52.3824107071","closestLines":["716"],"popupLines":["716"]},{"id":"816","label":"Dębiec","address":"","city":"","longitude":"16.9011792500","latitude":"52.3708661600","closestLines":["614","701"],"popupLines":["614,701"]},{"id":"829","label":"Piastowska","address":"","city":"","longitude":"16.9185810400","latitude":"52.3722627000","closestLines":["603"],"popupLines":["603"]},{"id":"831","label":"Dębina","address":"","city":"","longitude":"16.9268052800","latitude":"52.3776519000","closestLines":["603"],"popupLines":["603"]},{"id":"832","label":"Dębina","address":"","city":"","longitude":"16.9269882600","latitude":"52.3785911400","closestLines":["603"],"popupLines":["603"]},{"id":"833","label":"Hetmańska Wiadukt","address":"","city":"","longitude":"16.9286317900","latitude":"52.3821631100","closestLines":["603"],"popupLines":["603"]},{"id":"834","label":"Hetmańska Wiadukt","address":"","city":"","longitude":"16.9288388300","latitude":"52.3832121000","closestLines":["603"],"popupLines":["603"]},{"id":"866","label":"Mosina/Rondo","address":"","city":"","longitude":"16.8476093900","latitude":"52.2433488100","closestLines":["651"],"popupLines":["651"]},{"id":"867","label":"Mosina/Rondo","address":"","city":"","longitude":"16.8474932600","latitude":"52.2433893800","closestLines":["651"],"popupLines":["651"]},{"id":"868","label":"Mosina/Dworzec Kolejowy","address":"","city":"","longitude":"16.8514785900","latitude":"52.2413403700","closestLines":["651"],"popupLines":["651"]},{"id":"869","label":"Mosina/Dworzec Kolejowy","address":"","city":"","longitude":"16.8516783400","latitude":"52.2415089500","closestLines":["651"],"popupLines":["651"]},{"id":"874","label":"Mosina/Rzeczypospolitej Mosińskiej","address":"","city":"","longitude":"16.8515332600","latitude":"52.2512105800","closestLines":["651"],"popupLines":["651"]},{"id":"875","label":"Mosina/Rzeczypospolitej Mosińskiej","address":"","city":"","longitude":"16.8514883300","latitude":"52.2510109700","closestLines":["651"],"popupLines":["651"]},{"id":"878","label":"Puszczykowo/Niwka Szpital","address":"","city":"","longitude":"16.8701902600","latitude":"52.2641841800","closestLines":["651"],"popupLines":["651"]},{"id":"879","label":"Puszczykowo/Dworcowa","address":"","city":"","longitude":"16.8685220900","latitude":"52.2720650500","closestLines":["651"],"popupLines":["651"]},{"id":"880","label":"Puszczykowo/Dworcowa","address":"","city":"","longitude":"16.8686865800","latitude":"52.2721878700","closestLines":["651"],"popupLines":["651"]},{"id":"881","label":"Puszczykowo/Puszczykówko Dworzec Kolejowy","address":"","city":"","longitude":"16.8620024000","latitude":"52.2721533000","closestLines":["651"],"popupLines":["651"]},{"id":"882","label":"Puszczykowo/Puszczykówko Dworzec Kolejowy","address":"","city":"","longitude":"16.8612408000","latitude":"52.2722648700","closestLines":["651"],"popupLines":["651"]},{"id":"883","label":"Puszczykowo/Libelta","address":"","city":"","longitude":"16.8581409100","latitude":"52.2745733600","closestLines":["651"],"popupLines":["651"]},{"id":"884","label":"Puszczykowo/Libelta","address":"","city":"","longitude":"16.8588530600","latitude":"52.2731169000","closestLines":["651"],"popupLines":["651"]},{"id":"885","label":"Puszczykowo/Piaskowa","address":"","city":"","longitude":"16.8538291700","latitude":"52.2768788200","closestLines":["651"],"popupLines":["651"]},{"id":"886","label":"Puszczykowo/Piaskowa","address":"","city":"","longitude":"16.8540977900","latitude":"52.2782809600","closestLines":["651"],"popupLines":["651"]},{"id":"887","label":"Puszczykowo/Rondo Puszczyk","address":"","city":"","longitude":"16.8512104300","latitude":"52.2812281400","closestLines":["651"],"popupLines":["651"]},{"id":"888","label":"Puszczykowo/Rondo Puszczyk","address":"","city":"","longitude":"16.8514030200","latitude":"52.2805694800","closestLines":["651"],"popupLines":["651"]},{"id":"889","label":"Puszczykowo/Kościelna","address":"","city":"","longitude":"16.8553204000","latitude":"52.2856426400","closestLines":["651"],"popupLines":["651"]},{"id":"890","label":"Puszczykowo/Kościelna","address":"","city":"","longitude":"16.8561380700","latitude":"52.2868372500","closestLines":["651"],"popupLines":["651"]},{"id":"891","label":"Puszczykowo/Wiosenna","address":"","city":"","longitude":"16.8582297600","latitude":"52.2888808000","closestLines":["651"],"popupLines":["651"]},{"id":"892","label":"Puszczykowo/Wiosenna","address":"","city":"","longitude":"16.8587716600","latitude":"52.2897239900","closestLines":["651"],"popupLines":["651"]},{"id":"893","label":"Puszczykowo/Źródlana","address":"","city":"","longitude":"16.8614444000","latitude":"52.2926917600","closestLines":["651"],"popupLines":["651"]},{"id":"894","label":"Puszczykowo/Źródlana","address":"","city":"","longitude":"16.8621866100","latitude":"52.2932731600","closestLines":["651"],"popupLines":["651"]},{"id":"895","label":"Puszczykowo/Dworzec Kolejowy","address":"","city":"","longitude":"16.8683995900","latitude":"52.2946202200","closestLines":["651"],"popupLines":["651"]},{"id":"896","label":"Puszczykowo/Dworzec Kolejowy","address":"","city":"","longitude":"16.8691190000","latitude":"52.2945244600","closestLines":["651"],"popupLines":["651"]},{"id":"897","label":"Łęczyca/WPN","address":"","city":"","longitude":"16.8679554908","latitude":"52.3025313034","closestLines":["651"],"popupLines":["651"]},{"id":"898","label":"Łęczyca/WPN","address":"","city":"","longitude":"16.8686343387","latitude":"52.3032175001","closestLines":["651"],"popupLines":["651"]},{"id":"899","label":"Łęczyca/Łęczycka","address":"","city":"","longitude":"16.8731353955","latitude":"52.3062510845","closestLines":["651"],"popupLines":["651"]},{"id":"900","label":"Łęczyca/Łęczycka","address":"","city":"","longitude":"16.8775183918","latitude":"52.3088601620","closestLines":["651"],"popupLines":["651"]},{"id":"901","label":"Łęczyca/Dworcowa","address":"","city":"","longitude":"16.8816209945","latitude":"52.3158289853","closestLines":["651"],"popupLines":["651"]},{"id":"902","label":"Łęczyca/Dworcowa","address":"","city":"","longitude":"16.8810011768","latitude":"52.3147187411","closestLines":["651"],"popupLines":["651"]},{"id":"903","label":"Luboń/Lasek","address":"","city":"","longitude":"16.8861590000","latitude":"52.3216430000","closestLines":["602","603","651"],"popupLines":["602,603,651"]},{"id":"904","label":"Luboń/Lasek","address":"","city":"","longitude":"16.8867123538","latitude":"52.3225891395","closestLines":["602","603","651"],"popupLines":["602,603,651"]},{"id":"905","label":"Luboń/Kręta","address":"","city":"","longitude":"16.8805584499","latitude":"52.3204501904","closestLines":["614","701"],"popupLines":["614,701"]},{"id":"906","label":"Luboń/Kręta","address":"","city":"","longitude":"16.8781972398","latitude":"52.3201162523","closestLines":["701"],"popupLines":["701"]},{"id":"907","label":"Luboń/Podgórna","address":"","city":"","longitude":"16.8793335721","latitude":"52.3250799374","closestLines":["614","701"],"popupLines":["614,701"]},{"id":"908","label":"Luboń/Podgórna","address":"","city":"","longitude":"16.8793778448","latitude":"52.3247731075","closestLines":["614","701"],"popupLines":["614,701"]},{"id":"909","label":"Luboń/Kościół","address":"","city":"","longitude":"16.8772084830","latitude":"52.3308280912","closestLines":["614","701"],"popupLines":["614,701"]},{"id":"910","label":"Luboń/Kościół","address":"","city":"","longitude":"16.8772379981","latitude":"52.3305032547","closestLines":["614","701"],"popupLines":["614,701"]},{"id":"911","label":"Luboń/Parkowa","address":"","city":"","longitude":"16.8758507872","latitude":"52.3338688062","closestLines":["614","701"],"popupLines":["614,701"]},{"id":"912","label":"Luboń/Parkowa","address":"","city":"","longitude":"16.8755999086","latitude":"52.3343740680","closestLines":["614","701"],"popupLines":["614,701"]},{"id":"913","label":"Luboń/Orlen","address":"","city":"","longitude":"16.8770904225","latitude":"52.3396970107","closestLines":["610"],"popupLines":["610"]},{"id":"914","label":"Luboń/Orlen","address":"","city":"","longitude":"16.8755851510","latitude":"52.3395977753","closestLines":["610"],"popupLines":["610"]},{"id":"915","label":"Luboń/Orlen","address":"","city":"","longitude":"16.8745521216","latitude":"52.3388219268","closestLines":["614","701"],"popupLines":["614,701"]},{"id":"916","label":"Luboń/Orlen","address":"","city":"","longitude":"16.8746259094","latitude":"52.3383528026","closestLines":["614","701"],"popupLines":["614,701"]},{"id":"917","label":"Luboń/Żeromskiego ","address":"","city":"","longitude":"16.8816357520","latitude":"52.3401570994","closestLines":["610"],"popupLines":["610"]},{"id":"918","label":"Luboń/Żeromskiego ","address":"","city":"","longitude":"16.8829196600","latitude":"52.3402022059","closestLines":["610"],"popupLines":["610"]},{"id":"919","label":"Luboń/Dworcowa","address":"","city":"","longitude":"16.8901508661","latitude":"52.3400127584","closestLines":["610"],"popupLines":["610"]},{"id":"920","label":"Luboń/Dworcowa","address":"","city":"","longitude":"16.8889555035","latitude":"52.3400759076","closestLines":["610"],"popupLines":["610"]},{"id":"921","label":"Luboń/Ratajskiego","address":"","city":"","longitude":"16.8922759552","latitude":"52.3400849290","closestLines":["602","603","651"],"popupLines":["602,603,651"]},{"id":"922","label":"Luboń/Ratajskiego","address":"","city":"","longitude":"16.8916413800","latitude":"52.3384430192","closestLines":["602","603","651"],"popupLines":["602,603,651"]},{"id":"923","label":"Luboń/PKP","address":"","city":"","longitude":"16.8923054704","latitude":"52.3440811908","closestLines":["610"],"popupLines":["610"]},{"id":"924","label":"Luboń/PKP","address":"","city":"","longitude":"16.8921283796","latitude":"52.3451906983","closestLines":["610"],"popupLines":["610"]},{"id":"926","label":"Luboń/Streicha","address":"","city":"","longitude":"16.8904902901","latitude":"52.3480951309","closestLines":["610","614"],"popupLines":["610,614"]},{"id":"927","label":"Luboń/Streicha","address":"","city":"","longitude":"16.8902246539","latitude":"52.3486182692","closestLines":["610","614"],"popupLines":["610,614"]},{"id":"928","label":"Luboń/Okrzei","address":"","city":"","longitude":"16.8863581723","latitude":"52.3462911580","closestLines":["614"],"popupLines":["614"]},{"id":"930","label":"Luboń/Jana Pawła II","address":"","city":"","longitude":"16.8828606298","latitude":"52.3456056290","closestLines":["614"],"popupLines":["614"]},{"id":"932","label":"Luboń/Straż Pożarna","address":"","city":"","longitude":"16.8779463612","latitude":"52.3452989415","closestLines":["701"],"popupLines":["701"]},{"id":"933","label":"Luboń/Straż Pożarna","address":"","city":"","longitude":"16.8772675133","latitude":"52.3463001780","closestLines":["611"],"popupLines":["611"]},{"id":"934","label":"Luboń/Straż Pożarna","address":"","city":"","longitude":"16.8790089057","latitude":"52.3462640978","closestLines":["611","701"],"popupLines":["611,701"]},{"id":"935","label":"Luboń/Wojska Polskiego","address":"","city":"","longitude":"16.8749653334","latitude":"52.3426829913","closestLines":["610","614","701"],"popupLines":["610,614,701"]},{"id":"936","label":"Luboń/Wojska Polskiego","address":"","city":"","longitude":"16.8745668792","latitude":"52.3430438212","closestLines":["610"],"popupLines":["610"]},{"id":"937","label":"Luboń/Wojska Polskiego","address":"","city":"","longitude":"16.8758212720","latitude":"52.3434136688","closestLines":["701"],"popupLines":["701"]},{"id":"938","label":"Luboń/Szkoła nr 3","address":"","city":"","longitude":"16.8969688604","latitude":"52.3487445431","closestLines":["602","603","651"],"popupLines":["602,603,651"]},{"id":"939","label":"Luboń/Szkoła nr 3","address":"","city":"","longitude":"16.8963490427","latitude":"52.3481402292","closestLines":["602","603","651"],"popupLines":["602,603,651"]},{"id":"940","label":"Luboń/Dębiecka","address":"","city":"","longitude":"16.9012633113","latitude":"52.3526047411","closestLines":["602","603","651"],"popupLines":["602,603,651"]},{"id":"941","label":"Luboń/Dębiecka","address":"","city":"","longitude":"16.9016322504","latitude":"52.3531999753","closestLines":["602","603","610","651"],"popupLines":["602,603,610,651"]},{"id":"942","label":"Luboń/R. Maya","address":"","city":"","longitude":"16.8890588064","latitude":"52.3320913216","closestLines":["602","603","651"],"popupLines":["602,603,651"]},{"id":"943","label":"Luboń/R. Maya","address":"","city":"","longitude":"16.8894425031","latitude":"52.3332823344","closestLines":["602","603","651"],"popupLines":["602,603,651"]},{"id":"944","label":"Luboń/Rutkiewicz","address":"","city":"","longitude":"16.8875387774","latitude":"52.3254589595","closestLines":["602","603","651"],"popupLines":["602,603,651"]},{"id":"945","label":"Luboń/Rutkiewicz","address":"","city":"","longitude":"16.8876863530","latitude":"52.3262530906","closestLines":["602","603","651"],"popupLines":["602,603,651"]},{"id":"946","label":"Wiry/Nowa","address":"","city":"","longitude":"16.8703167009","latitude":"52.3175890715","closestLines":["701"],"popupLines":["701"]},{"id":"947","label":"Wiry/Nowa","address":"","city":"","longitude":"16.8708774883","latitude":"52.3179410803","closestLines":["701"],"popupLines":["701"]},{"id":"948","label":"Wiry/Laskowska","address":"","city":"","longitude":"16.8630559797","latitude":"52.3150707727","closestLines":["701"],"popupLines":["701"]},{"id":"949","label":"Wiry/Laskowska","address":"","city":"","longitude":"16.8605176788","latitude":"52.3155040386","closestLines":["701"],"popupLines":["701"]},{"id":"950","label":"Wiry/Południowa","address":"","city":"","longitude":"16.8569168333","latitude":"52.3175980974","closestLines":["701"],"popupLines":["701"]},{"id":"951","label":"Wiry/Kościół","address":"","city":"","longitude":"16.8542752295","latitude":"52.3196740061","closestLines":["701"],"popupLines":["701"]},{"id":"952","label":"Wiry/Kościół","address":"","city":"","longitude":"16.8514417773","latitude":"52.3211361094","closestLines":["701"],"popupLines":["701"]},{"id":"953","label":"Wiry/Wirowska","address":"","city":"","longitude":"16.8442253288","latitude":"52.3264065007","closestLines":["701"],"popupLines":["701"]},{"id":"954","label":"Wiry/Wirowska","address":"","city":"","longitude":"16.8435317233","latitude":"52.3266772230","closestLines":["701"],"popupLines":["701"]},{"id":"955","label":"Wiry/Brzoskwiniowa","address":"","city":"","longitude":"16.8368760623","latitude":"52.3293663082","closestLines":["701"],"popupLines":["701"]},{"id":"956","label":"Wiry/Brzoskwiniowa","address":"","city":"","longitude":"16.8363890627","latitude":"52.3296370124","closestLines":["701"],"popupLines":["701"]},{"id":"957","label":"Komorniki/Jałowcowa","address":"","city":"","longitude":"16.8299252499","latitude":"52.3341394829","closestLines":["701"],"popupLines":["701"]},{"id":"958","label":"Komorniki/Jałowcowa","address":"","city":"","longitude":"16.8307074008","latitude":"52.3335710600","closestLines":["701"],"popupLines":["701"]},{"id":"959","label":"Komorniki/Granica","address":"","city":"","longitude":"16.8253061326","latitude":"52.3361604829","closestLines":["701","702"],"popupLines":["701,702"]},{"id":"960","label":"Komorniki/Granica","address":"","city":"","longitude":"16.8237565884","latitude":"52.3362958144","closestLines":["701","702"],"popupLines":["701,702"]},{"id":"961","label":"Komorniki/Os. Parkowe","address":"","city":"","longitude":"16.8290102810","latitude":"52.3370085536","closestLines":["702"],"popupLines":["702"]},{"id":"962","label":"Komorniki/Os. Parkowe","address":"","city":"","longitude":"16.8291873717","latitude":"52.3370807291","closestLines":["702"],"popupLines":["702"]},{"id":"963","label":"Komorniki/Lubońska","address":"","city":"","longitude":"16.8343230038","latitude":"52.3390294225","closestLines":["702"],"popupLines":["702"]},{"id":"964","label":"Komorniki/Lubońska","address":"","city":"","longitude":"16.8347214580","latitude":"52.3391737668","closestLines":["702"],"popupLines":["702"]},{"id":"965","label":"Komorniki/Wirowska","address":"","city":"","longitude":"16.8391929997","latitude":"52.3408787975","closestLines":["702"],"popupLines":["702"]},{"id":"966","label":"Komorniki/Wirowska","address":"","city":"","longitude":"16.8396947569","latitude":"52.3410772624","closestLines":["702"],"popupLines":["702"]},{"id":"967","label":"Luboń/Studzienna","address":"","city":"","longitude":"16.8445795103","latitude":"52.3429896969","closestLines":["702"],"popupLines":["702"]},{"id":"968","label":"Luboń/Studzienna","address":"","city":"","longitude":"16.8442991166","latitude":"52.3428724274","closestLines":["702"],"popupLines":["702"]},{"id":"969","label":"Luboń/Traugutta","address":"","city":"","longitude":"16.8489477491","latitude":"52.3441533548","closestLines":["610"],"popupLines":["610"]},{"id":"970","label":"Luboń/Traugutta","address":"","city":"","longitude":"16.8511171109","latitude":"52.3446494786","closestLines":["610","702"],"popupLines":["610,702"]},{"id":"971","label":"Luboń/Traugutta","address":"","city":"","longitude":"16.8479147197","latitude":"52.3442255186","closestLines":["702"],"popupLines":["702"]},{"id":"972","label":"Luboń/Klonowa","address":"","city":"","longitude":"16.8563708035","latitude":"52.3422950958","closestLines":["610"],"popupLines":["610"]},{"id":"973","label":"Luboń/Klonowa","address":"","city":"","longitude":"16.8567397426","latitude":"52.3423041167","closestLines":["610"],"popupLines":["610"]},{"id":"974","label":"Luboń/Kołłątaja","address":"","city":"","longitude":"16.8619491625","latitude":"52.3424935544","closestLines":["610"],"popupLines":["610"]},{"id":"975","label":"Luboń/Kołłątaja","address":"","city":"","longitude":"16.8615211931","latitude":"52.3424755128","closestLines":["610"],"popupLines":["610"]},{"id":"976","label":"Luboń/Szkolna","address":"","city":"","longitude":"16.8681030664","latitude":"52.3427641783","closestLines":["610"],"popupLines":["610"]},{"id":"977","label":"Luboń/Szkolna","address":"","city":"","longitude":"16.8676160668","latitude":"52.3427371160","closestLines":["610"],"popupLines":["610"]},{"id":"978","label":"Luboń/Żabikowo","address":"","city":"","longitude":"16.8542620000","latitude":"52.3450460000","closestLines":["610","611","616","702"],"popupLines":["610,611,616,702"]},{"id":"979","label":"Luboń/Żabikowo","address":"","city":"","longitude":"16.8543960000","latitude":"52.3451270000","closestLines":["610","611","616","702"],"popupLines":["610,611,616,702"]},{"id":"980","label":"Luboń/Pl. Bojanowskiego","address":"","city":"","longitude":"16.8608866179","latitude":"52.3493759069","closestLines":["610","611","616","702"],"popupLines":["610,611,616,702"]},{"id":"981","label":"Luboń/Pl. Bojanowskiego","address":"","city":"","longitude":"16.8614916780","latitude":"52.3497457016","closestLines":["610","611","616","702"],"popupLines":["610,611,616,702"]},{"id":"982","label":"Luboń/Unijna","address":"","city":"","longitude":"16.8652105840","latitude":"52.3520365555","closestLines":["610","611","616","702"],"popupLines":["610,611,616,702"]},{"id":"983","label":"Luboń/Unijna","address":"","city":"","longitude":"16.8655647655","latitude":"52.3522439892","closestLines":["610","611","616","702"],"popupLines":["610,611,616,702"]},{"id":"984","label":"Luboń/Sikorskiego","address":"","city":"","longitude":"16.8733124863","latitude":"52.3484378774","closestLines":["611"],"popupLines":["611"]},{"id":"985","label":"Luboń/Sikorskiego","address":"","city":"","longitude":"16.8723827598","latitude":"52.3489339532","closestLines":["611"],"popupLines":["611"]},{"id":"986","label":"Luboń/Os. Lubonianka","address":"","city":"","longitude":"16.8813701159","latitude":"52.3486272888","closestLines":["610","614"],"popupLines":["610,614"]},{"id":"987","label":"Luboń/Os. Lubonianka","address":"","city":"","longitude":"16.8810454495","latitude":"52.3490692456","closestLines":["610","611","614","701"],"popupLines":["610,611,614,701"]},{"id":"988","label":"Luboń/Os. Lubonianka","address":"","city":"","longitude":"16.8806765104","latitude":"52.3481582686","closestLines":["611","701"],"popupLines":["611,701"]},{"id":"989","label":"Luboń/Puszkina","address":"","city":"","longitude":"16.8827720844","latitude":"52.3527129661","closestLines":["611","614","701"],"popupLines":["611,614,701"]},{"id":"990","label":"Luboń/Puszkina","address":"","city":"","longitude":"16.8828311147","latitude":"52.3528302095","closestLines":["611","614","701"],"popupLines":["611,614,701"]},{"id":"991","label":"Luboń/Factory Outlet","address":"","city":"","longitude":"16.8910363199","latitude":"52.3542731803","closestLines":["610"],"popupLines":["610"]},{"id":"992","label":"Luboń/Factory Outlet","address":"","city":"","longitude":"16.8917889556","latitude":"52.3542551434","closestLines":["610"],"popupLines":["610"]},{"id":"993","label":"Luboń/Cmentarz","address":"","city":"","longitude":"16.8505940000","latitude":"52.3489900000","closestLines":["611"],"popupLines":["611"]},{"id":"994","label":"Luboń/Cmentarz","address":"","city":"","longitude":"16.8499807785","latitude":"52.3492496349","closestLines":["611"],"popupLines":["611"]},{"id":"995","label":"Sycowska Centrum Handlowe","address":"","city":"","longitude":"16.8385760000","latitude":"52.3541640000","closestLines":["611","703","705","707"],"popupLines":["611,703,705,707"]},{"id":"1016","label":"Kotowo","address":"","city":"","longitude":"16.8537916000","latitude":"52.3592269200","closestLines":["610","616","702","703","705","707"],"popupLines":["610,616,702,703,705,707"]},{"id":"1017","label":"Kotowo","address":"","city":"","longitude":"16.8543241700","latitude":"52.3581464200","closestLines":["610","616","702"],"popupLines":["610,616,702"]},{"id":"1018","label":"Uradzka","address":"","city":"","longitude":"16.8599709100","latitude":"52.3554451100","closestLines":["610","616","702"],"popupLines":["610,616,702"]},{"id":"1019","label":"Uradzka","address":"","city":"","longitude":"16.8589186200","latitude":"52.3558237000","closestLines":["610","616","702"],"popupLines":["610,616,702"]},{"id":"1032","label":"Przełęcz","address":"","city":"","longitude":"16.8880974300","latitude":"52.3772787000","closestLines":["614","701"],"popupLines":["614,701"]},{"id":"1033","label":"Przełęcz","address":"","city":"","longitude":"16.8886370600","latitude":"52.3772577500","closestLines":["614","701"],"popupLines":["614,701"]},{"id":"1050","label":"Świerczewo","address":"","city":"","longitude":"16.8843606300","latitude":"52.3563551700","closestLines":["611","614","701"],"popupLines":["611,614,701"]},{"id":"1213","label":"Termalna","address":"","city":"","longitude":"16.9715842800","latitude":"52.4091242700","closestLines":["401","405","406","407"],"popupLines":["401,405,406,407"]},{"id":"1216","label":"Łomżyńska","address":"","city":"","longitude":"16.9847628200","latitude":"52.4095850100","closestLines":["400","401","405","406","407"],"popupLines":["400,401,405,406,407"]},{"id":"1296","label":"Borówiec/Szkoła","address":"","city":"","longitude":"17.0473616100","latitude":"52.2773756200","closestLines":["511","512"],"popupLines":["511,512"]},{"id":"1297","label":"Borówiec/Deszczowa","address":"","city":"","longitude":"17.0382476200","latitude":"52.2806415700","closestLines":["511","512"],"popupLines":["511,512"]},{"id":"1298","label":"Borówiec/Deszczowa","address":"","city":"","longitude":"17.0379864300","latitude":"52.2806034900","closestLines":["511","512"],"popupLines":["511,512"]},{"id":"1299","label":"Borówiec/Pod Borem","address":"","city":"","longitude":"17.0276079800","latitude":"52.2804138600","closestLines":["511","512"],"popupLines":["511,512"]},{"id":"1300","label":"Borówiec/Pod Borem","address":"","city":"","longitude":"17.0269315300","latitude":"52.2805952400","closestLines":["511","512"],"popupLines":["511,512"]},{"id":"1301","label":"Borówiec/Borówkowa","address":"","city":"","longitude":"17.0141312700","latitude":"52.2821272100","closestLines":["511","512"],"popupLines":["511,512"]},{"id":"1302","label":"Borówiec/Borówkowa","address":"","city":"","longitude":"17.0121129800","latitude":"52.2827159500","closestLines":["511","512"],"popupLines":["511,512"]},{"id":"1303","label":"Kamionki/Lisia","address":"","city":"","longitude":"17.0066226900","latitude":"52.2840455900","closestLines":["511","512"],"popupLines":["511,512"]},{"id":"1304","label":"Kamionki/Lisia","address":"","city":"","longitude":"17.0061699400","latitude":"52.2840542800","closestLines":["511","512"],"popupLines":["511,512"]},{"id":"1305","label":"Kamionki/Lotnicza","address":"","city":"","longitude":"17.0001225400","latitude":"52.2849603500","closestLines":["511","512"],"popupLines":["511,512"]},{"id":"1306","label":"Kamionki/Lotnicza","address":"","city":"","longitude":"16.9993703300","latitude":"52.2851072300","closestLines":["511","512"],"popupLines":["511,512"]},{"id":"1307","label":"Kamionki/Pętla","address":"","city":"","longitude":"16.9942654758","latitude":"52.2860142298","closestLines":["511","512","527"],"popupLines":["511,512,527"]},{"id":"1308","label":"Kamionki/Łąkowa","address":"","city":"","longitude":"16.9816866100","latitude":"52.2884008800","closestLines":["511","527"],"popupLines":["511,527"]},{"id":"1309","label":"Kamionki/Łąkowa","address":"","city":"","longitude":"16.9818029200","latitude":"52.2883077800","closestLines":["511","527"],"popupLines":["511,527"]},{"id":"1310","label":"Kamionki/Platanowa","address":"","city":"","longitude":"16.9787976000","latitude":"52.2891725400","closestLines":["527"],"popupLines":["527"]},{"id":"1311","label":"Kamionki/Platanowa","address":"","city":"","longitude":"16.9782593900","latitude":"52.2892556900","closestLines":["527"],"popupLines":["527"]},{"id":"1312","label":"Daszewice/Lipowa","address":"","city":"","longitude":"16.9683609800","latitude":"52.2926206600","closestLines":["527"],"popupLines":["527"]},{"id":"1313","label":"Daszewice/Lipowa","address":"","city":"","longitude":"16.9679685700","latitude":"52.2927155600","closestLines":["527"],"popupLines":["527"]},{"id":"1314","label":"Daszewice/Pętla","address":"","city":"","longitude":"16.9627815600","latitude":"52.2957547000","closestLines":["527"],"popupLines":["527"]},{"id":"1315","label":"Daszewice/Piotrowska","address":"","city":"","longitude":"16.9583337300","latitude":"52.2991004200","closestLines":["527"],"popupLines":["527"]},{"id":"1316","label":"Daszewice/Piotrowska","address":"","city":"","longitude":"16.9580540800","latitude":"52.2993912300","closestLines":["527"],"popupLines":["527"]},{"id":"1317","label":"Daszewice/Leśna","address":"","city":"","longitude":"16.9538963400","latitude":"52.3019869700","closestLines":["527"],"popupLines":["527"]},{"id":"1318","label":"Daszewice/Leśna","address":"","city":"","longitude":"16.9533250100","latitude":"52.3024275300","closestLines":["527"],"popupLines":["527"]},{"id":"1319","label":"Babki/Jednostka Wojskowa","address":"","city":"","longitude":"16.9377460700","latitude":"52.3116340400","closestLines":["527"],"popupLines":["527"]},{"id":"1320","label":"Babki/Jednostka Wojskowa","address":"","city":"","longitude":"16.9379506139","latitude":"52.3115864386","closestLines":["527"],"popupLines":["527"]},{"id":"1321","label":"Babki/Ośrodek Zdrowia","address":"","city":"","longitude":"16.9362469600","latitude":"52.3134674000","closestLines":["527"],"popupLines":["527"]},{"id":"1322","label":"Babki/Ośrodek Zdrowia","address":"","city":"","longitude":"16.9360199100","latitude":"52.3136827700","closestLines":["527"],"popupLines":["527"]},{"id":"1323","label":"Głuszyna Kościół","address":"","city":"","longitude":"16.9510315300","latitude":"52.3199695300","closestLines":["527"],"popupLines":["527"]},{"id":"1335","label":"Babki/","address":"","city":"","longitude":"16.9313970600","latitude":"52.3169076300","closestLines":["527"],"popupLines":["527"]},{"id":"1336","label":"Babki/","address":"","city":"","longitude":"16.9304748000","latitude":"52.3177123300","closestLines":["527"],"popupLines":["527"]},{"id":"1337","label":"Czapury/Gromadzka","address":"","city":"","longitude":"16.9223207600","latitude":"52.3198030600","closestLines":["527"],"popupLines":["527"]},{"id":"1338","label":"Czapury/Głuszynka","address":"","city":"","longitude":"16.9129402900","latitude":"52.3180093000","closestLines":["527"],"popupLines":["527"]},{"id":"1339","label":"Czapury/Głuszynka","address":"","city":"","longitude":"16.9129405900","latitude":"52.3183083400","closestLines":["527"],"popupLines":["527"]},{"id":"1340","label":"Czapury/Szkoła","address":"","city":"","longitude":"16.9117426500","latitude":"52.3139351800","closestLines":["527"],"popupLines":["527"]},{"id":"1341","label":"Czapury/Szkoła","address":"","city":"","longitude":"16.9117173900","latitude":"52.3144885800","closestLines":["527"],"popupLines":["527"]},{"id":"1342","label":"Czapury/Warta","address":"","city":"","longitude":"16.9101880500","latitude":"52.3088408300","closestLines":["527"],"popupLines":["527"]},{"id":"1343","label":"Wiórek/Podleśna","address":"","city":"","longitude":"16.9088725700","latitude":"52.3064890000","closestLines":["527"],"popupLines":["527"]},{"id":"1344","label":"Wiórek/Pętla","address":"","city":"","longitude":"16.9075839000","latitude":"52.3035467500","closestLines":["527"],"popupLines":["527"]},{"id":"1345","label":"Czapury/Leśna","address":"","city":"","longitude":"16.9116227200","latitude":"52.3241389200","closestLines":["527"],"popupLines":["527"]},{"id":"1346","label":"Czapury/Leśna","address":"","city":"","longitude":"16.9125335000","latitude":"52.3230381000","closestLines":["527"],"popupLines":["527"]},{"id":"1347","label":"Czapury/Dębowa","address":"","city":"","longitude":"16.9106343641","latitude":"52.3261267526","closestLines":["527"],"popupLines":["527"]},{"id":"1348","label":"Rydzowa","address":"","city":"","longitude":"16.9119543700","latitude":"52.3343571500","closestLines":["527"],"popupLines":["527"]},{"id":"1349","label":"Rydzowa","address":"","city":"","longitude":"16.9119561700","latitude":"52.3340806100","closestLines":["527"],"popupLines":["527"]},{"id":"1351","label":"Starołęka Wielka","address":"","city":"","longitude":"16.9175363200","latitude":"52.3415868200","closestLines":["527"],"popupLines":["527"]},{"id":"1425","label":"Droga Dębińska","address":"","city":"","longitude":"16.9305755000","latitude":"52.3874419000","closestLines":["603"],"popupLines":["603"]},{"id":"1426","label":"Droga Dębińska","address":"","city":"","longitude":"16.9305828900","latitude":"52.3870132300","closestLines":["603"],"popupLines":["603"]},{"id":"1549","label":"Świątniczki","address":"","city":"","longitude":"17.0108321500","latitude":"52.3359999800","closestLines":["501","502","560","561"],"popupLines":["501,502,560,561"]},{"id":"1550","label":"Żerniki/Wieś","address":"","city":"","longitude":"17.0575754228","latitude":"52.3325153980","closestLines":["512"],"popupLines":["512"]},{"id":"1562","label":"Gospodarska","address":"","city":"","longitude":"17.0282243200","latitude":"52.3557138000","closestLines":["431","432","435"],"popupLines":["431,432,435"]},{"id":"1567","label":"Komorniki/Zakładowa Wirenka","address":"","city":"","longitude":"16.8084246300","latitude":"52.3354303900","closestLines":["702"],"popupLines":["702"]},{"id":"1568","label":"Komorniki/Zakładowa Wirenka","address":"","city":"","longitude":"16.8083921300","latitude":"52.3352858900","closestLines":["702"],"popupLines":["702"]},{"id":"1569","label":"Komorniki/Centrum","address":"","city":"","longitude":"16.8069646800","latitude":"52.3355844500","closestLines":["701","703","705","707"],"popupLines":["701,703,705,707"]},{"id":"1570","label":"Komorniki/Centrum","address":"","city":"","longitude":"16.8072777200","latitude":"52.3354671700","closestLines":["701","703","705","707"],"popupLines":["701,703,705,707"]},{"id":"1634","label":"Komorniki/Nowa","address":"","city":"","longitude":"16.8165677600","latitude":"52.3380680800","closestLines":["701","702"],"popupLines":["701,702"]},{"id":"1635","label":"Komorniki/Jeziorna","address":"","city":"","longitude":"16.8032339700","latitude":"52.3305535900","closestLines":["701","707"],"popupLines":["701,707"]},{"id":"1636","label":"Rezerwat Morasko","address":"","city":"","longitude":"16.8974506500","latitude":"52.4879355700","closestLines":["902"],"popupLines":["902"]},{"id":"1637","label":"Rezerwat Morasko","address":"","city":"","longitude":"16.8976977800","latitude":"52.4878970700","closestLines":["902"],"popupLines":["902"]},{"id":"1648","label":"Krzesinki","address":"","city":"","longitude":"17.0125720900","latitude":"52.3402166400","closestLines":["512"],"popupLines":["512"]},{"id":"1649","label":"Podjaryszki","address":"","city":"","longitude":"17.0150863200","latitude":"52.3377043700","closestLines":["512"],"popupLines":["512"]},{"id":"1660","label":"Łomżyńska","address":"","city":"","longitude":"16.9851653500","latitude":"52.4098753300","closestLines":["400","401","405","406","407"],"popupLines":["400,401,405,406,407"]},{"id":"1661","label":"Termalna","address":"","city":"","longitude":"16.9730751400","latitude":"52.4094559300","closestLines":["401","405","406","407"],"popupLines":["401,405,406,407"]},{"id":"1734","label":"Junikowo Stacja","address":"","city":"","longitude":"16.8261858800","latitude":"52.3783512300","closestLines":["716"],"popupLines":["716"]},{"id":"1735","label":"Junikowo Stacja","address":"","city":"","longitude":"16.8268704343","latitude":"52.3786973279","closestLines":["716"],"popupLines":["716"]},{"id":"1736","label":"Plewiska/Wołczyńska","address":"","city":"","longitude":"16.8227527000","latitude":"52.3758730300","closestLines":["716"],"popupLines":["716"]},{"id":"1737","label":"Plewiska/Wołczyńska","address":"","city":"","longitude":"16.8235693800","latitude":"52.3763375800","closestLines":["716"],"popupLines":["716"]},{"id":"1738","label":"Plewiska/Słoneczna","address":"","city":"","longitude":"16.8319087700","latitude":"52.3663613300","closestLines":["710"],"popupLines":["710"]},{"id":"1739","label":"Plewiska/Słoneczna","address":"","city":"","longitude":"16.8307937300","latitude":"52.3662569200","closestLines":["710"],"popupLines":["710"]},{"id":"1740","label":"Plewiska/Podgórna","address":"","city":"","longitude":"16.8247110000","latitude":"52.3665765900","closestLines":["710"],"popupLines":["710"]},{"id":"1741","label":"Plewiska/Podgórna","address":"","city":"","longitude":"16.8249950100","latitude":"52.3661878100","closestLines":["710"],"popupLines":["710"]},{"id":"1742","label":"Plewiska/Zachodnia","address":"","city":"","longitude":"16.8210504700","latitude":"52.3693986600","closestLines":["710"],"popupLines":["710"]},{"id":"1743","label":"Plewiska/Zachodnia","address":"","city":"","longitude":"16.8211310500","latitude":"52.3694219400","closestLines":["710"],"popupLines":["710"]},{"id":"1744","label":"Plewiska/Rynek","address":"","city":"","longitude":"16.8127774200","latitude":"52.3686891100","closestLines":["710","716"],"popupLines":["710,716"]},{"id":"1745","label":"Plewiska/Rynek","address":"","city":"","longitude":"16.8137228500","latitude":"52.3694412800","closestLines":["710","716"],"popupLines":["710,716"]},{"id":"1746","label":"Plewiska/Skryta","address":"","city":"","longitude":"16.8169676000","latitude":"52.3716588700","closestLines":["710","716"],"popupLines":["710,716"]},{"id":"1747","label":"Plewiska/Skryta","address":"","city":"","longitude":"16.8170255900","latitude":"52.3717857300","closestLines":["710","716"],"popupLines":["710,716"]},{"id":"1748","label":"Plewiska/Straż Pożarna","address":"","city":"","longitude":"16.8079950400","latitude":"52.3653270100","closestLines":["710","716"],"popupLines":["710,716"]},{"id":"1749","label":"Plewiska/Straż Pożarna","address":"","city":"","longitude":"16.8078368100","latitude":"52.3653363700","closestLines":["710","716"],"popupLines":["710,716"]},{"id":"1750","label":"Plewiska/Boisko","address":"","city":"","longitude":"16.8024058000","latitude":"52.3669475600","closestLines":["710"],"popupLines":["710"]},{"id":"1751","label":"Plewiska/Boisko","address":"","city":"","longitude":"16.8008823651","latitude":"52.3683306607","closestLines":["710"],"popupLines":["710"]},{"id":"1752","label":"Plewiska/Stacja Energetyczna","address":"","city":"","longitude":"16.7810500900","latitude":"52.3711354000","closestLines":["710"],"popupLines":["710"]},{"id":"1753","label":"Gołuski/Pętla","address":"","city":"","longitude":"16.7570684300","latitude":"52.3613408600","closestLines":["716","799"],"popupLines":["716,799"]},{"id":"1754","label":"Gołuski/Szkolna","address":"","city":"","longitude":"16.7530514700","latitude":"52.3580989700","closestLines":["716","799"],"popupLines":["716,799"]},{"id":"1755","label":"Gołuski/Szkolna","address":"","city":"","longitude":"16.7528569100","latitude":"52.3579649800","closestLines":["716","799"],"popupLines":["716,799"]},{"id":"1756","label":"Głuchowo/Spokojna","address":"","city":"","longitude":"16.7725478434","latitude":"52.3488527775","closestLines":["716"],"popupLines":["716"]},{"id":"1757","label":"Głuchowo/Spokojna","address":"","city":"","longitude":"16.7718837531","latitude":"52.3487174844","closestLines":["716"],"popupLines":["716"]},{"id":"1758","label":"Głuchowo/Stawna","address":"","city":"","longitude":"16.7688141799","latitude":"52.3465437186","closestLines":["704","716"],"popupLines":["704,716"]},{"id":"1759","label":"Głuchowo/Tęczowa","address":"","city":"","longitude":"16.7761782040","latitude":"52.3449020487","closestLines":["716"],"popupLines":["716"]},{"id":"1760","label":"Głuchowo/Tęczowa","address":"","city":"","longitude":"16.7770193851","latitude":"52.3448479266","closestLines":["716"],"popupLines":["716"]},{"id":"1761","label":"Komorniki/Topolowa","address":"","city":"","longitude":"16.7950742600","latitude":"52.3403201000","closestLines":["716"],"popupLines":["716"]},{"id":"1762","label":"Komorniki/Topolowa","address":"","city":"","longitude":"16.7961222600","latitude":"52.3399213800","closestLines":["716"],"popupLines":["716"]},{"id":"1763","label":"Komorniki/Ks.Malinowskiego","address":"","city":"","longitude":"16.8004527700","latitude":"52.3392363200","closestLines":["716"],"popupLines":["716"]},{"id":"1764","label":"Komorniki/Ks.Malinowskiego","address":"","city":"","longitude":"16.8004001400","latitude":"52.3395108200","closestLines":["710","716"],"popupLines":["710,716"]},{"id":"1765","label":"Komorniki/Ks.Wawrzyniaka","address":"","city":"","longitude":"16.8034285300","latitude":"52.3471480900","closestLines":["716"],"popupLines":["716"]},{"id":"1766","label":"Komorniki/Ks.Wawrzyniaka","address":"","city":"","longitude":"16.8032274800","latitude":"52.3470874600","closestLines":["710","716"],"popupLines":["710,716"]},{"id":"1767","label":"Plewiska/Szkolna","address":"","city":"","longitude":"16.8073671600","latitude":"52.3577726400","closestLines":["710","716"],"popupLines":["710,716"]},{"id":"1768","label":"Plewiska/Szkolna","address":"","city":"","longitude":"16.8070922200","latitude":"52.3572488300","closestLines":["710","716"],"popupLines":["710,716"]},{"id":"1770","label":"Plewiska/Szkoła","address":"","city":"","longitude":"16.8074794900","latitude":"52.3627062100","closestLines":["710","716"],"popupLines":["710,716"]},{"id":"1771","label":"Plewiska/Szkoła","address":"","city":"","longitude":"16.8072526900","latitude":"52.3629833600","closestLines":["710","716"],"popupLines":["710,716"]},{"id":"1777","label":"Kowalewicka Wiadukt","address":"","city":"","longitude":"16.8536996845","latitude":"52.3623529459","closestLines":["704","710"],"popupLines":["704,710"]},{"id":"1778","label":"Kowalewicka Wiadukt","address":"","city":"","longitude":"16.8525441700","latitude":"52.3624975300","closestLines":["703","704","705","707","710"],"popupLines":["703,704,705,707,710"]},{"id":"1781","label":"Komorniki/Nowa","address":"","city":"","longitude":"16.8148430201","latitude":"52.3388038837","closestLines":["701","702","703","705","707"],"popupLines":["701,702,703,705,707"]},{"id":"1782","label":"Modlibowskiej ","address":"","city":"","longitude":"16.8487692800","latitude":"52.3545116100","closestLines":["703","705","707"],"popupLines":["703,705,707"]},{"id":"1783","label":"Komorniki/Nowa","address":"","city":"","longitude":"16.8157284739","latitude":"52.3392549602","closestLines":["703","705","707"],"popupLines":["703,705,707"]},{"id":"1784","label":"Komorniki/Magazynowa","address":"","city":"","longitude":"16.8273869490","latitude":"52.3454522855","closestLines":["703","705","707"],"popupLines":["703,705,707"]},{"id":"1785","label":"Komorniki/Magazynowa","address":"","city":"","longitude":"16.8285232814","latitude":"52.3458221129","closestLines":["703","705","707"],"popupLines":["703,705,707"]},{"id":"1786","label":"Konarzewo/Pętla","address":"","city":"","longitude":"16.7172029700","latitude":"52.3347636800","closestLines":["703","705","729","791"],"popupLines":["703,705,729,791"]},{"id":"1787","label":"Konarzewo/Os. 25-lecia","address":"","city":"","longitude":"16.7229043900","latitude":"52.3349416700","closestLines":["703","705","729"],"popupLines":["703,705,729"]},{"id":"1788","label":"Konarzewo/Os. 25-lecia","address":"","city":"","longitude":"16.7245063000","latitude":"52.3345553200","closestLines":["703","705","729"],"popupLines":["703,705,729"]},{"id":"1789","label":"Chomęcice/Szkoła","address":"","city":"","longitude":"16.7407826600","latitude":"52.3336658300","closestLines":["703","705","729"],"popupLines":["703,705,729"]},{"id":"1790","label":"Chomęcice/Szkoła","address":"","city":"","longitude":"16.7408126300","latitude":"52.3336077300","closestLines":["703","705","716","729"],"popupLines":["703,705,716,729"]},{"id":"1791","label":"Chomęcice/Środkowa","address":"","city":"","longitude":"16.7464038700","latitude":"52.3315831300","closestLines":["703","705","716","729"],"popupLines":["703,705,716,729"]},{"id":"1792","label":"Chomęcice/Środkowa","address":"","city":"","longitude":"16.7465379500","latitude":"52.3315679200","closestLines":["703","705","716","729"],"popupLines":["703,705,716,729"]},{"id":"1793","label":"Chomęcice/Jesionowa","address":"","city":"","longitude":"16.7583600000","latitude":"52.3305800000","closestLines":["703","705"],"popupLines":["703,705"]},{"id":"1794","label":"Chomęcice/Jesionowa","address":"","city":"","longitude":"16.7579400000","latitude":"52.3307600000","closestLines":["703","705"],"popupLines":["703,705"]},{"id":"1795","label":"Rosnowo/","address":"","city":"","longitude":"16.7822946900","latitude":"52.3252390600","closestLines":["703","707"],"popupLines":["703,707"]},{"id":"1796","label":"Rosnowo/","address":"","city":"","longitude":"16.7803300000","latitude":"52.3256300000","closestLines":["703","705"],"popupLines":["703,705"]},{"id":"1797","label":"Rosnowo/","address":"","city":"","longitude":"16.7808619500","latitude":"52.3248815700","closestLines":["705"],"popupLines":["705"]},{"id":"1798","label":"Rosnowo/","address":"","city":"","longitude":"16.7811346500","latitude":"52.3249722000","closestLines":["705","707"],"popupLines":["705,707"]},{"id":"1799","label":"Walerianowo/Brzozowa","address":"","city":"","longitude":"16.7744072964","latitude":"52.3199718459","closestLines":["705","707"],"popupLines":["705,707"]},{"id":"1800","label":"Walerianowo/Brzozowa","address":"","city":"","longitude":"16.7734400000","latitude":"52.3186800000","closestLines":["705","707"],"popupLines":["705,707"]},{"id":"1801","label":"Szreniawa/Dworcowa","address":"","city":"","longitude":"16.7936954318","latitude":"52.3186450896","closestLines":["703","705","707"],"popupLines":["703,705,707"]},{"id":"1802","label":"Szreniawa/Dworcowa","address":"","city":"","longitude":"16.7921754027","latitude":"52.3186180125","closestLines":["703","707"],"popupLines":["703,707"]},{"id":"1803","label":"Szreniawa/Dworcowa","address":"","city":"","longitude":"16.7930608565","latitude":"52.3178147185","closestLines":["705"],"popupLines":["705"]},{"id":"1804","label":"Szreniawa/Nowa","address":"","city":"","longitude":"16.7900207985","latitude":"52.3136806826","closestLines":["705"],"popupLines":["705"]},{"id":"1805","label":"Rosnówko/Stawnego","address":"","city":"","longitude":"16.7725330859","latitude":"52.2993981384","closestLines":["705","707"],"popupLines":["705,707"]},{"id":"1806","label":"Rosnówko/Stawnego","address":"","city":"","longitude":"16.7719575409","latitude":"52.2996148486","closestLines":["705","707"],"popupLines":["705,707"]},{"id":"1807","label":"Rosnówko/Dom Kultury","address":"","city":"","longitude":"16.7633500000","latitude":"52.3032700000","closestLines":["705","707"],"popupLines":["705,707"]},{"id":"1808","label":"Rosnówko/Dom Kultury","address":"","city":"","longitude":"16.7622765793","latitude":"52.3044454046","closestLines":["705","707"],"popupLines":["705,707"]},{"id":"1809","label":"Walerianowo/Bukowa","address":"","city":"","longitude":"16.7704375119","latitude":"52.3149714820","closestLines":["705","707"],"popupLines":["705,707"]},{"id":"1810","label":"Walerianowo/Bukowa","address":"","city":"","longitude":"16.7701128455","latitude":"52.3145562640","closestLines":["705","707"],"popupLines":["705,707"]},{"id":"1811","label":"Komorniki/Jeziorna","address":"","city":"","longitude":"16.8016645160","latitude":"52.3294114256","closestLines":["703","705","707"],"popupLines":["703,705,707"]},{"id":"1812","label":"Komorniki/Jeziorna","address":"","city":"","longitude":"16.8031550299","latitude":"52.3313424108","closestLines":["703","705","707"],"popupLines":["703,705,707"]},{"id":"1860","label":"Przybroda/Pętla","address":"","city":"","longitude":"16.6557476600","latitude":"52.5206125000","closestLines":["832"],"popupLines":["832"]},{"id":"1861","label":"Przybroda/Kolejowa","address":"","city":"","longitude":"16.6630105800","latitude":"52.5205479100","closestLines":["832"],"popupLines":["832"]},{"id":"1862","label":"Przybroda/Kolejowa","address":"","city":"","longitude":"16.6629599100","latitude":"52.5205957900","closestLines":["832"],"popupLines":["832"]},{"id":"1863","label":"Cerekwica/Przybrodzka","address":"","city":"","longitude":"16.6909325200","latitude":"52.5187811800","closestLines":["832"],"popupLines":["832"]},{"id":"1864","label":"Cerekwica/Przybrodzka","address":"","city":"","longitude":"16.6909824600","latitude":"52.5187415600","closestLines":["832"],"popupLines":["832"]},{"id":"1865","label":"Mrowino/Szkoła","address":"","city":"","longitude":"16.6996795400","latitude":"52.5132105000","closestLines":["832"],"popupLines":["832"]},{"id":"1866","label":"Mrowino/Szkoła","address":"","city":"","longitude":"16.6986138600","latitude":"52.5136633700","closestLines":["832","891"],"popupLines":["832,891"]},{"id":"1868","label":"Mrowino/Szkoła","address":"","city":"","longitude":"16.6985976700","latitude":"52.5143312600","closestLines":["891"],"popupLines":["891"]},{"id":"1869","label":"Mrowino/Towarowa","address":"","city":"","longitude":"16.7069127600","latitude":"52.5059881100","closestLines":["832"],"popupLines":["832"]},{"id":"1870","label":"Mrowino/Towarowa","address":"","city":"","longitude":"16.7064720600","latitude":"52.5069663000","closestLines":["832"],"popupLines":["832"]},{"id":"1871","label":"Mrowino/Kopernika","address":"","city":"","longitude":"16.7024902400","latitude":"52.5125451600","closestLines":["891"],"popupLines":["891"]},{"id":"1872","label":"Mrowino/Park","address":"","city":"","longitude":"16.7051639000","latitude":"52.5179515200","closestLines":["891"],"popupLines":["891"]},{"id":"1873","label":"Mrowino/Park","address":"","city":"","longitude":"16.7053599400","latitude":"52.5180287100","closestLines":["891"],"popupLines":["891"]},{"id":"1874","label":"Mrowino/Gniewka","address":"","city":"","longitude":"16.7196945800","latitude":"52.5150124100","closestLines":["891"],"popupLines":["891"]},{"id":"1875","label":"Mrowino/Gniewka","address":"","city":"","longitude":"16.7185506800","latitude":"52.5153794900","closestLines":["891"],"popupLines":["891"]},{"id":"1876","label":"Mrowino/Leszka","address":"","city":"","longitude":"16.7253388000","latitude":"52.5137826900","closestLines":["891"],"popupLines":["891"]},{"id":"1877","label":"Mrowino/Leszka","address":"","city":"","longitude":"16.7246448500","latitude":"52.5138104400","closestLines":["891"],"popupLines":["891"]},{"id":"1878","label":"Rokietnica/Trakt Napoleoński","address":"","city":"","longitude":"16.7314301600","latitude":"52.5129754200","closestLines":["891"],"popupLines":["891"]},{"id":"1879","label":"Rokietnica/Trakt Napoleoński","address":"","city":"","longitude":"16.7310942900","latitude":"52.5131591300","closestLines":["891"],"popupLines":["891"]},{"id":"1880","label":"Rokietnica/Leśna","address":"","city":"","longitude":"16.7356809000","latitude":"52.5035552800","closestLines":["832"],"popupLines":["832"]},{"id":"1881","label":"Rokietnica/Leśna","address":"","city":"","longitude":"16.7356568700","latitude":"52.5037768500","closestLines":["832"],"popupLines":["832"]},{"id":"1882","label":"Napachanie/Starzyńska","address":"","city":"","longitude":"16.7315641400","latitude":"52.4892227700","closestLines":["832"],"popupLines":["832"]},{"id":"1883","label":"Napachanie/Starzyńska","address":"","city":"","longitude":"16.7315254300","latitude":"52.4893756900","closestLines":["832"],"popupLines":["832"]},{"id":"1884","label":"Napachanie/Park","address":"","city":"","longitude":"16.7281500000","latitude":"52.4863500000","closestLines":["832"],"popupLines":["832"]},{"id":"1885","label":"Napachanie/Park","address":"","city":"","longitude":"16.7282300000","latitude":"52.4862900000","closestLines":["832"],"popupLines":["832"]},{"id":"1908","label":"Rokietnica/Noblistów","address":"","city":"","longitude":"16.7370754200","latitude":"52.5089090400","closestLines":["891"],"popupLines":["891"]},{"id":"1909","label":"Rokietnica/Noblistów","address":"","city":"","longitude":"16.7364642300","latitude":"52.5095724700","closestLines":["891"],"popupLines":["891"]},{"id":"1910","label":"Rokietnica/Spokojna","address":"","city":"","longitude":"16.7602349300","latitude":"52.5139066200","closestLines":["832"],"popupLines":["832"]},{"id":"1911","label":"Rokietnica/Spokojna","address":"","city":"","longitude":"16.7602602900","latitude":"52.5138533200","closestLines":["832"],"popupLines":["832"]},{"id":"1912","label":"Rokietnica/Topolowa","address":"","city":"","longitude":"16.7652208100","latitude":"52.5147635200","closestLines":["832"],"popupLines":["832"]},{"id":"1913","label":"Rokietnica/Topolowa","address":"","city":"","longitude":"16.7651400500","latitude":"52.5146909600","closestLines":["832"],"popupLines":["832"]},{"id":"1914","label":"Bytkowo/Porzeczkowa","address":"","city":"","longitude":"16.7720989300","latitude":"52.5161563000","closestLines":["832"],"popupLines":["832"]},{"id":"1915","label":"Bytkowo/Porzeczkowa","address":"","city":"","longitude":"16.7719880400","latitude":"52.5161970300","closestLines":["832"],"popupLines":["832"]},{"id":"1916","label":"Bytkowo/Pawłowicka","address":"","city":"","longitude":"16.7752571300","latitude":"52.5171383200","closestLines":["832"],"popupLines":["832"]},{"id":"1917","label":"Bytkowo/Pawłowicka","address":"","city":"","longitude":"16.7770482300","latitude":"52.5179181100","closestLines":["832"],"popupLines":["832"]},{"id":"1918","label":"Sobota/Sanktuarium","address":"","city":"","longitude":"16.7988325000","latitude":"52.5223346500","closestLines":["832"],"popupLines":["832"]},{"id":"1919","label":"Sobota/Sanktuarium","address":"","city":"","longitude":"16.7978945500","latitude":"52.5225534100","closestLines":["832"],"popupLines":["832"]},{"id":"1920","label":"Sobota/Kasztanowa","address":"","city":"","longitude":"16.8035649400","latitude":"52.5209760900","closestLines":["832"],"popupLines":["832"]},{"id":"1921","label":"Sobota/Kasztanowa","address":"","city":"","longitude":"16.8028219700","latitude":"52.5212223000","closestLines":["832"],"popupLines":["832"]},{"id":"1922","label":"Sobota/POZ BRUK","address":"","city":"","longitude":"16.8137192000","latitude":"52.5166395300","closestLines":["832"],"popupLines":["832"]},{"id":"1923","label":"Sobota/POZ BRUK","address":"","city":"","longitude":"16.8128209900","latitude":"52.5169601900","closestLines":["832"],"popupLines":["832"]},{"id":"1924","label":"Złotkowo/Lipowa","address":"","city":"","longitude":"16.8349642400","latitude":"52.5071870500","closestLines":["832","905","907"],"popupLines":["832,905,907"]},{"id":"1925","label":"Złotkowo/Lipowa","address":"","city":"","longitude":"16.8348496000","latitude":"52.5080628500","closestLines":["832"],"popupLines":["832"]},{"id":"1928","label":"Wysogotowo/Warzywna","address":"","city":"","longitude":"16.7911788600","latitude":"52.4012508100","closestLines":["803"],"popupLines":["803"]},{"id":"1929","label":"Wysogotowo/Warzywna","address":"","city":"","longitude":"16.7904894300","latitude":"52.4022543700","closestLines":["803"],"popupLines":["803"]},{"id":"1930","label":"Wysogotowo/Piękna","address":"","city":"","longitude":"16.7865839100","latitude":"52.4054125200","closestLines":["803"],"popupLines":["803"]},{"id":"1931","label":"Wysogotowo/Piękna","address":"","city":"","longitude":"16.7861267700","latitude":"52.4059193300","closestLines":["803"],"popupLines":["803"]},{"id":"1932","label":"Wysogotowo/Długa","address":"","city":"","longitude":"16.7798581200","latitude":"52.4098584800","closestLines":["803"],"popupLines":["803"]},{"id":"1934","label":"Wysogotowo/Wierzbowa","address":"","city":"","longitude":"16.7773217100","latitude":"52.4137947000","closestLines":["803"],"popupLines":["803"]},{"id":"1935","label":"Wysogotowo/Zbożowa","address":"","city":"","longitude":"16.7751749500","latitude":"52.4170901100","closestLines":["803"],"popupLines":["803"]},{"id":"1936","label":"Wysogotowo/Zbożowa","address":"","city":"","longitude":"16.7746632200","latitude":"52.4178391600","closestLines":["803"],"popupLines":["803"]},{"id":"1937","label":"Przeźmierowo/Brzozowa","address":"","city":"","longitude":"16.7747521900","latitude":"52.4197678200","closestLines":["802","803","804"],"popupLines":["802,803,804"]},{"id":"1938","label":"Przeźmierowo/Brzozowa","address":"","city":"","longitude":"16.7745052700","latitude":"52.4198882200","closestLines":["802","803","804"],"popupLines":["802,803,804"]},{"id":"1939","label":"Przeźmierowo/Kasztanowa","address":"","city":"","longitude":"16.7791018800","latitude":"52.4184027000","closestLines":["802","803","804"],"popupLines":["802,803,804"]},{"id":"1940","label":"Przeźmierowo/Kasztanowa","address":"","city":"","longitude":"16.7778621400","latitude":"52.4188783900","closestLines":["802","803","804"],"popupLines":["802,803,804"]},{"id":"1941","label":"Przeźmierowo/Cmentarz","address":"","city":"","longitude":"16.7870727600","latitude":"52.4168795000","closestLines":["802","803","804"],"popupLines":["802,803,804"]},{"id":"1942","label":"Przeźmierowo/Cmentarz","address":"","city":"","longitude":"16.7881303600","latitude":"52.4170043100","closestLines":["802","803","804"],"popupLines":["802,803,804"]},{"id":"1943","label":"Przeźmierowo/Krańcowa","address":"","city":"","longitude":"16.7876891035","latitude":"52.4210581653","closestLines":["802","803","804"],"popupLines":["802,803,804"]},{"id":"1944","label":"Przeźmierowo/Krańcowa","address":"","city":"","longitude":"16.7874382249","latitude":"52.4215714351","closestLines":["802","803","804"],"popupLines":["802,803,804"]},{"id":"1945","label":"Przeźmierowo/Kościelna","address":"","city":"","longitude":"16.7856673173","latitude":"52.4253172234","closestLines":["802","803","804"],"popupLines":["802,803,804"]},{"id":"1946","label":"Przeźmierowo/Kościelna","address":"","city":"","longitude":"16.7852688631","latitude":"52.4261815909","closestLines":["802","803","804"],"popupLines":["802,803,804"]},{"id":"1953","label":"Baranowo/Przemysława","address":"","city":"","longitude":"16.7962189751","latitude":"52.4341041698","closestLines":["802","803","804","811","812","813","821"],"popupLines":["802,803,804,811,812,813,821"]},{"id":"1954","label":"Baranowo/Przemysława","address":"","city":"","longitude":"16.7961599449","latitude":"52.4339241270","closestLines":["802","803","804","811","812","813","821"],"popupLines":["802,803,804,811,812,813,821"]},{"id":"1955","label":"Przeźmierowo/Wiadukt","address":"","city":"","longitude":"16.7866855892","latitude":"52.4363636444","closestLines":["821"],"popupLines":["821"]},{"id":"1956","label":"Przeźmierowo/Wiadukt","address":"","city":"","longitude":"16.7863609228","latitude":"52.4356255021","closestLines":["802","803","804","811","812","813"],"popupLines":["802,803,804,811,812,813"]},{"id":"1957","label":"Przeźmierowo/Wiadukt","address":"","city":"","longitude":"16.7863166501","latitude":"52.4354184600","closestLines":["802","803","804","811","812","813","821"],"popupLines":["802,803,804,811,812,813,821"]},{"id":"1958","label":"Przeźmierowo/Leśna","address":"","city":"","longitude":"16.7829814407","latitude":"52.4310613477","closestLines":["802","803","804"],"popupLines":["802,803,804"]},{"id":"1959","label":"Przeźmierowo/Leśna","address":"","city":"","longitude":"16.7827453197","latitude":"52.4315745011","closestLines":["802","803","804"],"popupLines":["802,803,804"]},{"id":"1960","label":"Przeźmierowo/Wysogotowska","address":"","city":"","longitude":"16.7726737900","latitude":"52.4363947800","closestLines":["811","812","813"],"popupLines":["811,812,813"]},{"id":"1961","label":"Przeźmierowo/Wysogotowska","address":"","city":"","longitude":"16.7726886200","latitude":"52.4358981700","closestLines":["811","812","813"],"popupLines":["811,812,813"]},{"id":"1962","label":"Swadzim/Wiadukt","address":"","city":"","longitude":"16.7532104500","latitude":"52.4410449100","closestLines":["811","812","813"],"popupLines":["811,812,813"]},{"id":"1963","label":"Swadzim/Wiadukt","address":"","city":"","longitude":"16.7560702000","latitude":"52.4400425900","closestLines":["811","812","813"],"popupLines":["811,812,813"]},{"id":"1964","label":"Swadzim/Kładka","address":"","city":"","longitude":"16.7475773700","latitude":"52.4415025500","closestLines":["811","812","813"],"popupLines":["811,812,813"]},{"id":"1965","label":"Swadzim/Kładka","address":"","city":"","longitude":"16.7470674700","latitude":"52.4411957800","closestLines":["811","812","813"],"popupLines":["811,812,813"]},{"id":"1966","label":"Swadzim/Auchan","address":"","city":"","longitude":"16.7634412500","latitude":"52.4390070100","closestLines":["811","812","813"],"popupLines":["811,812,813"]},{"id":"1967","label":"Swadzim/Auchan","address":"","city":"","longitude":"16.7626139200","latitude":"52.4414867500","closestLines":["811","812","813"],"popupLines":["811,812,813"]},{"id":"1968","label":"Sady/Wiadukt","address":"","city":"","longitude":"16.7246752600","latitude":"52.4487056400","closestLines":["802","811","812","813"],"popupLines":["802,811,812,813"]},{"id":"1969","label":"Sady/Wiadukt","address":"","city":"","longitude":"16.7233684400","latitude":"52.4487345900","closestLines":["802","811","812","813"],"popupLines":["802,811,812,813"]},{"id":"1973","label":"Tarnowo Pdg/Marianowska","address":"","city":"","longitude":"16.7018251900","latitude":"52.4549380500","closestLines":["802","811","812","813"],"popupLines":["802,811,812,813"]},{"id":"1974","label":"Tarnowo Pdg/Marianowska","address":"","city":"","longitude":"16.7016685800","latitude":"52.4543602000","closestLines":["802","811","812","813"],"popupLines":["802,811,812,813"]},{"id":"1975","label":"Tarnowo Pdg/Działkowa","address":"","city":"","longitude":"16.6905986000","latitude":"52.4576954700","closestLines":["802","811","812","813"],"popupLines":["802,811,812,813"]},{"id":"1976","label":"Tarnowo Pdg/Działkowa","address":"","city":"","longitude":"16.6910767000","latitude":"52.4572864100","closestLines":["802","811","812","813"],"popupLines":["802,811,812,813"]},{"id":"1977","label":"Batorowo/Skośna","address":"","city":"","longitude":"16.7682026400","latitude":"52.4205433700","closestLines":["802","804"],"popupLines":["802,804"]},{"id":"1978","label":"Batorowo/Skośna","address":"","city":"","longitude":"16.7683790100","latitude":"52.4204711500","closestLines":["802","804"],"popupLines":["802,804"]},{"id":"1979","label":"Batorowo/Batorowska","address":"","city":"","longitude":"16.7546509600","latitude":"52.4211329400","closestLines":["802","804"],"popupLines":["802,804"]},{"id":"1980","label":"Batorowo/Batorowska","address":"","city":"","longitude":"16.7539934300","latitude":"52.4213294100","closestLines":["802","804"],"popupLines":["802,804"]},{"id":"1981","label":"Batorowo/Widok","address":"","city":"","longitude":"16.7458164300","latitude":"52.4218247400","closestLines":["802","804"],"popupLines":["802,804"]},{"id":"1982","label":"Batorowo/Widok","address":"","city":"","longitude":"16.7463578200","latitude":"52.4218991500","closestLines":["802","804"],"popupLines":["802,804"]},{"id":"1983","label":"Batorowo/Poranek","address":"","city":"","longitude":"16.7396233700","latitude":"52.4219326200","closestLines":["802","804"],"popupLines":["802,804"]},{"id":"1984","label":"Batorowo/Poranek","address":"","city":"","longitude":"16.7399436000","latitude":"52.4218438200","closestLines":["802","804"],"popupLines":["802,804"]},{"id":"1985","label":"Batorowo/Brzask","address":"","city":"","longitude":"16.7322823100","latitude":"52.4227555400","closestLines":["802","804"],"popupLines":["802,804"]},{"id":"1986","label":"Batorowo/Brzask","address":"","city":"","longitude":"16.7321550700","latitude":"52.4227121100","closestLines":["802","804"],"popupLines":["802,804"]},{"id":"1987","label":"Batorowo/Zakrzewska","address":"","city":"","longitude":"16.7197013400","latitude":"52.4241627600","closestLines":["802","804"],"popupLines":["802,804"]},{"id":"1988","label":"Batorowo/Zakrzewska","address":"","city":"","longitude":"16.7197069900","latitude":"52.4241047600","closestLines":["802","804"],"popupLines":["802,804"]},{"id":"1989","label":"Lusowo/Boczna","address":"","city":"","longitude":"16.7179080400","latitude":"52.4214597900","closestLines":["804"],"popupLines":["804"]},{"id":"1990","label":"Lusowo/Boczna","address":"","city":"","longitude":"16.7179949900","latitude":"52.4216198200","closestLines":["804"],"popupLines":["804"]},{"id":"1991","label":"Lusowo/Grzybowa","address":"","city":"","longitude":"16.7181421800","latitude":"52.4190489600","closestLines":["804"],"popupLines":["804"]},{"id":"1992","label":"Lusowo/Grzybowa","address":"","city":"","longitude":"16.7180372500","latitude":"52.4192304600","closestLines":["804"],"popupLines":["804"]},{"id":"1993","label":"Lusowo/Przylesie","address":"","city":"","longitude":"16.7183040000","latitude":"52.4147259600","closestLines":["804"],"popupLines":["804"]},{"id":"1994","label":"Lusowo/Przylesie","address":"","city":"","longitude":"16.7183908600","latitude":"52.4147719400","closestLines":["804"],"popupLines":["804"]},{"id":"1995","label":"Zakrzewo/Bukowska","address":"","city":"","longitude":"16.7173872600","latitude":"52.4060262400","closestLines":["804"],"popupLines":["804"]},{"id":"1996","label":"Zakrzewo/Zakrzewska","address":"","city":"","longitude":"16.7099908500","latitude":"52.4057497300","closestLines":["804"],"popupLines":["804"]},{"id":"1997","label":"Zakrzewo/Zakrzewska","address":"","city":"","longitude":"16.7088567200","latitude":"52.4057159600","closestLines":["804"],"popupLines":["804"]},{"id":"1998","label":"Zakrzewo/Instytut","address":"","city":"","longitude":"16.7029056000","latitude":"52.4060460100","closestLines":["804"],"popupLines":["804"]},{"id":"1999","label":"Zakrzewo/Instytut","address":"","city":"","longitude":"16.7013485100","latitude":"52.4062473300","closestLines":["804"],"popupLines":["804"]},{"id":"2000","label":"Sierosław/Kasztanowa","address":"","city":"","longitude":"16.6744881500","latitude":"52.4035058900","closestLines":["804","811"],"popupLines":["804,811"]},{"id":"2001","label":"Sierosław/Kasztanowa","address":"","city":"","longitude":"16.6764207800","latitude":"52.4036464500","closestLines":["804","811"],"popupLines":["804,811"]},{"id":"2002","label":"Sierosław/Prosta","address":"","city":"","longitude":"16.6670028300","latitude":"52.4021933200","closestLines":["804","811"],"popupLines":["804,811"]},{"id":"2003","label":"Sierosław/Prosta","address":"","city":"","longitude":"16.6700099800","latitude":"52.4026089100","closestLines":["804","811"],"popupLines":["804,811"]},{"id":"2004","label":"Sierosław/Działki","address":"","city":"","longitude":"16.6657545600","latitude":"52.4016946000","closestLines":["804","811"],"popupLines":["804,811"]},{"id":"2005","label":"Lusowo/Otowska","address":"","city":"","longitude":"16.7150521600","latitude":"52.4259554000","closestLines":["802","804"],"popupLines":["802,804"]},{"id":"2006","label":"Lusowo/Otowska","address":"","city":"","longitude":"16.7142736700","latitude":"52.4264903500","closestLines":["802","804"],"popupLines":["802,804"]},{"id":"2007","label":"Lusowo/Swadzimska","address":"","city":"","longitude":"16.7057244400","latitude":"52.4313566400","closestLines":["802","804"],"popupLines":["802,804"]},{"id":"2008","label":"Lusowo/Swadzimska","address":"","city":"","longitude":"16.7056440400","latitude":"52.4314809700","closestLines":["802","804"],"popupLines":["802,804"]},{"id":"2009","label":"Lusowo/Szkoła","address":"","city":"","longitude":"16.7017828600","latitude":"52.4333192800","closestLines":["802","804"],"popupLines":["802,804"]},{"id":"2010","label":"Lusowo/Szkoła","address":"","city":"","longitude":"16.7019049900","latitude":"52.4334365700","closestLines":["802","804"],"popupLines":["802,804"]},{"id":"2011","label":"Lusowo/Kościół","address":"","city":"","longitude":"16.6980826400","latitude":"52.4329532300","closestLines":["802","804"],"popupLines":["802,804"]},{"id":"2012","label":"Sady/Lipowa","address":"","city":"","longitude":"16.7184648700","latitude":"52.4436480300","closestLines":["802"],"popupLines":["802"]},{"id":"2013","label":"Sady/Lipowa","address":"","city":"","longitude":"16.7184906900","latitude":"52.4435741600","closestLines":["802"],"popupLines":["802"]},{"id":"2016","label":"Baranowo/Klonowa","address":"","city":"","longitude":"16.7856525597","latitude":"52.4417193066","closestLines":["821"],"popupLines":["821"]},{"id":"2017","label":"Baranowo/Klonowa","address":"","city":"","longitude":"16.7858444080","latitude":"52.4437623876","closestLines":["821"],"popupLines":["821"]},{"id":"2018","label":"Baranowo/Uniwersytet Przyrodniczy","address":"","city":"","longitude":"16.7835717433","latitude":"52.4490001626","closestLines":["821"],"popupLines":["821"]},{"id":"2019","label":"Baranowo/Uniwersytet Przyrodniczy","address":"","city":"","longitude":"16.7848999240","latitude":"52.4477762710","closestLines":["821"],"popupLines":["821"]},{"id":"2020","label":"Chyby/Cedrowa","address":"","city":"","longitude":"16.7746729326","latitude":"52.4522397117","closestLines":["821"],"popupLines":["821"]},{"id":"2021","label":"Chyby/Cedrowa","address":"","city":"","longitude":"16.7739202968","latitude":"52.4525366584","closestLines":["821"],"popupLines":["821"]},{"id":"2022","label":"Chyby/Jodłowa","address":"","city":"","longitude":"16.7658331521","latitude":"52.4571165834","closestLines":["821"],"popupLines":["821"]},{"id":"2023","label":"Chyby/Jodłowa","address":"","city":"","longitude":"16.7652723647","latitude":"52.4575304627","closestLines":["821"],"popupLines":["821"]},{"id":"2024","label":"Chyby/Lipowa","address":"","city":"","longitude":"16.7625127003","latitude":"52.4602565710","closestLines":["821"],"popupLines":["821"]},{"id":"2025","label":"Chyby/Lipowa","address":"","city":"","longitude":"16.7620994885","latitude":"52.4607333976","closestLines":["821"],"popupLines":["821"]},{"id":"2026","label":"Wielkie","address":"","city":"","longitude":"16.7594136120","latitude":"52.4650515927","closestLines":["821"],"popupLines":["821"]},{"id":"2027","label":"Wielkie","address":"","city":"","longitude":"16.7592217637","latitude":"52.4653484530","closestLines":["821"],"popupLines":["821"]},{"id":"2028","label":"Kobylniki/Lipowa","address":"","city":"","longitude":"16.7491423479","latitude":"52.4722206602","closestLines":["821","830"],"popupLines":["821,830"]},{"id":"2029","label":"Kobylniki/Lipowa","address":"","city":"","longitude":"16.7485077727","latitude":"52.4725984206","closestLines":["821","830"],"popupLines":["821,830"]},{"id":"2032","label":"Napachanie/Kobylnicka","address":"","city":"","longitude":"16.7291606071","latitude":"52.4841275465","closestLines":["821","830"],"popupLines":["821,830"]},{"id":"2033","label":"Napachanie/Kobylnicka","address":"","city":"","longitude":"16.7284227289","latitude":"52.4844692373","closestLines":["821"],"popupLines":["821"]},{"id":"2034","label":"Napachanie/Kokoszczyńska","address":"","city":"","longitude":"16.7188007976","latitude":"52.4837319011","closestLines":["821"],"popupLines":["821"]},{"id":"2035","label":"Napachanie/Kokoszczyńska","address":"","city":"","longitude":"16.7197305240","latitude":"52.4841994816","closestLines":["821"],"popupLines":["821"]},{"id":"2036","label":"Tarnowo Pdg/Karolewo III","address":"","city":"","longitude":"16.7012983274","latitude":"52.4744062289","closestLines":["821"],"popupLines":["821"]},{"id":"2037","label":"Tarnowo Pdg/Karolewo III","address":"","city":"","longitude":"16.7019329026","latitude":"52.4747929644","closestLines":["821"],"popupLines":["821"]},{"id":"2038","label":"Tarnowo Pdg/Karolewo II","address":"","city":"","longitude":"16.6955133625","latitude":"52.4720497675","closestLines":["821"],"popupLines":["821"]},{"id":"2039","label":"Tarnowo Pdg/Karolewo II","address":"","city":"","longitude":"16.6960298772","latitude":"52.4720947394","closestLines":["821"],"popupLines":["821"]},{"id":"2040","label":"Tarnowo Pdg/Karolewo I","address":"","city":"","longitude":"16.6838991601","latitude":"52.4688476559","closestLines":["821"],"popupLines":["821"]},{"id":"2041","label":"Tarnowo Pdg/Karolewo I","address":"","city":"","longitude":"16.6846222807","latitude":"52.4691534857","closestLines":["821"],"popupLines":["821"]},{"id":"2042","label":"Tarnowo Pdg/Czereśniowa","address":"","city":"","longitude":"16.6764292300","latitude":"52.4664911900","closestLines":["821"],"popupLines":["821"]},{"id":"2043","label":"Tarnowo Pdg/Czereśniowa","address":"","city":"","longitude":"16.6757365800","latitude":"52.4666075600","closestLines":["821"],"popupLines":["821"]},{"id":"2044","label":"Tarnowo Pdg/Krótka","address":"","city":"","longitude":"16.6802829900","latitude":"52.4603064100","closestLines":["802","811","812","813"],"popupLines":["802,811,812,813"]},{"id":"2045","label":"Tarnowo Pdg/Rolna","address":"","city":"","longitude":"16.6728974400","latitude":"52.4622162200","closestLines":["802","811","812","813"],"popupLines":["802,811,812,813"]},{"id":"2046","label":"Tarnowo Pdg/Rolna","address":"","city":"","longitude":"16.6713136300","latitude":"52.4627846300","closestLines":["802","811","812","813"],"popupLines":["802,811,812,813"]},{"id":"2047","label":"Tarnowo Pdg/Centrum","address":"","city":"","longitude":"16.6649831400","latitude":"52.4642509200","closestLines":["802","811","812","813","821"],"popupLines":["802,811,812,813,821"]},{"id":"2048","label":"Tarnowo Pdg/Centrum","address":"","city":"","longitude":"16.6639011600","latitude":"52.4642589300","closestLines":["802","811","812","813","821"],"popupLines":["802,811,812,813,821"]},{"id":"2049","label":"Tarnowo Pdg/Nowa","address":"","city":"","longitude":"16.6552319600","latitude":"52.4623990300","closestLines":["802","811","812","821"],"popupLines":["802,811,812,821"]},{"id":"2050","label":"Tarnowo Pdg/Nowa","address":"","city":"","longitude":"16.6558864200","latitude":"52.4627828000","closestLines":["802","811","812","821"],"popupLines":["802,811,812,821"]},{"id":"2051","label":"Tarnowo Pdg/Piaskowa","address":"","city":"","longitude":"16.6454551200","latitude":"52.4585138600","closestLines":["802","811","812","821"],"popupLines":["802,811,812,821"]},{"id":"2052","label":"Tarnowo Pdg/Piaskowa","address":"","city":"","longitude":"16.6466023900","latitude":"52.4590882000","closestLines":["802","811","812","821"],"popupLines":["802,811,812,821"]},{"id":"2053","label":"Tarnowo Pdg/Ostatnia","address":"","city":"","longitude":"16.6441703000","latitude":"52.4633371900","closestLines":["802"],"popupLines":["802"]},{"id":"2054","label":"Tarnowo Pdg/Ostatnia","address":"","city":"","longitude":"16.6418115100","latitude":"52.4634689500","closestLines":["802"],"popupLines":["802"]},{"id":"2055","label":"Rumianek/Nowa I","address":"","city":"","longitude":"16.6376637100","latitude":"52.4629465300","closestLines":["811"],"popupLines":["811"]},{"id":"2056","label":"Rumianek/Nowa I","address":"","city":"","longitude":"16.6385049000","latitude":"52.4632074200","closestLines":["811"],"popupLines":["811"]},{"id":"2057","label":"Rumianek/Szkolna","address":"","city":"","longitude":"16.6240799700","latitude":"52.4621237800","closestLines":["811"],"popupLines":["811"]},{"id":"2058","label":"Rumianek/Szkolna","address":"","city":"","longitude":"16.6237900800","latitude":"52.4614306700","closestLines":["811"],"popupLines":["811"]},{"id":"2059","label":"Rumianek/Świetlica","address":"","city":"","longitude":"16.6202433400","latitude":"52.4592018400","closestLines":["811"],"popupLines":["811"]},{"id":"2060","label":"Rumianek/Świetlica","address":"","city":"","longitude":"16.6202422600","latitude":"52.4594056800","closestLines":["811"],"popupLines":["811"]},{"id":"2061","label":"Jankowice/Pętla","address":"","city":"","longitude":"16.6206655700","latitude":"52.4393913900","closestLines":["811","812"],"popupLines":["811,812"]},{"id":"2062","label":"Luboń/Ośrodek Kultury","address":"","city":"","longitude":"16.8778135431","latitude":"52.3277149766","closestLines":["614","701"],"popupLines":["614,701"]},{"id":"2063","label":"Luboń/Ośrodek Kultury","address":"","city":"","longitude":"16.8774888767","latitude":"52.3283376170","closestLines":["614","701"],"popupLines":["614,701"]},{"id":"2069","label":"Jankowice/Przemysłowa","address":"","city":"","longitude":"16.6403263800","latitude":"52.4544493200","closestLines":["812","821"],"popupLines":["812,821"]},{"id":"2070","label":"Jankowice/Przemysłowa","address":"","city":"","longitude":"16.6408302800","latitude":"52.4550848200","closestLines":["812","821"],"popupLines":["812,821"]},{"id":"2071","label":"Lusówko/Admiralska","address":"","city":"","longitude":"16.6340187400","latitude":"52.4423930900","closestLines":["821"],"popupLines":["821"]},{"id":"2072","label":"Lusówko/Admiralska","address":"","city":"","longitude":"16.6338952500","latitude":"52.4424291400","closestLines":["821"],"popupLines":["821"]},{"id":"2073","label":"Lusówko/Szantowa","address":"","city":"","longitude":"16.6444631900","latitude":"52.4394964500","closestLines":["821"],"popupLines":["821"]},{"id":"2074","label":"Lusówko/Szantowa","address":"","city":"","longitude":"16.6443722900","latitude":"52.4395156300","closestLines":["821"],"popupLines":["821"]},{"id":"2075","label":"Lusówko/Bosmańska","address":"","city":"","longitude":"16.6447847100","latitude":"52.4346932400","closestLines":["821"],"popupLines":["821"]},{"id":"2076","label":"Lusówko/Bosmańska","address":"","city":"","longitude":"16.6448749500","latitude":"52.4346758500","closestLines":["821"],"popupLines":["821"]},{"id":"2077","label":"Lusówko/Dopiewska","address":"","city":"","longitude":"16.6457201500","latitude":"52.4280784300","closestLines":["811","821"],"popupLines":["811,821"]},{"id":"2078","label":"Lusówko/Dopiewska","address":"","city":"","longitude":"16.6455222800","latitude":"52.4283745700","closestLines":["811","821"],"popupLines":["811,821"]},{"id":"2079","label":"Lusówko/Pętla","address":"","city":"","longitude":"16.6541604700","latitude":"52.4275842900","closestLines":["811"],"popupLines":["811"]},{"id":"2080","label":"Lusówko/Grabowa","address":"","city":"","longitude":"16.6396758300","latitude":"52.4331928100","closestLines":["811"],"popupLines":["811"]},{"id":"2081","label":"Lusówko/Grabowa","address":"","city":"","longitude":"16.6394221600","latitude":"52.4334361600","closestLines":["811"],"popupLines":["811"]},{"id":"2082","label":"Jankowice/Pałac","address":"","city":"","longitude":"16.6173347100","latitude":"52.4407939900","closestLines":["811","812"],"popupLines":["811,812"]},{"id":"2083","label":"Jankowice/Pałac","address":"","city":"","longitude":"16.6172356000","latitude":"52.4408779500","closestLines":["811","812"],"popupLines":["811,812"]},{"id":"2084","label":"Ceradz Kościelny/Jankowicka","address":"","city":"","longitude":"16.6024359800","latitude":"52.4407338900","closestLines":["811","812"],"popupLines":["811,812"]},{"id":"2085","label":"Ceradz Kościelny/Jankowicka","address":"","city":"","longitude":"16.6029800700","latitude":"52.4407926300","closestLines":["811","812"],"popupLines":["811,812"]},{"id":"2086","label":"Ceradz Kościelny/Kościół","address":"","city":"","longitude":"16.5925915600","latitude":"52.4373567100","closestLines":["811","812"],"popupLines":["811,812"]},{"id":"2087","label":"Ceradz Kościelny/Kościół","address":"","city":"","longitude":"16.5924837000","latitude":"52.4375433700","closestLines":["811","812"],"popupLines":["811,812"]},{"id":"2088","label":"Ceradz Dolny/Okrężna","address":"","city":"","longitude":"16.5769179700","latitude":"52.4254497100","closestLines":["812"],"popupLines":["812"]},{"id":"2089","label":"Ceradz Dolny/Okrężna","address":"","city":"","longitude":"16.5774834100","latitude":"52.4259392600","closestLines":["812"],"popupLines":["812"]},{"id":"2090","label":"Ceradz Dolny/Parkowa","address":"","city":"","longitude":"16.5712571500","latitude":"52.4208287700","closestLines":["812"],"popupLines":["812"]},{"id":"2091","label":"Ceradz Dolny/Parkowa","address":"","city":"","longitude":"16.5714042800","latitude":"52.4211889100","closestLines":["812"],"popupLines":["812"]},{"id":"2092","label":"Ceradz Dolny/Brzoza Huby","address":"","city":"","longitude":"16.5448342400","latitude":"52.4246251400","closestLines":["812"],"popupLines":["812"]},{"id":"2093","label":"Ceradz Dolny/Brzoza Huby","address":"","city":"","longitude":"16.5444662500","latitude":"52.4250398200","closestLines":["812"],"popupLines":["812"]},{"id":"2094","label":"Grzebienisko/Wierzbowa","address":"","city":"","longitude":"16.5316423700","latitude":"52.4329071300","closestLines":["812"],"popupLines":["812"]},{"id":"2095","label":"Grzebienisko/Wierzbowa","address":"","city":"","longitude":"16.5304299400","latitude":"52.4330965400","closestLines":["812"],"popupLines":["812"]},{"id":"2096","label":"Grzebienisko/Pętla","address":"","city":"","longitude":"16.5257196800","latitude":"52.4334174800","closestLines":["812"],"popupLines":["812"]},{"id":"2097","label":"Tarnowo Pdg/Zielona","address":"","city":"","longitude":"16.6577562800","latitude":"52.4676001100","closestLines":["813"],"popupLines":["813"]},{"id":"2098","label":"Tarnowo Pdg/Zielona","address":"","city":"","longitude":"16.6570464800","latitude":"52.4676634200","closestLines":["813"],"popupLines":["813"]},{"id":"2099","label":"Tarnowo Pdg/Okrężna","address":"","city":"","longitude":"16.6515268200","latitude":"52.4693106700","closestLines":["813"],"popupLines":["813"]},