[{"id":"243","label":"Chludowo/Szkoła","address":"","city":"","longitude":"16.8443741700","latitude":"52.5561078600","description":[]},{"id":"244","label":"Chludowo/Rynek","address":"","city":"","longitude":"16.8493123200","latitude":"52.5552510800","description":[]},{"id":"245","label":"Chludowo/Kościół","address":"","city":"","longitude":"16.8454754500","latitude":"52.5574263100","description":[]},{"id":"246","label":"Chludowo/Tysiąclecia","address":"","city":"","longitude":"16.8384256000","latitude":"52.5593526200","description":[]},{"id":"247","label":"Chludowo/Tysiąclecia","address":"","city":"","longitude":"16.8382236600","latitude":"52.5594717900","description":[]},{"id":"248","label":"Chludowo/Wargowska","address":"","city":"","longitude":"16.8321087600","latitude":"52.5600436400","description":[]},{"id":"249","label":"Chludowo/Wargowska","address":"","city":"","longitude":"16.8342824400","latitude":"52.5600632600","description":[]},{"id":"250","label":"Chludowo/Stacja","address":"","city":"","longitude":"16.8271220300","latitude":"52.5599405900","description":[]},{"id":"251","label":"Chludowo/Stacja","address":"","city":"","longitude":"16.8263996400","latitude":"52.5600370600","description":[]},{"id":"252","label":"Chludowo/Nad Torem","address":"","city":"","longitude":"16.8196280500","latitude":"52.5604177800","description":[]},{"id":"253","label":"Chludowo/Nad Torem","address":"","city":"","longitude":"16.8210855900","latitude":"52.5602843600","description":[]},{"id":"254","label":"Zielątkowo/Wspólna","address":"","city":"","longitude":"16.8126771500","latitude":"52.5605640700","description":[]},{"id":"255","label":"Zielątkowo/Wspólna","address":"","city":"","longitude":"16.8127820000","latitude":"52.5606240800","description":[]},{"id":"256","label":"Zielątkowo/Pogodna","address":"","city":"","longitude":"16.8069706400","latitude":"52.5600237900","description":[]},{"id":"257","label":"Zielątkowo/Pogodna","address":"","city":"","longitude":"16.8048330200","latitude":"52.5598768500","description":[]},{"id":"258","label":"Zielątkowo/OSP","address":"","city":"","longitude":"16.7977223800","latitude":"52.5599872100","description":[]},{"id":"259","label":"Zielątkowo/OSP","address":"","city":"","longitude":"16.7978700900","latitude":"52.5605177300","description":[]},{"id":"260","label":"Zielątkowo/Świerkowa","address":"","city":"","longitude":"16.7978270700","latitude":"52.5538325900","description":[]},{"id":"261","label":"Zielątkowo/Świerkowa","address":"","city":"","longitude":"16.7979004100","latitude":"52.5544832400","description":[]},{"id":"262","label":"Zielątkowo/Las","address":"","city":"","longitude":"16.8001455900","latitude":"52.5462284100","description":[]},{"id":"263","label":"Zielątkowo/Las","address":"","city":"","longitude":"16.8000753000","latitude":"52.5463516400","description":[]},{"id":"264","label":"Golęczewo/Promienista","address":"","city":"","longitude":"16.8116125400","latitude":"52.5371394900","description":[]},{"id":"265","label":"Golęczewo/Promienista","address":"","city":"","longitude":"16.8109521500","latitude":"52.5372995800","description":[]},{"id":"266","label":"Golęczewo/Szkoła","address":"","city":"","longitude":"16.8195953300","latitude":"52.5350047900","description":[]},{"id":"267","label":"Golęczewo/Szkoła","address":"","city":"","longitude":"16.8190061700","latitude":"52.5350996600","description":[]},{"id":"268","label":"Golęczewo/Stacja","address":"","city":"","longitude":"16.8268641000","latitude":"52.5349678600","description":[]},{"id":"269","label":"Golęczewo/Stacja","address":"","city":"","longitude":"16.8254695100","latitude":"52.5352214100","description":[]},{"id":"270","label":"Golęczewo/Obornicka","address":"","city":"","longitude":"16.8346253700","latitude":"52.5354452900","description":[]},{"id":"271","label":"Golęczewo/Obornicka","address":"","city":"","longitude":"16.8354304500","latitude":"52.5350930700","description":[]},{"id":"272","label":"Złotkowo/Sobocka","address":"","city":"","longitude":"16.8354751900","latitude":"52.5131390900","description":[]},{"id":"273","label":"Złotkowo/Sobocka","address":"","city":"","longitude":"16.8354985600","latitude":"52.5132079000","description":[]},{"id":"274","label":"Złotkowo/Wieś","address":"","city":"","longitude":"16.8391927100","latitude":"52.5115741800","description":[]},{"id":"275","label":"Złotkowo/Wieś","address":"","city":"","longitude":"16.8395369200","latitude":"52.5114700600","description":[]},{"id":"276","label":"Złotkowo/Cedrowa","address":"","city":"","longitude":"16.8369692000","latitude":"52.5088791200","description":[]},{"id":"277","label":"Złotkowo/Cedrowa","address":"","city":"","longitude":"16.8357042100","latitude":"52.5080470900","description":[]},{"id":"278","label":"Złotkowo/Żytnia","address":"","city":"","longitude":"16.8372413600","latitude":"52.5012182000","description":[]},{"id":"279","label":"Złotkowo/Żytnia","address":"","city":"","longitude":"16.8370466500","latitude":"52.5021057200","description":[]},{"id":"280","label":"Złotniki/Pawłowicka","address":"","city":"","longitude":"16.8398987000","latitude":"52.4976979800","description":[]},{"id":"281","label":"Złotniki/Pawłowicka","address":"","city":"","longitude":"16.8391154200","latitude":"52.4981670100","description":[]},{"id":"282","label":"Złotniki/Łagiewnicka","address":"","city":"","longitude":"16.8466062100","latitude":"52.4914781500","description":[]},{"id":"283","label":"Złotniki/Łagiewnicka","address":"","city":"","longitude":"16.8460696500","latitude":"52.4921588600","description":[]},{"id":"284","label":"Złotniki/Zielona","address":"","city":"","longitude":"16.8420290300","latitude":"52.4920706700","description":[]},{"id":"285","label":"Złotniki/Zielona","address":"","city":"","longitude":"16.8410081800","latitude":"52.4916171612","description":[]},{"id":"286","label":"Złotniki/Wieś","address":"","city":"","longitude":"16.8311198800","latitude":"52.4867062600","description":[]},{"id":"291","label":"Złotniki/Złotnicka","address":"","city":"","longitude":"16.8546857500","latitude":"52.4856637100","description":[]},{"id":"292","label":"Złotniki/Złotnicka","address":"","city":"","longitude":"16.8557331300","latitude":"52.4866893800","description":[]},{"id":"293","label":"Jelonek/Nektarowa","address":"","city":"","longitude":"16.8602369300","latitude":"52.4826130400","description":[]},{"id":"294","label":"Jelonek/Nektarowa","address":"","city":"","longitude":"16.8592365100","latitude":"52.4832714600","description":[]},{"id":"295","label":"Złotniki/Os. Grzybowe","address":"","city":"","longitude":"16.8584920500","latitude":"52.4797848400","description":[]},{"id":"297","label":"Złotniki/Złotnicka","address":"","city":"","longitude":"16.8534343900","latitude":"52.4868397800","description":[]},{"id":"298","label":"Suchy Las/Konwaliowa","address":"","city":"","longitude":"16.8696378530","latitude":"52.4780036366","description":[]},{"id":"299","label":"Suchy Las/Konwaliowa","address":"","city":"","longitude":"16.8687966719","latitude":"52.4784712780","description":[]},{"id":"300","label":"Suchy Las/Szkoła","address":"","city":"","longitude":"16.8735462100","latitude":"52.4753299200","description":[]},{"id":"301","label":"Suchy Las/Szkoła","address":"","city":"","longitude":"16.8722816600","latitude":"52.4763622500","description":[]},{"id":"302","label":"Suchy Las/Kościół","address":"","city":"","longitude":"16.8772196700","latitude":"52.4731420800","description":[]},{"id":"303","label":"Suchy Las/Kościół","address":"","city":"","longitude":"16.8782179000","latitude":"52.4736033600","description":[]},{"id":"304","label":"Suchy Las/Os. Szafirowe","address":"","city":"","longitude":"16.8753490300","latitude":"52.4708894787","description":[]},{"id":"305","label":"Suchy Las/Kościół","address":"","city":"","longitude":"16.8780680300","latitude":"52.4723317000","description":[]},{"id":"306","label":"Suchy Las/Nowy Rynek","address":"","city":"","longitude":"16.8791538900","latitude":"52.4750612400","description":[]},{"id":"307","label":"Suchy Las/Nowy Rynek","address":"","city":"","longitude":"16.8807941000","latitude":"52.4752666000","description":[]},{"id":"308","label":"Suchy Las/Strażacka","address":"","city":"","longitude":"16.8851559500","latitude":"52.4750086700","description":[]},{"id":"309","label":"Suchy Las/Strażacka","address":"","city":"","longitude":"16.8836674700","latitude":"52.4751292700","description":[]},{"id":"310","label":"Suchy Las/Łąkowa","address":"","city":"","longitude":"16.8790950300","latitude":"52.4811305700","description":[]},{"id":"311","label":"Suchy Las/Łąkowa","address":"","city":"","longitude":"16.8790552200","latitude":"52.4805539000","description":[]},{"id":"312","label":"Suchy Las/Działki","address":"","city":"","longitude":"16.8796299900","latitude":"52.4866868400","description":[]},{"id":"313","label":"Suchy Las/Krańcowa","address":"","city":"","longitude":"16.8864448500","latitude":"52.4813876500","description":[]},{"id":"314","label":"Suchy Las/Krańcowa","address":"","city":"","longitude":"16.8860568100","latitude":"52.4813058000","description":[]},{"id":"315","label":"Morasko","address":"","city":"","longitude":"16.9054379000","latitude":"52.4892681800","description":[]},{"id":"316","label":"Morasko Kościół","address":"","city":"","longitude":"16.9084893200","latitude":"52.4887599500","description":[]},{"id":"317","label":"Morasko Kościół","address":"","city":"","longitude":"16.9089182200","latitude":"52.4884915500","description":[]},{"id":"318","label":"Morasko Cmentarz","address":"","city":"","longitude":"16.9100089000","latitude":"52.4844634100","description":[]},{"id":"319","label":"Morasko Cmentarz","address":"","city":"","longitude":"16.9101536300","latitude":"52.4846278500","description":[]},{"id":"320","label":"Szklarniowa","address":"","city":"","longitude":"16.9062235400","latitude":"52.4771069700","description":[]},{"id":"321","label":"Szklarniowa","address":"","city":"","longitude":"16.9066457200","latitude":"52.4775378300","description":[]},{"id":"322","label":"Deszczowa","address":"","city":"","longitude":"16.9019816600","latitude":"52.4716679700","description":[]},{"id":"323","label":"Deszczowa","address":"","city":"","longitude":"16.9023406135","latitude":"52.4719328406","description":[]},{"id":"324","label":"Suchy Las/Os. Przylesie","address":"","city":"","longitude":"16.8977641800","latitude":"52.4734913200","description":[]},{"id":"325","label":"Suchy Las/Os. Przylesie","address":"","city":"","longitude":"16.8979097800","latitude":"52.4733187600","description":[]},{"id":"326","label":"Suchy Las/Sprzeczna","address":"","city":"","longitude":"16.8935577600","latitude":"52.4746912800","description":[]},{"id":"327","label":"Suchy Las/Sprzeczna","address":"","city":"","longitude":"16.8936914100","latitude":"52.4746265600","description":[]},{"id":"328","label":"Suchy Las/Promienista","address":"","city":"","longitude":"16.8605156100","latitude":"52.4783970400","description":[]},{"id":"329","label":"Suchy Las/Promienista","address":"","city":"","longitude":"16.8604308500","latitude":"52.4781626300","description":[]},{"id":"330","label":"Suchy Las/Borówkowa","address":"","city":"","longitude":"16.8626849100","latitude":"52.4743723400","description":[]},{"id":"331","label":"Suchy Las/Borówkowa","address":"","city":"","longitude":"16.8637106000","latitude":"52.4736028600","description":[]},{"id":"332","label":"Suchy Las/Os. Jagodowe","address":"","city":"","longitude":"16.8684930200","latitude":"52.4712284700","description":[]},{"id":"333","label":"Suchy Las/Os. Jagodowe","address":"","city":"","longitude":"16.8673430300","latitude":"52.4716052000","description":[]},{"id":"334","label":"Suchy Las/Os. Poziomkowe","address":"","city":"","longitude":"16.8730062900","latitude":"52.4692361000","description":[]},{"id":"335","label":"Suchy Las/Os. Poziomkowe","address":"","city":"","longitude":"16.8728784300","latitude":"52.4693847100","description":[]},{"id":"336","label":"Suchy Las/Wiadukt","address":"","city":"","longitude":"16.8825359634","latitude":"52.4694683081","description":[]},{"id":"337","label":"Suchy Las/Wiadukt","address":"","city":"","longitude":"16.8841298500","latitude":"52.4683773500","description":[]},{"id":"375","label":"Wietrzna","address":"","city":"","longitude":"16.9009097300","latitude":"52.4687448900","description":[]},{"id":"376","label":"Wietrzna","address":"","city":"","longitude":"16.9005959200","latitude":"52.4683871600","description":[]},{"id":"685","label":"Palędzie/Nowa","address":"","city":"","longitude":"16.7386973700","latitude":"52.3730021400","description":[]},{"id":"686","label":"Palędzie/Nowa","address":"","city":"","longitude":"16.7379570600","latitude":"52.3723335300","description":[]},{"id":"687","label":"Palędzie/Leśna","address":"","city":"","longitude":"16.7358967300","latitude":"52.3695529000","description":[]},{"id":"688","label":"Palędzie/Leśna","address":"","city":"","longitude":"16.7357758500","latitude":"52.3690806300","description":[]},{"id":"689","label":"Dopiewiec/","address":"","city":"","longitude":"16.7087657600","latitude":"52.3599654400","description":[]},{"id":"690","label":"Dopiewiec/","address":"","city":"","longitude":"16.7091852100","latitude":"52.3599545700","description":[]},{"id":"691","label":"Dopiewiec/Przejazd Kolejowy","address":"","city":"","longitude":"16.6898690500","latitude":"52.3594442900","description":[]},{"id":"692","label":"Dopiewiec/Przejazd Kolejowy","address":"","city":"","longitude":"16.6915253900","latitude":"52.3595712200","description":[]},{"id":"693","label":"Dopiewo/Ośrodek Zdrowia","address":"","city":"","longitude":"16.6837441500","latitude":"52.3591720100","description":[]},{"id":"694","label":"Dopiewo/Ośrodek Zdrowia","address":"","city":"","longitude":"16.6825271300","latitude":"52.3591770600","description":[]},{"id":"695","label":"Dopiewo/Kościół","address":"","city":"","longitude":"16.6767218800","latitude":"52.3581242100","description":[]},{"id":"696","label":"Dopiewo/Kościół","address":"","city":"","longitude":"16.6763361100","latitude":"52.3579512700","description":[]},{"id":"697","label":"Dopiewo/Dworzec Kolejowy","address":"","city":"","longitude":"16.6787559800","latitude":"52.3542555700","description":[]},{"id":"698","label":"Zakrzewo/Zacisze","address":"","city":"","longitude":"16.7384438100","latitude":"52.3900401000","description":[]},{"id":"699","label":"Zakrzewo/Zacisze","address":"","city":"","longitude":"16.7388852200","latitude":"52.3899850400","description":[]},{"id":"700","label":"Zakrzewo/Sportowa","address":"","city":"","longitude":"16.7267028700","latitude":"52.3928255100","description":[]},{"id":"701","label":"Zakrzewo/Sportowa","address":"","city":"","longitude":"16.7258674700","latitude":"52.3933213600","description":[]},{"id":"702","label":"Zakrzewo/Świerkowa","address":"","city":"","longitude":"16.7160926900","latitude":"52.3987123100","description":[]},{"id":"703","label":"Zakrzewo/Świerkowa","address":"","city":"","longitude":"16.7163313800","latitude":"52.3984719500","description":[]},{"id":"704","label":"Zakrzewo/Bukowska","address":"","city":"","longitude":"16.7180501200","latitude":"52.4049495700","description":[]},{"id":"705","label":"Zakrzewo/Bukowska","address":"","city":"","longitude":"16.7194696000","latitude":"52.4062222900","description":[]},{"id":"706","label":"Dąbrowa/Szkolna","address":"","city":"","longitude":"16.7401152300","latitude":"52.4035842300","description":[]},{"id":"707","label":"Dąbrowa/Szkolna","address":"","city":"","longitude":"16.7398011500","latitude":"52.4037507600","description":[]},{"id":"708","label":"Dąbrowa/Krótka","address":"","city":"","longitude":"16.7447766900","latitude":"52.4008825100","description":[]},{"id":"709","label":"Dąbrowa/Krótka","address":"","city":"","longitude":"16.7446036500","latitude":"52.4008751900","description":[]},{"id":"816","label":"Dębiec","address":"","city":"","longitude":"16.9011792500","latitude":"52.3708661600","description":[]},{"id":"829","label":"Piastowska","address":"","city":"","longitude":"16.9185810400","latitude":"52.3722627000","description":[]},{"id":"831","label":"Dębina","address":"","city":"","longitude":"16.9268052800","latitude":"52.3776519000","description":[]},{"id":"832","label":"Dębina","address":"","city":"","longitude":"16.9269882600","latitude":"52.3785911400","description":[]},{"id":"833","label":"Hetmańska Wiadukt","address":"","city":"","longitude":"16.9286317900","latitude":"52.3821631100","description":[]},{"id":"834","label":"Hetmańska Wiadukt","address":"","city":"","longitude":"16.9288388300","latitude":"52.3832121000","description":[]},{"id":"866","label":"Mosina/Rondo","address":"","city":"","longitude":"16.8476093900","latitude":"52.2433488100","description":[]},{"id":"867","label":"Mosina/Rondo","address":"","city":"","longitude":"16.8474932600","latitude":"52.2433893800","description":[]},{"id":"868","label":"Mosina/Dworzec Kolejowy","address":"","city":"","longitude":"16.8514785900","latitude":"52.2413403700","description":[]},{"id":"869","label":"Mosina/Dworzec Kolejowy","address":"","city":"","longitude":"16.8516783400","latitude":"52.2415089500","description":[]},{"id":"874","label":"Mosina/Rzeczypospolitej Mosińskiej","address":"","city":"","longitude":"16.8515332600","latitude":"52.2512105800","description":[]},{"id":"875","label":"Mosina/Rzeczypospolitej Mosińskiej","address":"","city":"","longitude":"16.8514883300","latitude":"52.2510109700","description":[]},{"id":"878","label":"Puszczykowo/Niwka Szpital","address":"","city":"","longitude":"16.8701902600","latitude":"52.2641841800","description":[]},{"id":"879","label":"Puszczykowo/Dworcowa","address":"","city":"","longitude":"16.8685220900","latitude":"52.2720650500","description":[]},{"id":"880","label":"Puszczykowo/Dworcowa","address":"","city":"","longitude":"16.8686865800","latitude":"52.2721878700","description":[]},{"id":"881","label":"Puszczykowo/Puszczykówko Dworzec Kolejowy","address":"","city":"","longitude":"16.8620024000","latitude":"52.2721533000","description":[]},{"id":"882","label":"Puszczykowo/Puszczykówko Dworzec Kolejowy","address":"","city":"","longitude":"16.8612408000","latitude":"52.2722648700","description":[]},{"id":"883","label":"Puszczykowo/Libelta","address":"","city":"","longitude":"16.8581409100","latitude":"52.2745733600","description":[]},{"id":"884","label":"Puszczykowo/Libelta","address":"","city":"","longitude":"16.8588530600","latitude":"52.2731169000","description":[]},{"id":"885","label":"Puszczykowo/Piaskowa","address":"","city":"","longitude":"16.8538291700","latitude":"52.2768788200","description":[]},{"id":"886","label":"Puszczykowo/Piaskowa","address":"","city":"","longitude":"16.8540977900","latitude":"52.2782809600","description":[]},{"id":"887","label":"Puszczykowo/Rondo Puszczyk","address":"","city":"","longitude":"16.8512104300","latitude":"52.2812281400","description":[]},{"id":"888","label":"Puszczykowo/Rondo Puszczyk","address":"","city":"","longitude":"16.8514030200","latitude":"52.2805694800","description":[]},{"id":"889","label":"Puszczykowo/Kościelna","address":"","city":"","longitude":"16.8553204000","latitude":"52.2856426400","description":[]},{"id":"890","label":"Puszczykowo/Kościelna","address":"","city":"","longitude":"16.8561380700","latitude":"52.2868372500","description":[]},{"id":"891","label":"Puszczykowo/Wiosenna","address":"","city":"","longitude":"16.8582297600","latitude":"52.2888808000","description":[]},{"id":"892","label":"Puszczykowo/Wiosenna","address":"","city":"","longitude":"16.8587716600","latitude":"52.2897239900","description":[]},{"id":"893","label":"Puszczykowo/Źródlana","address":"","city":"","longitude":"16.8614444000","latitude":"52.2926917600","description":[]},{"id":"894","label":"Puszczykowo/Źródlana","address":"","city":"","longitude":"16.8621866100","latitude":"52.2932731600","description":[]},{"id":"895","label":"Puszczykowo/Dworzec Kolejowy","address":"","city":"","longitude":"16.8683995900","latitude":"52.2946202200","description":[]},{"id":"896","label":"Puszczykowo/Dworzec Kolejowy","address":"","city":"","longitude":"16.8691190000","latitude":"52.2945244600","description":[]},{"id":"897","label":"Łęczyca/WPN","address":"","city":"","longitude":"16.8679554908","latitude":"52.3025313034","description":[]},{"id":"898","label":"Łęczyca/WPN","address":"","city":"","longitude":"16.8686343387","latitude":"52.3032175001","description":[]},{"id":"899","label":"Łęczyca/Łęczycka","address":"","city":"","longitude":"16.8731353955","latitude":"52.3062510845","description":[]},{"id":"900","label":"Łęczyca/Łęczycka","address":"","city":"","longitude":"16.8775183918","latitude":"52.3088601620","description":[]},{"id":"901","label":"Łęczyca/Dworcowa","address":"","city":"","longitude":"16.8816209945","latitude":"52.3158289853","description":[]},{"id":"902","label":"Łęczyca/Dworcowa","address":"","city":"","longitude":"16.8810011768","latitude":"52.3147187411","description":[]},{"id":"903","label":"Luboń/Lasek","address":"","city":"","longitude":"16.8861590000","latitude":"52.3216430000","description":[]},{"id":"904","label":"Luboń/Lasek","address":"","city":"","longitude":"16.8867123538","latitude":"52.3225891395","description":[]},{"id":"906","label":"Luboń/Kręta","address":"","city":"","longitude":"16.8781972398","latitude":"52.3201162523","description":[]},{"id":"913","label":"Luboń/Orlen","address":"","city":"","longitude":"16.8770904225","latitude":"52.3396970107","description":[]},{"id":"914","label":"Luboń/Orlen","address":"","city":"","longitude":"16.8755851510","latitude":"52.3395977753","description":[]},{"id":"917","label":"Luboń/Żeromskiego ","address":"","city":"","longitude":"16.8816357520","latitude":"52.3401570994","description":[]},{"id":"918","label":"Luboń/Żeromskiego ","address":"","city":"","longitude":"16.8829196600","latitude":"52.3402022059","description":[]},{"id":"919","label":"Luboń/Dworcowa","address":"","city":"","longitude":"16.8901508661","latitude":"52.3400127584","description":[]},{"id":"920","label":"Luboń/Dworcowa","address":"","city":"","longitude":"16.8889555035","latitude":"52.3400759076","description":[]},{"id":"921","label":"Luboń/Ratajskiego","address":"","city":"","longitude":"16.8922759552","latitude":"52.3400849290","description":[]},{"id":"922","label":"Luboń/Ratajskiego","address":"","city":"","longitude":"16.8916413800","latitude":"52.3384430192","description":[]},{"id":"923","label":"Luboń/PKP","address":"","city":"","longitude":"16.8923054704","latitude":"52.3440811908","description":[]},{"id":"924","label":"Luboń/PKP","address":"","city":"","longitude":"16.8921283796","latitude":"52.3451906983","description":[]},{"id":"926","label":"Luboń/Streicha","address":"","city":"","longitude":"16.8904902901","latitude":"52.3480951309","description":[]},{"id":"927","label":"Luboń/Streicha","address":"","city":"","longitude":"16.8902246539","latitude":"52.3486182692","description":[]},{"id":"928","label":"Luboń/Okrzei","address":"","city":"","longitude":"16.8863581723","latitude":"52.3462911580","description":[]},{"id":"930","label":"Luboń/Jana Pawła II","address":"","city":"","longitude":"16.8828606298","latitude":"52.3456056290","description":[]},{"id":"932","label":"Luboń/Straż Pożarna","address":"","city":"","longitude":"16.8779463612","latitude":"52.3452989415","description":[]},{"id":"937","label":"Luboń/Wojska Polskiego","address":"","city":"","longitude":"16.8758212720","latitude":"52.3434136688","description":[]},{"id":"938","label":"Luboń/Szkoła nr 3","address":"","city":"","longitude":"16.8969688604","latitude":"52.3487445431","description":[]},{"id":"939","label":"Luboń/Szkoła nr 3","address":"","city":"","longitude":"16.8963490427","latitude":"52.3481402292","description":[]},{"id":"940","label":"Luboń/Dębiecka","address":"","city":"","longitude":"16.9012633113","latitude":"52.3526047411","description":[]},{"id":"942","label":"Luboń/R. Maya","address":"","city":"","longitude":"16.8890588064","latitude":"52.3320913216","description":[]},{"id":"943","label":"Luboń/R. Maya","address":"","city":"","longitude":"16.8894425031","latitude":"52.3332823344","description":[]},{"id":"944","label":"Luboń/Rutkiewicz","address":"","city":"","longitude":"16.8875387774","latitude":"52.3254589595","description":[]},{"id":"945","label":"Luboń/Rutkiewicz","address":"","city":"","longitude":"16.8876863530","latitude":"52.3262530906","description":[]},{"id":"946","label":"Wiry/Nowa","address":"","city":"","longitude":"16.8703167009","latitude":"52.3175890715","description":[]},{"id":"947","label":"Wiry/Nowa","address":"","city":"","longitude":"16.8708774883","latitude":"52.3179410803","description":[]},{"id":"948","label":"Wiry/Laskowska","address":"","city":"","longitude":"16.8630559797","latitude":"52.3150707727","description":[]},{"id":"949","label":"Wiry/Laskowska","address":"","city":"","longitude":"16.8605176788","latitude":"52.3155040386","description":[]},{"id":"950","label":"Wiry/Południowa","address":"","city":"","longitude":"16.8569168333","latitude":"52.3175980974","description":[]},{"id":"951","label":"Wiry/Kościół","address":"","city":"","longitude":"16.8542752295","latitude":"52.3196740061","description":[]},{"id":"952","label":"Wiry/Kościół","address":"","city":"","longitude":"16.8514417773","latitude":"52.3211361094","description":[]},{"id":"953","label":"Wiry/Wirowska","address":"","city":"","longitude":"16.8442253288","latitude":"52.3264065007","description":[]},{"id":"954","label":"Wiry/Wirowska","address":"","city":"","longitude":"16.8435317233","latitude":"52.3266772230","description":[]},{"id":"955","label":"Wiry/Brzoskwiniowa","address":"","city":"","longitude":"16.8368760623","latitude":"52.3293663082","description":[]},{"id":"956","label":"Wiry/Brzoskwiniowa","address":"","city":"","longitude":"16.8363890627","latitude":"52.3296370124","description":[]},{"id":"957","label":"Komorniki/Jałowcowa","address":"","city":"","longitude":"16.8299252499","latitude":"52.3341394829","description":[]},{"id":"958","label":"Komorniki/Jałowcowa","address":"","city":"","longitude":"16.8307074008","latitude":"52.3335710600","description":[]},{"id":"959","label":"Komorniki/Granica","address":"","city":"","longitude":"16.8253061326","latitude":"52.3361604829","description":[]},{"id":"960","label":"Komorniki/Granica","address":"","city":"","longitude":"16.8237565884","latitude":"52.3362958144","description":[]},{"id":"961","label":"Komorniki/Os. Parkowe","address":"","city":"","longitude":"16.8290102810","latitude":"52.3370085536","description":[]},{"id":"962","label":"Komorniki/Os. Parkowe","address":"","city":"","longitude":"16.8291873717","latitude":"52.3370807291","description":[]},{"id":"963","label":"Komorniki/Lubońska","address":"","city":"","longitude":"16.8343230038","latitude":"52.3390294225","description":[]},{"id":"964","label":"Komorniki/Lubońska","address":"","city":"","longitude":"16.8347214580","latitude":"52.3391737668","description":[]},{"id":"965","label":"Komorniki/Wirowska","address":"","city":"","longitude":"16.8391929997","latitude":"52.3408787975","description":[]},{"id":"966","label":"Komorniki/Wirowska","address":"","city":"","longitude":"16.8396947569","latitude":"52.3410772624","description":[]},{"id":"967","label":"Luboń/Studzienna","address":"","city":"","longitude":"16.8445795103","latitude":"52.3429896969","description":[]},{"id":"968","label":"Luboń/Studzienna","address":"","city":"","longitude":"16.8442991166","latitude":"52.3428724274","description":[]},{"id":"971","label":"Luboń/Traugutta","address":"","city":"","longitude":"16.8479147197","latitude":"52.3442255186","description":[]},{"id":"987","label":"Luboń/Os. Lubonianka","address":"","city":"","longitude":"16.8810454495","latitude":"52.3490692456","description":[]},{"id":"989","label":"Luboń/Puszkina","address":"","city":"","longitude":"16.8827720844","latitude":"52.3527129661","description":[]},{"id":"990","label":"Luboń/Puszkina","address":"","city":"","longitude":"16.8828311147","latitude":"52.3528302095","description":[]},{"id":"991","label":"Luboń/Factory Outlet","address":"","city":"","longitude":"16.8910363199","latitude":"52.3542731803","description":[]},{"id":"992","label":"Luboń/Factory Outlet","address":"","city":"","longitude":"16.8917889556","latitude":"52.3542551434","description":[]},{"id":"993","label":"Luboń/Cmentarz","address":"","city":"","longitude":"16.8505940000","latitude":"52.3489900000","description":[]},{"id":"994","label":"Luboń/Cmentarz","address":"","city":"","longitude":"16.8499807785","latitude":"52.3492496349","description":[]},{"id":"995","label":"Sycowska Centrum Handlowe","address":"","city":"","longitude":"16.8385760000","latitude":"52.3541640000","description":[]},{"id":"1016","label":"Kotowo","address":"","city":"","longitude":"16.8537916000","latitude":"52.3592269200","description":[]},{"id":"1017","label":"Kotowo","address":"","city":"","longitude":"16.8543241700","latitude":"52.3581464200","description":[]},{"id":"1018","label":"Uradzka","address":"","city":"","longitude":"16.8599709100","latitude":"52.3554451100","description":[]},{"id":"1019","label":"Uradzka","address":"","city":"","longitude":"16.8589186200","latitude":"52.3558237000","description":[]},{"id":"1032","label":"Przełęcz","address":"","city":"","longitude":"16.8880974300","latitude":"52.3772787000","description":[]},{"id":"1033","label":"Przełęcz","address":"","city":"","longitude":"16.8886370600","latitude":"52.3772577500","description":[]},{"id":"1050","label":"Świerczewo","address":"","city":"","longitude":"16.8843606300","latitude":"52.3563551700","description":[]},{"id":"1296","label":"Borówiec/Szkoła","address":"","city":"","longitude":"17.0473616100","latitude":"52.2773756200","description":[]},{"id":"1297","label":"Borówiec/Deszczowa","address":"","city":"","longitude":"17.0382476200","latitude":"52.2806415700","description":[]},{"id":"1298","label":"Borówiec/Deszczowa","address":"","city":"","longitude":"17.0379864300","latitude":"52.2806034900","description":[]},{"id":"1299","label":"Borówiec/Pod Borem","address":"","city":"","longitude":"17.0276079800","latitude":"52.2804138600","description":[]},{"id":"1300","label":"Borówiec/Pod Borem","address":"","city":"","longitude":"17.0269315300","latitude":"52.2805952400","description":[]},{"id":"1301","label":"Borówiec/Borówkowa","address":"","city":"","longitude":"17.0141312700","latitude":"52.2821272100","description":[]},{"id":"1302","label":"Borówiec/Borówkowa","address":"","city":"","longitude":"17.0121129800","latitude":"52.2827159500","description":[]},{"id":"1303","label":"Kamionki/Lisia","address":"","city":"","longitude":"17.0066226900","latitude":"52.2840455900","description":[]},{"id":"1304","label":"Kamionki/Lisia","address":"","city":"","longitude":"17.0061699400","latitude":"52.2840542800","description":[]},{"id":"1305","label":"Kamionki/Lotnicza","address":"","city":"","longitude":"17.0001225400","latitude":"52.2849603500","description":[]},{"id":"1306","label":"Kamionki/Lotnicza","address":"","city":"","longitude":"16.9993703300","latitude":"52.2851072300","description":[]},{"id":"1307","label":"Kamionki/Pętla","address":"","city":"","longitude":"16.9942654758","latitude":"52.2860142298","description":[]},{"id":"1308","label":"Kamionki/Łąkowa","address":"","city":"","longitude":"16.9816866100","latitude":"52.2884008800","description":[]},{"id":"1309","label":"Kamionki/Łąkowa","address":"","city":"","longitude":"16.9818029200","latitude":"52.2883077800","description":[]},{"id":"1310","label":"Kamionki/Platanowa","address":"","city":"","longitude":"16.9787976000","latitude":"52.2891725400","description":[]},{"id":"1311","label":"Kamionki/Platanowa","address":"","city":"","longitude":"16.9782593900","latitude":"52.2892556900","description":[]},{"id":"1312","label":"Daszewice/Lipowa","address":"","city":"","longitude":"16.9683609800","latitude":"52.2926206600","description":[]},{"id":"1313","label":"Daszewice/Lipowa","address":"","city":"","longitude":"16.9679685700","latitude":"52.2927155600","description":[]},{"id":"1314","label":"Daszewice/Pętla","address":"","city":"","longitude":"16.9627815600","latitude":"52.2957547000","description":[]},{"id":"1315","label":"Daszewice/Piotrowska","address":"","city":"","longitude":"16.9583337300","latitude":"52.2991004200","description":[]},{"id":"1316","label":"Daszewice/Piotrowska","address":"","city":"","longitude":"16.9580540800","latitude":"52.2993912300","description":[]},{"id":"1317","label":"Daszewice/Leśna","address":"","city":"","longitude":"16.9538963400","latitude":"52.3019869700","description":[]},{"id":"1318","label":"Daszewice/Leśna","address":"","city":"","longitude":"16.9533250100","latitude":"52.3024275300","description":[]},{"id":"1319","label":"Babki/Jednostka Wojskowa","address":"","city":"","longitude":"16.9377460700","latitude":"52.3116340400","description":[]},{"id":"1320","label":"Babki/Jednostka Wojskowa","address":"","city":"","longitude":"16.9379506139","latitude":"52.3115864386","description":[]},{"id":"1321","label":"Babki/Ośrodek Zdrowia","address":"","city":"","longitude":"16.9362469600","latitude":"52.3134674000","description":[]},{"id":"1322","label":"Babki/Ośrodek Zdrowia","address":"","city":"","longitude":"16.9360199100","latitude":"52.3136827700","description":[]},{"id":"1323","label":"Głuszyna Kościół","address":"","city":"","longitude":"16.9510315300","latitude":"52.3199695300","description":[]},{"id":"1335","label":"Babki/","address":"","city":"","longitude":"16.9313970600","latitude":"52.3169076300","description":[]},{"id":"1336","label":"Babki/","address":"","city":"","longitude":"16.9304748000","latitude":"52.3177123300","description":[]},{"id":"1337","label":"Czapury/Gromadzka","address":"","city":"","longitude":"16.9223207600","latitude":"52.3198030600","description":[]},{"id":"1338","label":"Czapury/Głuszynka","address":"","city":"","longitude":"16.9129402900","latitude":"52.3180093000","description":[]},{"id":"1339","label":"Czapury/Głuszynka","address":"","city":"","longitude":"16.9129405900","latitude":"52.3183083400","description":[]},{"id":"1340","label":"Czapury/Szkoła","address":"","city":"","longitude":"16.9117426500","latitude":"52.3139351800","description":[]},{"id":"1341","label":"Czapury/Szkoła","address":"","city":"","longitude":"16.9117173900","latitude":"52.3144885800","description":[]},{"id":"1342","label":"Czapury/Warta","address":"","city":"","longitude":"16.9101880500","latitude":"52.3088408300","description":[]},{"id":"1343","label":"Wiórek/Podleśna","address":"","city":"","longitude":"16.9088725700","latitude":"52.3064890000","description":[]},{"id":"1344","label":"Wiórek/Pętla","address":"","city":"","longitude":"16.9075839000","latitude":"52.3035467500","description":[]},{"id":"1345","label":"Czapury/Leśna","address":"","city":"","longitude":"16.9116227200","latitude":"52.3241389200","description":[]},{"id":"1346","label":"Czapury/Leśna","address":"","city":"","longitude":"16.9125335000","latitude":"52.3230381000","description":[]},{"id":"1347","label":"Czapury/Dębowa","address":"","city":"","longitude":"16.9106343641","latitude":"52.3261267526","description":[]},{"id":"1348","label":"Rydzowa","address":"","city":"","longitude":"16.9119543700","latitude":"52.3343571500","description":[]},{"id":"1349","label":"Rydzowa","address":"","city":"","longitude":"16.9119561700","latitude":"52.3340806100","description":[]},{"id":"1351","label":"Starołęka Wielka","address":"","city":"","longitude":"16.9175363200","latitude":"52.3415868200","description":[]},{"id":"1425","label":"Droga Dębińska","address":"","city":"","longitude":"16.9305755000","latitude":"52.3874419000","description":[]},{"id":"1426","label":"Droga Dębińska","address":"","city":"","longitude":"16.9305828900","latitude":"52.3870132300","description":[]},{"id":"1549","label":"Świątniczki","address":"","city":"","longitude":"17.0108321500","latitude":"52.3359999800","description":[]},{"id":"1550","label":"Żerniki/Wieś","address":"","city":"","longitude":"17.0575754228","latitude":"52.3325153980","description":[]},{"id":"1562","label":"Gospodarska","address":"","city":"","longitude":"17.0282243200","latitude":"52.3557138000","description":[]},{"id":"1567","label":"Komorniki/Zakładowa Wirenka","address":"","city":"","longitude":"16.8084246300","latitude":"52.3354303900","description":[]},{"id":"1568","label":"Komorniki/Zakładowa Wirenka","address":"","city":"","longitude":"16.8083921300","latitude":"52.3352858900","description":[]},{"id":"1569","label":"Komorniki/Centrum","address":"","city":"","longitude":"16.8069646800","latitude":"52.3355844500","description":[]},{"id":"1570","label":"Komorniki/Centrum","address":"","city":"","longitude":"16.8072777200","latitude":"52.3354671700","description":[]},{"id":"1634","label":"Komorniki/Nowa","address":"","city":"","longitude":"16.8165677600","latitude":"52.3380680800","description":[]},{"id":"1635","label":"Komorniki/Jeziorna","address":"","city":"","longitude":"16.8032339700","latitude":"52.3305535900","description":[]},{"id":"1636","label":"Rezerwat Morasko","address":"","city":"","longitude":"16.8974506500","latitude":"52.4879355700","description":[]},{"id":"1637","label":"Rezerwat Morasko","address":"","city":"","longitude":"16.8976977800","latitude":"52.4878970700","description":[]},{"id":"1648","label":"Krzesinki","address":"","city":"","longitude":"17.0125720900","latitude":"52.3402166400","description":[]},{"id":"1649","label":"Podjaryszki","address":"","city":"","longitude":"17.0150863200","latitude":"52.3377043700","description":[]},{"id":"1734","label":"Junikowo Stacja","address":"","city":"","longitude":"16.8261858800","latitude":"52.3783512300","description":[]},{"id":"1735","label":"Junikowo Stacja","address":"","city":"","longitude":"16.8268704343","latitude":"52.3786973279","description":[]},{"id":"1736","label":"Plewiska/Wołczyńska","address":"","city":"","longitude":"16.8227527000","latitude":"52.3758730300","description":[]},{"id":"1737","label":"Plewiska/Wołczyńska","address":"","city":"","longitude":"16.8235693800","latitude":"52.3763375800","description":[]},{"id":"1738","label":"Plewiska/Słoneczna","address":"","city":"","longitude":"16.8319087700","latitude":"52.3663613300","description":[]},{"id":"1739","label":"Plewiska/Słoneczna","address":"","city":"","longitude":"16.8307937300","latitude":"52.3662569200","description":[]},{"id":"1740","label":"Plewiska/Podgórna","address":"","city":"","longitude":"16.8247110000","latitude":"52.3665765900","description":[]},{"id":"1741","label":"Plewiska/Podgórna","address":"","city":"","longitude":"16.8249950100","latitude":"52.3661878100","description":[]},{"id":"1742","label":"Plewiska/Zachodnia","address":"","city":"","longitude":"16.8210504700","latitude":"52.3693986600","description":[]},{"id":"1743","label":"Plewiska/Zachodnia","address":"","city":"","longitude":"16.8211310500","latitude":"52.3694219400","description":[]},{"id":"1744","label":"Plewiska/Rynek","address":"","city":"","longitude":"16.8127774200","latitude":"52.3686891100","description":[]},{"id":"1745","label":"Plewiska/Rynek","address":"","city":"","longitude":"16.8137228500","latitude":"52.3694412800","description":[]},{"id":"1746","label":"Plewiska/Skryta","address":"","city":"","longitude":"16.8169676000","latitude":"52.3716588700","description":[]},{"id":"1747","label":"Plewiska/Skryta","address":"","city":"","longitude":"16.8170255900","latitude":"52.3717857300","description":[]},{"id":"1748","label":"Plewiska/Straż Pożarna","address":"","city":"","longitude":"16.8079950400","latitude":"52.3653270100","description":[]},{"id":"1749","label":"Plewiska/Straż Pożarna","address":"","city":"","longitude":"16.8078368100","latitude":"52.3653363700","description":[]},{"id":"1750","label":"Plewiska/Boisko","address":"","city":"","longitude":"16.8024058000","latitude":"52.3669475600","description":[]},{"id":"1751","label":"Plewiska/Boisko","address":"","city":"","longitude":"16.8008823651","latitude":"52.3683306607","description":[]},{"id":"1752","label":"Plewiska/Stacja Energetyczna","address":"","city":"","longitude":"16.7810500900","latitude":"52.3711354000","description":[]},{"id":"1753","label":"Gołuski/Pętla","address":"","city":"","longitude":"16.7570684300","latitude":"52.3613408600","description":[]},{"id":"1754","label":"Gołuski/Szkolna","address":"","city":"","longitude":"16.7530514700","latitude":"52.3580989700","description":[]},{"id":"1755","label":"Gołuski/Szkolna","address":"","city":"","longitude":"16.7528569100","latitude":"52.3579649800","description":[]},{"id":"1756","label":"Głuchowo/Spokojna","address":"","city":"","longitude":"16.7725478434","latitude":"52.3488527775","description":[]},{"id":"1757","label":"Głuchowo/Spokojna","address":"","city":"","longitude":"16.7718837531","latitude":"52.3487174844","description":[]},{"id":"1758","label":"Głuchowo/Stawna","address":"","city":"","longitude":"16.7688141799","latitude":"52.3465437186","description":[]},{"id":"1759","label":"Głuchowo/Tęczowa","address":"","city":"","longitude":"16.7761782040","latitude":"52.3449020487","description":[]},{"id":"1760","label":"Głuchowo/Tęczowa","address":"","city":"","longitude":"16.7770193851","latitude":"52.3448479266","description":[]},{"id":"1761","label":"Komorniki/Topolowa","address":"","city":"","longitude":"16.7950742600","latitude":"52.3403201000","description":[]},{"id":"1762","label":"Komorniki/Topolowa","address":"","city":"","longitude":"16.7961222600","latitude":"52.3399213800","description":[]},{"id":"1763","label":"Komorniki/Ks.Malinowskiego","address":"","city":"","longitude":"16.8004527700","latitude":"52.3392363200","description":[]},{"id":"1764","label":"Komorniki/Ks.Malinowskiego","address":"","city":"","longitude":"16.8004001400","latitude":"52.3395108200","description":[]},{"id":"1765","label":"Komorniki/Ks.Wawrzyniaka","address":"","city":"","longitude":"16.8034285300","latitude":"52.3471480900","description":[]},{"id":"1766","label":"Komorniki/Ks.Wawrzyniaka","address":"","city":"","longitude":"16.8032274800","latitude":"52.3470874600","description":[]},{"id":"1767","label":"Plewiska/Szkolna","address":"","city":"","longitude":"16.8073671600","latitude":"52.3577726400","description":[]},{"id":"1768","label":"Plewiska/Szkolna","address":"","city":"","longitude":"16.8070922200","latitude":"52.3572488300","description":[]},{"id":"1770","label":"Plewiska/Szkoła","address":"","city":"","longitude":"16.8074794900","latitude":"52.3627062100","description":[]},{"id":"1771","label":"Plewiska/Szkoła","address":"","city":"","longitude":"16.8072526900","latitude":"52.3629833600","description":[]},{"id":"1777","label":"Kowalewicka Wiadukt","address":"","city":"","longitude":"16.8536996845","latitude":"52.3623529459","description":[]},{"id":"1778","label":"Kowalewicka Wiadukt","address":"","city":"","longitude":"16.8525441700","latitude":"52.3624975300","description":[]},{"id":"1781","label":"Komorniki/Nowa","address":"","city":"","longitude":"16.8148430201","latitude":"52.3388038837","description":[]},{"id":"1782","label":"Modlibowskiej ","address":"","city":"","longitude":"16.8487692800","latitude":"52.3545116100","description":[]},{"id":"1783","label":"Komorniki/Nowa","address":"","city":"","longitude":"16.8157284739","latitude":"52.3392549602","description":[]},{"id":"1784","label":"Komorniki/Magazynowa","address":"","city":"","longitude":"16.8273869490","latitude":"52.3454522855","description":[]},{"id":"1785","label":"Komorniki/Magazynowa","address":"","city":"","longitude":"16.8285232814","latitude":"52.3458221129","description":[]},{"id":"1786","label":"Konarzewo/Pętla","address":"","city":"","longitude":"16.7172029700","latitude":"52.3347636800","description":[]},{"id":"1787","label":"Konarzewo/Os. 25-lecia","address":"","city":"","longitude":"16.7229043900","latitude":"52.3349416700","description":[]},{"id":"1788","label":"Konarzewo/Os. 25-lecia","address":"","city":"","longitude":"16.7245063000","latitude":"52.3345553200","description":[]},{"id":"1789","label":"Chomęcice/Szkoła","address":"","city":"","longitude":"16.7407826600","latitude":"52.3336658300","description":[]},{"id":"1790","label":"Chomęcice/Szkoła","address":"","city":"","longitude":"16.7408126300","latitude":"52.3336077300","description":[]},{"id":"1791","label":"Chomęcice/Środkowa","address":"","city":"","longitude":"16.7464038700","latitude":"52.3315831300","description":[]},{"id":"1792","label":"Chomęcice/Środkowa","address":"","city":"","longitude":"16.7465379500","latitude":"52.3315679200","description":[]},{"id":"1793","label":"Chomęcice/Jesionowa","address":"","city":"","longitude":"16.7583600000","latitude":"52.3305800000","description":[]},{"id":"1794","label":"Chomęcice/Jesionowa","address":"","city":"","longitude":"16.7579400000","latitude":"52.3307600000","description":[]},{"id":"1795","label":"Rosnowo/","address":"","city":"","longitude":"16.7822946900","latitude":"52.3252390600","description":[]},{"id":"1796","label":"Rosnowo/","address":"","city":"","longitude":"16.7803300000","latitude":"52.3256300000","description":[]},{"id":"1797","label":"Rosnowo/","address":"","city":"","longitude":"16.7808619500","latitude":"52.3248815700","description":[]},{"id":"1798","label":"Rosnowo/","address":"","city":"","longitude":"16.7811346500","latitude":"52.3249722000","description":[]},{"id":"1799","label":"Walerianowo/Brzozowa","address":"","city":"","longitude":"16.7744072964","latitude":"52.3199718459","description":[]},{"id":"1800","label":"Walerianowo/Brzozowa","address":"","city":"","longitude":"16.7734400000","latitude":"52.3186800000","description":[]},{"id":"1801","label":"Szreniawa/Dworcowa","address":"","city":"","longitude":"16.7936954318","latitude":"52.3186450896","description":[]},{"id":"1802","label":"Szreniawa/Dworcowa","address":"","city":"","longitude":"16.7921754027","latitude":"52.3186180125","description":[]},{"id":"1803","label":"Szreniawa/Dworcowa","address":"","city":"","longitude":"16.7930608565","latitude":"52.3178147185","description":[]},{"id":"1804","label":"Szreniawa/Nowa","address":"","city":"","longitude":"16.7900207985","latitude":"52.3136806826","description":[]},{"id":"1805","label":"Rosnówko/Stawnego","address":"","city":"","longitude":"16.7725330859","latitude":"52.2993981384","description":[]},{"id":"1806","label":"Rosnówko/Stawnego","address":"","city":"","longitude":"16.7719575409","latitude":"52.2996148486","description":[]},{"id":"1807","label":"Rosnówko/Dom Kultury","address":"","city":"","longitude":"16.7633500000","latitude":"52.3032700000","description":[]},{"id":"1808","label":"Rosnówko/Dom Kultury","address":"","city":"","longitude":"16.7622765793","latitude":"52.3044454046","description":[]},{"id":"1809","label":"Walerianowo/Bukowa","address":"","city":"","longitude":"16.7704375119","latitude":"52.3149714820","description":[]},{"id":"1810","label":"Walerianowo/Bukowa","address":"","city":"","longitude":"16.7701128455","latitude":"52.3145562640","description":[]},{"id":"1811","label":"Komorniki/Jeziorna","address":"","city":"","longitude":"16.8016645160","latitude":"52.3294114256","description":[]},{"id":"1812","label":"Komorniki/Jeziorna","address":"","city":"","longitude":"16.8031550299","latitude":"52.3313424108","description":[]},{"id":"1860","label":"Przybroda/Pętla","address":"","city":"","longitude":"16.6557476600","latitude":"52.5206125000","description":[]},{"id":"1861","label":"Przybroda/Kolejowa","address":"","city":"","longitude":"16.6630105800","latitude":"52.5205479100","description":[]},{"id":"1862","label":"Przybroda/Kolejowa","address":"","city":"","longitude":"16.6629599100","latitude":"52.5205957900","description":[]},{"id":"1863","label":"Cerekwica/Przybrodzka","address":"","city":"","longitude":"16.6909325200","latitude":"52.5187811800","description":[]},{"id":"1864","label":"Cerekwica/Przybrodzka","address":"","city":"","longitude":"16.6909824600","latitude":"52.5187415600","description":[]},{"id":"1865","label":"Mrowino/Szkoła","address":"","city":"","longitude":"16.6996795400","latitude":"52.5132105000","description":[]},{"id":"1866","label":"Mrowino/Szkoła","address":"","city":"","longitude":"16.6986138600","latitude":"52.5136633700","description":[]},{"id":"1868","label":"Mrowino/Szkoła","address":"","city":"","longitude":"16.6985976700","latitude":"52.5143312600","description":[]},{"id":"1869","label":"Mrowino/Towarowa","address":"","city":"","longitude":"16.7069127600","latitude":"52.5059881100","description":[]},{"id":"1870","label":"Mrowino/Towarowa","address":"","city":"","longitude":"16.7064720600","latitude":"52.5069663000","description":[]},{"id":"1871","label":"Mrowino/Kopernika","address":"","city":"","longitude":"16.7024902400","latitude":"52.5125451600","description":[]},{"id":"1872","label":"Mrowino/Park","address":"","city":"","longitude":"16.7051639000","latitude":"52.5179515200","description":[]},{"id":"1873","label":"Mrowino/Park","address":"","city":"","longitude":"16.7053599400","latitude":"52.5180287100","description":[]},{"id":"1874","label":"Mrowino/Gniewka","address":"","city":"","longitude":"16.7196945800","latitude":"52.5150124100","description":[]},{"id":"1875","label":"Mrowino/Gniewka","address":"","city":"","longitude":"16.7185506800","latitude":"52.5153794900","description":[]},{"id":"1876","label":"Mrowino/Leszka","address":"","city":"","longitude":"16.7253388000","latitude":"52.5137826900","description":[]},{"id":"1877","label":"Mrowino/Leszka","address":"","city":"","longitude":"16.7246448500","latitude":"52.5138104400","description":[]},{"id":"1878","label":"Rokietnica/Trakt Napoleoński","address":"","city":"","longitude":"16.7314301600","latitude":"52.5129754200","description":[]},{"id":"1879","label":"Rokietnica/Trakt Napoleoński","address":"","city":"","longitude":"16.7310942900","latitude":"52.5131591300","description":[]},{"id":"1880","label":"Rokietnica/Leśna","address":"","city":"","longitude":"16.7356809000","latitude":"52.5035552800","description":[]},{"id":"1881","label":"Rokietnica/Leśna","address":"","city":"","longitude":"16.7356568700","latitude":"52.5037768500","description":[]},{"id":"1882","label":"Napachanie/Starzyńska","address":"","city":"","longitude":"16.7315641400","latitude":"52.4892227700","description":[]},{"id":"1883","label":"Napachanie/Starzyńska","address":"","city":"","longitude":"16.7315254300","latitude":"52.4893756900","description":[]},{"id":"1884","label":"Napachanie/Park","address":"","city":"","longitude":"16.7281500000","latitude":"52.4863500000","description":[]},{"id":"1885","label":"Napachanie/Park","address":"","city":"","longitude":"16.7282300000","latitude":"52.4862900000","description":[]},{"id":"1908","label":"Rokietnica/Noblistów","address":"","city":"","longitude":"16.7370754200","latitude":"52.5089090400","description":[]},{"id":"1909","label":"Rokietnica/Noblistów","address":"","city":"","longitude":"16.7364642300","latitude":"52.5095724700","description":[]},{"id":"1910","label":"Rokietnica/Spokojna","address":"","city":"","longitude":"16.7602349300","latitude":"52.5139066200","description":[]},{"id":"1911","label":"Rokietnica/Spokojna","address":"","city":"","longitude":"16.7602602900","latitude":"52.5138533200","description":[]},{"id":"1912","label":"Rokietnica/Topolowa","address":"","city":"","longitude":"16.7652208100","latitude":"52.5147635200","description":[]},{"id":"1913","label":"Rokietnica/Topolowa","address":"","city":"","longitude":"16.7651400500","latitude":"52.5146909600","description":[]},{"id":"1914","label":"Bytkowo/Porzeczkowa","address":"","city":"","longitude":"16.7720989300","latitude":"52.5161563000","description":[]},{"id":"1915","label":"Bytkowo/Porzeczkowa","address":"","city":"","longitude":"16.7719880400","latitude":"52.5161970300","description":[]},{"id":"1916","label":"Bytkowo/Pawłowicka","address":"","city":"","longitude":"16.7752571300","latitude":"52.5171383200","description":[]},{"id":"1917","label":"Bytkowo/Pawłowicka","address":"","city":"","longitude":"16.7770482300","latitude":"52.5179181100","description":[]},{"id":"1918","label":"Sobota/Sanktuarium","address":"","city":"","longitude":"16.7988325000","latitude":"52.5223346500","description":[]},{"id":"1919","label":"Sobota/Sanktuarium","address":"","city":"","longitude":"16.7978945500","latitude":"52.5225534100","description":[]},{"id":"1920","label":"Sobota/Kasztanowa","address":"","city":"","longitude":"16.8035649400","latitude":"52.5209760900","description":[]},{"id":"1921","label":"Sobota/Kasztanowa","address":"","city":"","longitude":"16.8028219700","latitude":"52.5212223000","description":[]},{"id":"1922","label":"Sobota/POZ BRUK","address":"","city":"","longitude":"16.8137192000","latitude":"52.5166395300","description":[]},{"id":"1923","label":"Sobota/POZ BRUK","address":"","city":"","longitude":"16.8128209900","latitude":"52.5169601900","description":[]},{"id":"1924","label":"Złotkowo/Lipowa","address":"","city":"","longitude":"16.8349642400","latitude":"52.5071870500","description":[]},{"id":"1925","label":"Złotkowo/Lipowa","address":"","city":"","longitude":"16.8348496000","latitude":"52.5080628500","description":[]},{"id":"1928","label":"Wysogotowo/Warzywna","address":"","city":"","longitude":"16.7911788600","latitude":"52.4012508100","description":[]},{"id":"1929","label":"Wysogotowo/Warzywna","address":"","city":"","longitude":"16.7904894300","latitude":"52.4022543700","description":[]},{"id":"1930","label":"Wysogotowo/Piękna","address":"","city":"","longitude":"16.7865839100","latitude":"52.4054125200","description":[]},{"id":"1931","label":"Wysogotowo/Piękna","address":"","city":"","longitude":"16.7861267700","latitude":"52.4059193300","description":[]},{"id":"1932","label":"Wysogotowo/Długa","address":"","city":"","longitude":"16.7798581200","latitude":"52.4098584800","description":[]},{"id":"1934","label":"Wysogotowo/Wierzbowa","address":"","city":"","longitude":"16.7773217100","latitude":"52.4137947000","description":[]},{"id":"1935","label":"Wysogotowo/Zbożowa","address":"","city":"","longitude":"16.7751749500","latitude":"52.4170901100","description":[]},{"id":"1936","label":"Wysogotowo/Zbożowa","address":"","city":"","longitude":"16.7746632200","latitude":"52.4178391600","description":[]},{"id":"1937","label":"Przeźmierowo/Brzozowa","address":"","city":"","longitude":"16.7747521900","latitude":"52.4197678200","description":[]},{"id":"1938","label":"Przeźmierowo/Brzozowa","address":"","city":"","longitude":"16.7745052700","latitude":"52.4198882200","description":[]},{"id":"1939","label":"Przeźmierowo/Kasztanowa","address":"","city":"","longitude":"16.7791018800","latitude":"52.4184027000","description":[]},{"id":"1940","label":"Przeźmierowo/Kasztanowa","address":"","city":"","longitude":"16.7778621400","latitude":"52.4188783900","description":[]},{"id":"1941","label":"Przeźmierowo/Cmentarz","address":"","city":"","longitude":"16.7870727600","latitude":"52.4168795000","description":[]},{"id":"1942","label":"Przeźmierowo/Cmentarz","address":"","city":"","longitude":"16.7881303600","latitude":"52.4170043100","description":[]},{"id":"1943","label":"Przeźmierowo/Krańcowa","address":"","city":"","longitude":"16.7876891035","latitude":"52.4210581653","description":[]},{"id":"1944","label":"Przeźmierowo/Krańcowa","address":"","city":"","longitude":"16.7874382249","latitude":"52.4215714351","description":[]},{"id":"1945","label":"Przeźmierowo/Kościelna","address":"","city":"","longitude":"16.7856673173","latitude":"52.4253172234","description":[]},{"id":"1946","label":"Przeźmierowo/Kościelna","address":"","city":"","longitude":"16.7852688631","latitude":"52.4261815909","description":[]},{"id":"1952","label":"Wichrowa","address":"","city":"","longitude":"16.8077446321","latitude":"52.4324567508","description":[]},{"id":"1953","label":"Baranowo/Przemysława","address":"","city":"","longitude":"16.7962189751","latitude":"52.4341041698","description":[]},{"id":"1954","label":"Baranowo/Przemysława","address":"","city":"","longitude":"16.7961599449","latitude":"52.4339241270","description":[]},{"id":"1955","label":"Przeźmierowo/Wiadukt","address":"","city":"","longitude":"16.7866855892","latitude":"52.4363636444","description":[]},{"id":"1956","label":"Przeźmierowo/Wiadukt","address":"","city":"","longitude":"16.7863609228","latitude":"52.4356255021","description":[]},{"id":"1957","label":"Przeźmierowo/Wiadukt","address":"","city":"","longitude":"16.7863166501","latitude":"52.4354184600","description":[]},{"id":"1958","label":"Przeźmierowo/Leśna","address":"","city":"","longitude":"16.7829814407","latitude":"52.4310613477","description":[]},{"id":"1959","label":"Przeźmierowo/Leśna","address":"","city":"","longitude":"16.7827453197","latitude":"52.4315745011","description":[]},{"id":"1960","label":"Przeźmierowo/Wysogotowska","address":"","city":"","longitude":"16.7726737900","latitude":"52.4363947800","description":[]},{"id":"1961","label":"Przeźmierowo/Wysogotowska","address":"","city":"","longitude":"16.7726886200","latitude":"52.4358981700","description":[]},{"id":"1962","label":"Swadzim/Wiadukt","address":"","city":"","longitude":"16.7532104500","latitude":"52.4410449100","description":[]},{"id":"1963","label":"Swadzim/Wiadukt","address":"","city":"","longitude":"16.7560702000","latitude":"52.4400425900","description":[]},{"id":"1964","label":"Swadzim/Kładka","address":"","city":"","longitude":"16.7475773700","latitude":"52.4415025500","description":[]},{"id":"1965","label":"Swadzim/Kładka","address":"","city":"","longitude":"16.7470674700","latitude":"52.4411957800","description":[]},{"id":"1966","label":"Swadzim/Auchan","address":"","city":"","longitude":"16.7634412500","latitude":"52.4390070100","description":[]},{"id":"1967","label":"Swadzim/Auchan","address":"","city":"","longitude":"16.7626139200","latitude":"52.4414867500","description":[]},{"id":"1968","label":"Sady/Wiadukt","address":"","city":"","longitude":"16.7246752600","latitude":"52.4487056400","description":[]},{"id":"1969","label":"Sady/Wiadukt","address":"","city":"","longitude":"16.7233684400","latitude":"52.4487345900","description":[]},{"id":"1973","label":"Tarnowo Pdg/Marianowska","address":"","city":"","longitude":"16.7018251900","latitude":"52.4549380500","description":[]},{"id":"1974","label":"Tarnowo Pdg/Marianowska","address":"","city":"","longitude":"16.7016685800","latitude":"52.4543602000","description":[]},{"id":"1975","label":"Tarnowo Pdg/Działkowa","address":"","city":"","longitude":"16.6905986000","latitude":"52.4576954700","description":[]},{"id":"1976","label":"Tarnowo Pdg/Działkowa","address":"","city":"","longitude":"16.6910767000","latitude":"52.4572864100","description":[]},{"id":"1977","label":"Batorowo/Skośna","address":"","city":"","longitude":"16.7682026400","latitude":"52.4205433700","description":[]},{"id":"1978","label":"Batorowo/Skośna","address":"","city":"","longitude":"16.7683790100","latitude":"52.4204711500","description":[]},{"id":"1979","label":"Batorowo/Batorowska","address":"","city":"","longitude":"16.7546509600","latitude":"52.4211329400","description":[]},{"id":"1980","label":"Batorowo/Batorowska","address":"","city":"","longitude":"16.7539934300","latitude":"52.4213294100","description":[]},{"id":"1981","label":"Batorowo/Widok","address":"","city":"","longitude":"16.7458164300","latitude":"52.4218247400","description":[]},{"id":"1982","label":"Batorowo/Widok","address":"","city":"","longitude":"16.7463578200","latitude":"52.4218991500","description":[]},{"id":"1983","label":"Batorowo/Poranek","address":"","city":"","longitude":"16.7396233700","latitude":"52.4219326200","description":[]},{"id":"1984","label":"Batorowo/Poranek","address":"","city":"","longitude":"16.7399436000","latitude":"52.4218438200","description":[]},{"id":"1985","label":"Batorowo/Brzask","address":"","city":"","longitude":"16.7322823100","latitude":"52.4227555400","description":[]},{"id":"1986","label":"Batorowo/Brzask","address":"","city":"","longitude":"16.7321550700","latitude":"52.4227121100","description":[]},{"id":"1987","label":"Batorowo/Zakrzewska","address":"","city":"","longitude":"16.7197013400","latitude":"52.4241627600","description":[]},{"id":"1988","label":"Batorowo/Zakrzewska","address":"","city":"","longitude":"16.7197069900","latitude":"52.4241047600","description":[]},{"id":"1989","label":"Lusowo/Boczna","address":"","city":"","longitude":"16.7179080400","latitude":"52.4214597900","description":[]},{"id":"1990","label":"Lusowo/Boczna","address":"","city":"","longitude":"16.7179949900","latitude":"52.4216198200","description":[]},{"id":"1991","label":"Lusowo/Grzybowa","address":"","city":"","longitude":"16.7181421800","latitude":"52.4190489600","description":[]},{"id":"1992","label":"Lusowo/Grzybowa","address":"","city":"","longitude":"16.7180372500","latitude":"52.4192304600","description":[]},{"id":"1993","label":"Lusowo/Przylesie","address":"","city":"","longitude":"16.7183040000","latitude":"52.4147259600","description":[]},{"id":"1994","label":"Lusowo/Przylesie","address":"","city":"","longitude":"16.7183908600","latitude":"52.4147719400","description":[]},{"id":"1995","label":"Zakrzewo/Bukowska","address":"","city":"","longitude":"16.7173872600","latitude":"52.4060262400","description":[]},{"id":"1996","label":"Zakrzewo/Zakrzewska","address":"","city":"","longitude":"16.7099908500","latitude":"52.4057497300","description":[]},{"id":"1997","label":"Zakrzewo/Zakrzewska","address":"","city":"","longitude":"16.7088567200","latitude":"52.4057159600","description":[]},{"id":"1998","label":"Zakrzewo/Instytut","address":"","city":"","longitude":"16.7029056000","latitude":"52.4060460100","description":[]},{"id":"1999","label":"Zakrzewo/Instytut","address":"","city":"","longitude":"16.7013485100","latitude":"52.4062473300","description":[]},{"id":"2000","label":"Sierosław/Kasztanowa","address":"","city":"","longitude":"16.6744881500","latitude":"52.4035058900","description":[]},{"id":"2001","label":"Sierosław/Kasztanowa","address":"","city":"","longitude":"16.6764207800","latitude":"52.4036464500","description":[]},{"id":"2002","label":"Sierosław/Prosta","address":"","city":"","longitude":"16.6670028300","latitude":"52.4021933200","description":[]},{"id":"2003","label":"Sierosław/Prosta","address":"","city":"","longitude":"16.6700099800","latitude":"52.4026089100","description":[]},{"id":"2004","label":"Sierosław/Działki","address":"","city":"","longitude":"16.6657545600","latitude":"52.4016946000","description":[]},{"id":"2005","label":"Lusowo/Otowska","address":"","city":"","longitude":"16.7150521600","latitude":"52.4259554000","description":[]},{"id":"2006","label":"Lusowo/Otowska","address":"","city":"","longitude":"16.7142736700","latitude":"52.4264903500","description":[]},{"id":"2007","label":"Lusowo/Swadzimska","address":"","city":"","longitude":"16.7057244400","latitude":"52.4313566400","description":[]},{"id":"2008","label":"Lusowo/Swadzimska","address":"","city":"","longitude":"16.7056440400","latitude":"52.4314809700","description":[]},{"id":"2009","label":"Lusowo/Szkoła","address":"","city":"","longitude":"16.7017828600","latitude":"52.4333192800","description":[]},{"id":"2010","label":"Lusowo/Szkoła","address":"","city":"","longitude":"16.7019049900","latitude":"52.4334365700","description":[]},{"id":"2011","label":"Lusowo/Kościół","address":"","city":"","longitude":"16.6980826400","latitude":"52.4329532300","description":[]},{"id":"2012","label":"Sady/Lipowa","address":"","city":"","longitude":"16.7184648700","latitude":"52.4436480300","description":[]},{"id":"2013","label":"Sady/Lipowa","address":"","city":"","longitude":"16.7184906900","latitude":"52.4435741600","description":[]},{"id":"2016","label":"Baranowo/Klonowa","address":"","city":"","longitude":"16.7856525597","latitude":"52.4417193066","description":[]},{"id":"2017","label":"Baranowo/Klonowa","address":"","city":"","longitude":"16.7858444080","latitude":"52.4437623876","description":[]},{"id":"2018","label":"Baranowo/Uniwersytet Przyrodniczy","address":"","city":"","longitude":"16.7835717433","latitude":"52.4490001626","description":[]},{"id":"2019","label":"Baranowo/Uniwersytet Przyrodniczy","address":"","city":"","longitude":"16.7848999240","latitude":"52.4477762710","description":[]},{"id":"2020","label":"Chyby/Cedrowa","address":"","city":"","longitude":"16.7746729326","latitude":"52.4522397117","description":[]},{"id":"2021","label":"Chyby/Cedrowa","address":"","city":"","longitude":"16.7739202968","latitude":"52.4525366584","description":[]},{"id":"2022","label":"Chyby/Jodłowa","address":"","city":"","longitude":"16.7658331521","latitude":"52.4571165834","description":[]},{"id":"2023","label":"Chyby/Jodłowa","address":"","city":"","longitude":"16.7652723647","latitude":"52.4575304627","description":[]},{"id":"2024","label":"Chyby/Lipowa","address":"","city":"","longitude":"16.7625127003","latitude":"52.4602565710","description":[]},{"id":"2025","label":"Chyby/Lipowa","address":"","city":"","longitude":"16.7620994885","latitude":"52.4607333976","description":[]},{"id":"2026","label":"Wielkie","address":"","city":"","longitude":"16.7594136120","latitude":"52.4650515927","description":[]},{"id":"2027","label":"Wielkie","address":"","city":"","longitude":"16.7592217637","latitude":"52.4653484530","description":[]},{"id":"2028","label":"Kobylniki/Lipowa","address":"","city":"","longitude":"16.7491423479","latitude":"52.4722206602","description":[]},{"id":"2029","label":"Kobylniki/Lipowa","address":"","city":"","longitude":"16.7485077727","latitude":"52.4725984206","description":[]},{"id":"2032","label":"Napachanie/Kobylnicka","address":"","city":"","longitude":"16.7291606071","latitude":"52.4841275465","description":[]},{"id":"2033","label":"Napachanie/Kobylnicka","address":"","city":"","longitude":"16.7284227289","latitude":"52.4844692373","description":[]},{"id":"2034","label":"Napachanie/Kokoszczyńska","address":"","city":"","longitude":"16.7188007976","latitude":"52.4837319011","description":[]},{"id":"2035","label":"Napachanie/Kokoszczyńska","address":"","city":"","longitude":"16.7197305240","latitude":"52.4841994816","description":[]},{"id":"2036","label":"Tarnowo Pdg/Karolewo III","address":"","city":"","longitude":"16.7012983274","latitude":"52.4744062289","description":[]},{"id":"2037","label":"Tarnowo Pdg/Karolewo III","address":"","city":"","longitude":"16.7019329026","latitude":"52.4747929644","description":[]},{"id":"2038","label":"Tarnowo Pdg/Karolewo II","address":"","city":"","longitude":"16.6955133625","latitude":"52.4720497675","description":[]},{"id":"2039","label":"Tarnowo Pdg/Karolewo II","address":"","city":"","longitude":"16.6960298772","latitude":"52.4720947394","description":[]},{"id":"2040","label":"Tarnowo Pdg/Karolewo I","address":"","city":"","longitude":"16.6838991601","latitude":"52.4688476559","description":[]},{"id":"2041","label":"Tarnowo Pdg/Karolewo I","address":"","city":"","longitude":"16.6846222807","latitude":"52.4691534857","description":[]},{"id":"2042","label":"Tarnowo Pdg/Czereśniowa","address":"","city":"","longitude":"16.6764292300","latitude":"52.4664911900","description":[]},{"id":"2043","label":"Tarnowo Pdg/Czereśniowa","address":"","city":"","longitude":"16.6757365800","latitude":"52.4666075600","description":[]},{"id":"2044","label":"Tarnowo Pdg/Krótka","address":"","city":"","longitude":"16.6802829900","latitude":"52.4603064100","description":[]},{"id":"2045","label":"Tarnowo Pdg/Rolna","address":"","city":"","longitude":"16.6728974400","latitude":"52.4622162200","description":[]},{"id":"2046","label":"Tarnowo Pdg/Rolna","address":"","city":"","longitude":"16.6713136300","latitude":"52.4627846300","description":[]},{"id":"2047","label":"Tarnowo Pdg/Centrum","address":"","city":"","longitude":"16.6649831400","latitude":"52.4642509200","description":[]},{"id":"2048","label":"Tarnowo Pdg/Centrum","address":"","city":"","longitude":"16.6639011600","latitude":"52.4642589300","description":[]},{"id":"2049","label":"Tarnowo Pdg/Nowa","address":"","city":"","longitude":"16.6552319600","latitude":"52.4623990300","description":[]},{"id":"2050","label":"Tarnowo Pdg/Nowa","address":"","city":"","longitude":"16.6558864200","latitude":"52.4627828000","description":[]},{"id":"2051","label":"Tarnowo Pdg/Piaskowa","address":"","city":"","longitude":"16.6454551200","latitude":"52.4585138600","description":[]},{"id":"2052","label":"Tarnowo Pdg/Piaskowa","address":"","city":"","longitude":"16.6466023900","latitude":"52.4590882000","description":[]},{"id":"2053","label":"Tarnowo Pdg/Ostatnia","address":"","city":"","longitude":"16.6441703000","latitude":"52.4633371900","description":[]},{"id":"2054","label":"Tarnowo Pdg/Ostatnia","address":"","city":"","longitude":"16.6418115100","latitude":"52.4634689500","description":[]},{"id":"2055","label":"Rumianek/Nowa I","address":"","city":"","longitude":"16.6376637100","latitude":"52.4629465300","description":[]},{"id":"2056","label":"Rumianek/Nowa I","address":"","city":"","longitude":"16.6385049000","latitude":"52.4632074200","description":[]},{"id":"2057","label":"Rumianek/Szkolna","address":"","city":"","longitude":"16.6240799700","latitude":"52.4621237800","description":[]},{"id":"2058","label":"Rumianek/Szkolna","address":"","city":"","longitude":"16.6237900800","latitude":"52.4614306700","description":[]},{"id":"2059","label":"Rumianek/Świetlica","address":"","city":"","longitude":"16.6202433400","latitude":"52.4592018400","description":[]},{"id":"2060","label":"Rumianek/Świetlica","address":"","city":"","longitude":"16.6202422600","latitude":"52.4594056800","description":[]},{"id":"2061","label":"Jankowice/Pętla","address":"","city":"","longitude":"16.6206655700","latitude":"52.4393913900","description":[]},{"id":"2069","label":"Jankowice/Przemysłowa","address":"","city":"","longitude":"16.6403263800","latitude":"52.4544493200","description":[]},{"id":"2070","label":"Jankowice/Przemysłowa","address":"","city":"","longitude":"16.6408302800","latitude":"52.4550848200","description":[]},{"id":"2071","label":"Lusówko/Admiralska","address":"","city":"","longitude":"16.6340187400","latitude":"52.4423930900","description":[]},{"id":"2072","label":"Lusówko/Admiralska","address":"","city":"","longitude":"16.6338952500","latitude":"52.4424291400","description":[]},{"id":"2073","label":"Lusówko/Szantowa","address":"","city":"","longitude":"16.6444631900","latitude":"52.4394964500","description":[]},{"id":"2074","label":"Lusówko/Szantowa","address":"","city":"","longitude":"16.6443722900","latitude":"52.4395156300","description":[]},{"id":"2075","label":"Lusówko/Bosmańska","address":"","city":"","longitude":"16.6447847100","latitude":"52.4346932400","description":[]},{"id":"2076","label":"Lusówko/Bosmańska","address":"","city":"","longitude":"16.6448749500","latitude":"52.4346758500","description":[]},{"id":"2077","label":"Lusówko/Dopiewska","address":"","city":"","longitude":"16.6457201500","latitude":"52.4280784300","description":[]},{"id":"2078","label":"Lusówko/Dopiewska","address":"","city":"","longitude":"16.6455222800","latitude":"52.4283745700","description":[]},{"id":"2079","label":"Lusówko/Pętla","address":"","city":"","longitude":"16.6541604700","latitude":"52.4275842900","description":[]},{"id":"2080","label":"Lusówko/Grabowa","address":"","city":"","longitude":"16.6396758300","latitude":"52.4331928100","description":[]},{"id":"2081","label":"Lusówko/Grabowa","address":"","city":"","longitude":"16.6394221600","latitude":"52.4334361600","description":[]},{"id":"2082","label":"Jankowice/Pałac","address":"","city":"","longitude":"16.6173347100","latitude":"52.4407939900","description":[]},{"id":"2083","label":"Jankowice/Pałac","address":"","city":"","longitude":"16.6172356000","latitude":"52.4408779500","description":[]},{"id":"2084","label":"Ceradz Kościelny/Jankowicka","address":"","city":"","longitude":"16.6024359800","latitude":"52.4407338900","description":[]},{"id":"2085","label":"Ceradz Kościelny/Jankowicka","address":"","city":"","longitude":"16.6029800700","latitude":"52.4407926300","description":[]},{"id":"2086","label":"Ceradz Kościelny/Kościół","address":"","city":"","longitude":"16.5925915600","latitude":"52.4373567100","description":[]},{"id":"2087","label":"Ceradz Kościelny/Kościół","address":"","city":"","longitude":"16.5924837000","latitude":"52.4375433700","description":[]},{"id":"2088","label":"Ceradz Dolny/Okrężna","address":"","city":"","longitude":"16.5769179700","latitude":"52.4254497100","description":[]},{"id":"2089","label":"Ceradz Dolny/Okrężna","address":"","city":"","longitude":"16.5774834100","latitude":"52.4259392600","description":[]},{"id":"2090","label":"Ceradz Dolny/Parkowa","address":"","city":"","longitude":"16.5712571500","latitude":"52.4208287700","description":[]},{"id":"2091","label":"Ceradz Dolny/Parkowa","address":"","city":"","longitude":"16.5714042800","latitude":"52.4211889100","description":[]},{"id":"2092","label":"Ceradz Dolny/Brzoza Huby","address":"","city":"","longitude":"16.5448342400","latitude":"52.4246251400","description":[]},{"id":"2093","label":"Ceradz Dolny/Brzoza Huby","address":"","city":"","longitude":"16.5444662500","latitude":"52.4250398200","description":[]},{"id":"2094","label":"Grzebienisko/Wierzbowa","address":"","city":"","longitude":"16.5316423700","latitude":"52.4329071300","description":[]},{"id":"2095","label":"Grzebienisko/Wierzbowa","address":"","city":"","longitude":"16.5304299400","latitude":"52.4330965400","description":[]},{"id":"2096","label":"Grzebienisko/Pętla","address":"","city":"","longitude":"16.5257196800","latitude":"52.4334174800","description":[]},{"id":"2097","label":"Tarnowo Pdg/Zielona","address":"","city":"","longitude":"16.6577562800","latitude":"52.4676001100","description":[]},{"id":"2098","label":"Tarnowo Pdg/Zielona","address":"","city":"","longitude":"16.6570464800","latitude":"52.4676634200","description":[]},{"id":"2099","label":"Tarnowo Pdg/Okrężna","address":"","city":"","longitude":"16.6515268200","latitude":"52.4693106700","description":[]},{"id":"2100","label":"Tarnowo Pdg/Okrężna","address":"","city":"","longitude":"16.6502600700","latitude":"52.4700622700","description":[]},{"id":"2101","label":"Góra/Ciepła","address":"","city":"","longitude":"16.6427622100","latitude":"52.4752718300","description":[]},{"id":"2102","label":"Góra/Ciepła","address":"","city":"","longitude":"16.6422255900","latitude":"52.4755622700","description":[]},{"id":"2103","label":"Góra/Długa II","address":"","city":"","longitude":"16.6479383900","latitude":"52.4864682700","description":[]},{"id":"2104","label":"Góra/Długa II","address":"","city":"","longitude":"16.6479876800","latitude":"52.4865941200","description":[]},{"id":"2105","label":"Kokoszczyn/Kręta","address":"","city":"","longitude":"16.6530352500","latitude":"52.4916755100","description":[]},{"id":"2106","label":"Kokoszczyn/Kręta","address":"","city":"","longitude":"16.6530657800","latitude":"52.4916065700","description":[]},{"id":"2107","label":"Kokoszczyn/Pętla","address":"","city":"","longitude":"16.6537804700","latitude":"52.4977356600","description":[]},{"id":"2108","label":"Góra/Kręta","address":"","city":"","longitude":"16.6358483600","latitude":"52.4793762900","description":[]},{"id":"2109","label":"Góra/Kręta","address":"","city":"","longitude":"16.6361721100","latitude":"52.4793463200","description":[]},{"id":"2110","label":"Góra/Szkolna","address":"","city":"","longitude":"16.6333034400","latitude":"52.4816233900","description":[]},{"id":"2111","label":"Góra/Szkolna","address":"","city":"","longitude":"16.6331125800","latitude":"52.4820531500","description":[]},{"id":"2112","label":"Góra/Pętla","address":"","city":"","longitude":"16.6294331500","latitude":"52.4854372400","description":[]},{"id":"2113","label":"Góra/Pętla","address":"","city":"","longitude":"16.6295712900","latitude":"52.4855115500","description":[]},{"id":"2114","label":"Brzezno/","address":"","city":"","longitude":"16.6223832000","latitude":"52.4912558700","description":[]},{"id":"2115","label":"Brzezno/","address":"","city":"","longitude":"16.6220973800","latitude":"52.4913176100","description":[]},{"id":"2116","label":"Kaźmierz/Storczykowa","address":"","city":"","longitude":"16.5890612400","latitude":"52.5096283700","description":[]},{"id":"2117","label":"Kaźmierz/Storczykowa","address":"","city":"","longitude":"16.5881489700","latitude":"52.5100143100","description":[]},{"id":"2118","label":"Nad Krzesinką","address":"","city":"","longitude":"17.0085507972","latitude":"52.3361875492","description":[]},{"id":"2119","label":"Nad Krzesinką","address":"","city":"","longitude":"17.0097223700","latitude":"52.3358593100","description":[]},{"id":"2120","label":"Przyjemna","address":"","city":"","longitude":"17.0408873000","latitude":"52.3505483600","description":[]},{"id":"2121","label":"Przyjemna","address":"","city":"","longitude":"17.0412050800","latitude":"52.3505610900","description":[]},{"id":"2122","label":"Tulce/Przylesie","address":"","city":"","longitude":"17.0628576400","latitude":"52.3459140900","description":[]},{"id":"2123","label":"Tulce/Przylesie","address":"","city":"","longitude":"17.0621922600","latitude":"52.3461490600","description":[]},{"id":"2124","label":"Kaźmierz/Rynek","address":"","city":"","longitude":"16.5831383400","latitude":"52.5132944400","description":[]},{"id":"2125","label":"Jaryszki/Składowa","address":"","city":"","longitude":"17.0162140000","latitude":"52.3299190000","description":[]},{"id":"2126","label":"Jaryszki/Składowa","address":"","city":"","longitude":"17.0161340000","latitude":"52.3299460000","description":[]},{"id":"2127","label":"Koninko/Drukarska","address":"","city":"","longitude":"17.0243310000","latitude":"52.3194150000","description":[]},{"id":"2128","label":"Koninko/Drukarska","address":"","city":"","longitude":"17.0239600000","latitude":"52.3197820000","description":[]},{"id":"2129","label":"Koninko/Węzeł","address":"","city":"","longitude":"17.0296567300","latitude":"52.3218895500","description":[]},{"id":"2130","label":"Koninko/Węzeł","address":"","city":"","longitude":"17.0382464300","latitude":"52.3239480000","description":[]},{"id":"2131","label":"Szczytniki/Sarnia","address":"","city":"","longitude":"17.0112800000","latitude":"52.2995050000","description":[]},{"id":"2132","label":"Szczytniki/Sarnia","address":"","city":"","longitude":"17.0113330000","latitude":"52.2994680000","description":[]},{"id":"2133","label":"Szczytniki/Nad Wodą","address":"","city":"","longitude":"17.0164020000","latitude":"52.3018330000","description":[]},{"id":"2134","label":"Szczytniki/Nad Wodą","address":"","city":"","longitude":"17.0161590000","latitude":"52.3017780000","description":[]},{"id":"2135","label":"Szczytniki/Pętla","address":"","city":"","longitude":"17.0103620000","latitude":"52.3045090000","description":[]},{"id":"2136","label":"Koninko/Granatowa","address":"","city":"","longitude":"17.0204650000","latitude":"52.3066750000","description":[]},{"id":"2137","label":"Koninko/Granatowa","address":"","city":"","longitude":"17.0198840000","latitude":"52.3069560000","description":[]},{"id":"2138","label":"Koninko/Las","address":"","city":"","longitude":"17.0308230000","latitude":"52.2997180000","description":[]},{"id":"2139","label":"Koninko/Las","address":"","city":"","longitude":"17.0303780000","latitude":"52.2999380000","description":[]},{"id":"2140","label":"Borówiec/Las","address":"","city":"","longitude":"17.0452120000","latitude":"52.2926950000","description":[]},{"id":"2141","label":"Borówiec/Las","address":"","city":"","longitude":"17.0448840000","latitude":"52.2927870000","description":[]},{"id":"2142","label":"Borówiec/Dębowa","address":"","city":"","longitude":"17.0450950000","latitude":"52.2903510000","description":[]},{"id":"2143","label":"Borówiec/Dębowa","address":"","city":"","longitude":"17.0449730000","latitude":"52.2906560000","description":[]},{"id":"2144","label":"Borówiec/Rekreacyjna","address":"","city":"","longitude":"17.0463060000","latitude":"52.2868180000","description":[]},{"id":"2145","label":"Borówiec/Rekreacyjna","address":"","city":"","longitude":"17.0463160000","latitude":"52.2872070000","description":[]},{"id":"2146","label":"Borówiec/Łąkowa","address":"","city":"","longitude":"17.0451850000","latitude":"52.2829330000","description":[]},{"id":"2147","label":"Borówiec/Łąkowa","address":"","city":"","longitude":"17.0452720000","latitude":"52.2829140000","description":[]},{"id":"2148","label":"Kamionki/Klonowa","address":"","city":"","longitude":"16.9812640625","latitude":"52.2917674580","description":[]},{"id":"2149","label":"Koninko/Dziennikarska","address":"","city":"","longitude":"17.0162780000","latitude":"52.3090730000","description":[]},{"id":"2150","label":"Koninko/Dziennikarska","address":"","city":"","longitude":"17.0163132755","latitude":"52.3091129364","description":[]},{"id":"2151","label":"Koninko/Pisarska","address":"","city":"","longitude":"17.0135620000","latitude":"52.3064370000","description":[]},{"id":"2152","label":"Koninko/Pisarska","address":"","city":"","longitude":"17.0139077927","latitude":"52.3068920832","description":[]},{"id":"2153","label":"Tulce/Szkoła","address":"","city":"","longitude":"17.0673303800","latitude":"52.3449015000","description":[]},{"id":"2154","label":"Kamionki/Polna","address":"","city":"","longitude":"16.9866283700","latitude":"52.2868362500","description":[]},{"id":"2155","label":"Kamionki/Polna","address":"","city":"","longitude":"16.9886908500","latitude":"52.2860552600","description":[]},{"id":"2156","label":"Tulce/Leśna","address":"","city":"","longitude":"17.0730848500","latitude":"52.3440963600","description":[]},{"id":"2157","label":"Tulce/Leśna","address":"","city":"","longitude":"17.0723302400","latitude":"52.3443426400","description":[]},{"id":"2158","label":"Tulce/Leśna","address":"","city":"","longitude":"17.0738600000","latitude":"52.3445240000","description":[]},{"id":"2159","label":"Daszewice/Pętla","address":"","city":"","longitude":"16.9623613000","latitude":"52.2958732400","description":[]},{"id":"2160","label":"Babki/Babicka","address":"","city":"","longitude":"16.9378177959","latitude":"52.3134098808","description":[]},{"id":"2161","label":"Babki/Babicka","address":"","city":"","longitude":"16.9382457652","latitude":"52.3136355491","description":[]},{"id":"2162","label":"Tulce/Krótka","address":"","city":"","longitude":"17.0762860000","latitude":"52.3427530000","description":[]},{"id":"2163","label":"Tulce/Krótka","address":"","city":"","longitude":"17.0762610000","latitude":"52.3426690000","description":[]},{"id":"2164","label":"Czapury/Gromadzka","address":"","city":"","longitude":"16.9218183200","latitude":"52.3196376800","description":[]},{"id":"2165","label":"Czapury/Warta","address":"","city":"","longitude":"16.9104145500","latitude":"52.3102736200","description":[]},{"id":"2166","label":"Wiórek/Podleśna","address":"","city":"","longitude":"16.9095126200","latitude":"52.3072488100","description":[]},{"id":"2167","label":"Tulce/Kościół","address":"","city":"","longitude":"17.0805671900","latitude":"52.3420328900","description":[]},{"id":"2168","label":"Tulce/Kościół","address":"","city":"","longitude":"17.0813603600","latitude":"52.3420812100","description":[]},{"id":"2169","label":"Czapury/Stacja Energetyczna","address":"","city":"","longitude":"16.9111392100","latitude":"52.3312441200","description":[]},{"id":"2170","label":"Czapury/Stacja Energetyczna","address":"","city":"","longitude":"16.9109873900","latitude":"52.3309863000","description":[]},{"id":"2173","label":"Promnice/Północna","address":"","city":"","longitude":"16.9661314700","latitude":"52.5419438000","description":[]},{"id":"2174","label":"Tulce/Zadęby","address":"","city":"","longitude":"17.0915260500","latitude":"52.3451816900","description":[]},{"id":"2175","label":"Tulce/Zadęby","address":"","city":"","longitude":"17.0917709200","latitude":"52.3452274300","description":[]},{"id":"2176","label":"Bolechowo-Os./Szkoła","address":"","city":"","longitude":"16.9732407100","latitude":"52.5409308600","description":[]},{"id":"2177","label":"Bolechowo-Os./Szkoła","address":"","city":"","longitude":"16.9746370000","latitude":"52.5412643600","description":[]},{"id":"2178","label":"Tulce/Krańcowa","address":"","city":"","longitude":"17.0994081500","latitude":"52.3485934900","description":[]},{"id":"2179","label":"Tulce/Krańcowa","address":"","city":"","longitude":"17.1013903300","latitude":"52.3490441300","description":[]},{"id":"2186","label":"Żerniki/Skrzyżowanie","address":"","city":"","longitude":"17.0429654350","latitude":"52.3265599102","description":[]},{"id":"2187","label":"Żerniki/Skrzyżowanie","address":"","city":"","longitude":"17.0426260111","latitude":"52.3268396556","description":[]},{"id":"2188","label":"Bolechowo/Poligonowa","address":"","city":"","longitude":"16.9866620000","latitude":"52.5428265900","description":[]},{"id":"2189","label":"Bolechowo/Poligonowa","address":"","city":"","longitude":"16.9853288400","latitude":"52.5431887900","description":[]},{"id":"2191","label":"Bolechowo-Os./Ogrodowa","address":"","city":"","longitude":"16.9771902900","latitude":"52.5332147700","description":[]},{"id":"2192","label":"Bolechowo-Os./Ogrodowa","address":"","city":"","longitude":"16.9770254100","latitude":"52.5336508600","description":[]},{"id":"2193","label":"Bolechowo/Przejazd","address":"","city":"","longitude":"16.9796078500","latitude":"52.5330406000","description":[]},{"id":"2194","label":"Bolechowo/Przejazd","address":"","city":"","longitude":"16.9800908000","latitude":"52.5339703100","description":[]},{"id":"2195","label":"Owińska/Ks. Piotrowskiego","address":"","city":"","longitude":"16.9744112600","latitude":"52.5170894900","description":[]},{"id":"2196","label":"Owińska/Ks. Piotrowskiego","address":"","city":"","longitude":"16.9745642100","latitude":"52.5172277800","description":[]},{"id":"2197","label":"Owińska/Ks. Piotrowskiego","address":"","city":"","longitude":"16.9755695100","latitude":"52.5167176300","description":[]},{"id":"2198","label":"Owińska/Ks. Piotrowskiego","address":"","city":"","longitude":"16.9751442200","latitude":"52.5165575700","description":[]},{"id":"2199","label":"Owińska/Lipowa","address":"","city":"","longitude":"16.9854892500","latitude":"52.5168477500","description":[]},{"id":"2200","label":"Owińska/Lipowa","address":"","city":"","longitude":"16.9852050500","latitude":"52.5174170200","description":[]},{"id":"2201","label":"Owińska/Stacja","address":"","city":"","longitude":"16.9868849400","latitude":"52.5120028900","description":[]},{"id":"2202","label":"Owińska/Stacja","address":"","city":"","longitude":"16.9871035600","latitude":"52.5119126300","description":[]},{"id":"2203","label":"Owińska/Parkowa","address":"","city":"","longitude":"16.9777942100","latitude":"52.5109763300","description":[]},{"id":"2204","label":"Owińska/Parkowa","address":"","city":"","longitude":"16.9771534100","latitude":"52.5112683800","description":[]},{"id":"2205","label":"Owińska/Pałac","address":"","city":"","longitude":"16.9753961500","latitude":"52.5130679600","description":[]},{"id":"2206","label":"Owińska/Pałac","address":"","city":"","longitude":"16.9745204500","latitude":"52.5136024200","description":[]},{"id":"2207","label":"Owińska/Gospodarstwo Ogrodnicze","address":"","city":"","longitude":"16.9760676800","latitude":"52.5030195600","description":[]},{"id":"2208","label":"Owińska/Gospodarstwo Ogrodnicze","address":"","city":"","longitude":"16.9758111100","latitude":"52.5034255600","description":[]},{"id":"2209","label":"Miękowo/Kolejowa","address":"","city":"","longitude":"16.9766955800","latitude":"52.4978361500","description":[]},{"id":"2210","label":"Miękowo/Kolejowa","address":"","city":"","longitude":"16.9763707800","latitude":"52.4988289900","description":[]},{"id":"2211","label":"Czerwonak/Elewator","address":"","city":"","longitude":"16.9779277700","latitude":"52.4859394900","description":[]},{"id":"2212","label":"Czerwonak/Elewator","address":"","city":"","longitude":"16.9780642500","latitude":"52.4864096400","description":[]},{"id":"2213","label":"Czerwonak/Os. Przylesie","address":"","city":"","longitude":"16.9785901400","latitude":"52.4805430700","description":[]},{"id":"2214","label":"Czerwonak/Os. Przylesie","address":"","city":"","longitude":"16.9787556700","latitude":"52.4808199700","description":[]},{"id":"2215","label":"Czerwonak/Kręta","address":"","city":"","longitude":"16.9793813300","latitude":"52.4742795500","description":[]},{"id":"2216","label":"Czerwonak/Kręta","address":"","city":"","longitude":"16.9794763200","latitude":"52.4753075700","description":[]},{"id":"2217","label":"Czerwonak/Stacja","address":"","city":"","longitude":"16.9803936900","latitude":"52.4681460800","description":[]},{"id":"2218","label":"Czerwonak/Stacja","address":"","city":"","longitude":"16.9800592000","latitude":"52.4689475100","description":[]},{"id":"2219","label":"Czerwonak/Szkolna","address":"","city":"","longitude":"16.9822085100","latitude":"52.4632149700","description":[]},{"id":"2220","label":"Czerwonak/Szkolna","address":"","city":"","longitude":"16.9817766500","latitude":"52.4643364200","description":[]},{"id":"2221","label":"Koziegłowy/Lipowa","address":"","city":"","longitude":"16.9844318900","latitude":"52.4540658000","description":[]},{"id":"2222","label":"Koziegłowy/Lipowa","address":"","city":"","longitude":"16.9844963200","latitude":"52.4555496900","description":[]},{"id":"2223","label":"Koziegłowy/Piaskowa COŚ","address":"","city":"","longitude":"16.9837328800","latitude":"52.4464440500","description":[]},{"id":"2224","label":"Koziegłowy/Piaskowa COŚ","address":"","city":"","longitude":"16.9842291500","latitude":"52.4484847500","description":[]},{"id":"2225","label":"Koziegłowy/Piaskowa COŚ","address":"","city":"","longitude":"16.9847763626","latitude":"52.4474612933","description":[]},{"id":"2226","label":"Koziegłowy/Piaskowa Szkoła","address":"","city":"","longitude":"16.9895135404","latitude":"52.4465793440","description":[]},{"id":"2227","label":"Szewce/Orzechowa","address":"","city":"","longitude":"17.0960952400","latitude":"52.3588011600","description":[]},{"id":"2228","label":"Gowarzewo/Jesionowa","address":"","city":"","longitude":"17.1118252100","latitude":"52.3531200800","description":[]},{"id":"2229","label":"Gowarzewo/Jesionowa","address":"","city":"","longitude":"17.1118970900","latitude":"52.3532834800","description":[]},{"id":"2230","label":"Gowarzewo/Jesienna","address":"","city":"","longitude":"17.1156019700","latitude":"52.3550930000","description":[]},{"id":"2231","label":"Gowarzewo/Jesienna","address":"","city":"","longitude":"17.1162356400","latitude":"52.3553068900","description":[]},{"id":"2232","label":"Gowarzewo/Al. Kasztanowa","address":"","city":"","longitude":"17.1236874800","latitude":"52.3576135500","description":[]},{"id":"2233","label":"Gowarzewo/Al. Kasztanowa","address":"","city":"","longitude":"17.1241345900","latitude":"52.3576374500","description":[]},{"id":"2234","label":"Gowarzewo/Czereśniowa","address":"","city":"","longitude":"17.1306838900","latitude":"52.3594012200","description":[]},{"id":"2235","label":"Gowarzewo/Czereśniowa","address":"","city":"","longitude":"17.1316287700","latitude":"52.3597796300","description":[]},{"id":"2236","label":"Gowarzewo/Akacjowa","address":"","city":"","longitude":"17.1301941700","latitude":"52.3622413400","description":[]},{"id":"2238","label":"Gowarzewo/OSP","address":"","city":"","longitude":"17.1246453700","latitude":"52.3643857400","description":[]},{"id":"2240","label":"Gowarzewo/Kaplica","address":"","city":"","longitude":"17.1230105000","latitude":"52.3616530300","description":[]},{"id":"2241","label":"Tanibórz/Wschód","address":"","city":"","longitude":"17.1469431400","latitude":"52.3513575600","description":[]},{"id":"2242","label":"Tanibórz/Wschód","address":"","city":"","longitude":"17.1465630000","latitude":"52.3516694700","description":[]},{"id":"2245","label":"Trzek/Topolowa","address":"","city":"","longitude":"17.1537504634","latitude":"52.3471570741","description":[]},{"id":"2246","label":"Trzek/Topolowa","address":"","city":"","longitude":"17.1533667668","latitude":"52.3475088477","description":[]},{"id":"2248","label":"Kleszczewo/Szkoła I","address":"","city":"","longitude":"17.1665857800","latitude":"52.3362711900","description":[]},{"id":"2249","label":"Kleszczewo/Park","address":"","city":"","longitude":"17.1718193900","latitude":"52.3333434700","description":[]},{"id":"2250","label":"Kleszczewo/Polna","address":"","city":"","longitude":"17.1913852400","latitude":"52.3323756600","description":[]},{"id":"2251","label":"Kleszczewo/Polna","address":"","city":"","longitude":"17.1909185500","latitude":"52.3324482300","description":[]},{"id":"2252","label":"Poklatki/Osiedle","address":"","city":"","longitude":"17.2034834521","latitude":"52.3300611123","description":[]},{"id":"2253","label":"Poklatki/Pętla","address":"","city":"","longitude":"17.2025601000","latitude":"52.3281804500","description":[]},{"id":"2255","label":"Kleszczewo/Baza ZK","address":"","city":"","longitude":"17.1627230620","latitude":"52.3317845404","description":[]},{"id":"2256","label":"Kleszczewo/Baza ZK","address":"","city":"","longitude":"17.1638608200","latitude":"52.3337428200","description":[]},{"id":"2257","label":"Bylin/Stacja benzynowa","address":"","city":"","longitude":"17.1606968700","latitude":"52.3276985700","description":[]},{"id":"2258","label":"Bylin/Stacja benzynowa","address":"","city":"","longitude":"17.1605748200","latitude":"52.3276985100","description":[]},{"id":"2260","label":"Nagradowice/Park","address":"","city":"","longitude":"17.1497962000","latitude":"52.3201232600","description":[]},{"id":"2261","label":"Nagradowice/Ośrodek Zdrowia","address":"","city":"","longitude":"17.1474324600","latitude":"52.3206873800","description":[]},{"id":"2262","label":"Nagradowice/Ośrodek Zdrowia","address":"","city":"","longitude":"17.1473302500","latitude":"52.3208087900","description":[]},{"id":"2263","label":"Komorniki gm.Kleszczewo/Bylin","address":"","city":"","longitude":"17.1250476100","latitude":"52.3263061100","description":[]},{"id":"2264","label":"Komorniki gm.Kleszczewo/Bylin","address":"","city":"","longitude":"17.1247081400","latitude":"52.3263893400","description":[]},{"id":"2266","label":"Komorniki gm.Kleszczewo/OSP","address":"","city":"","longitude":"17.1114584500","latitude":"52.3305061600","description":[]},{"id":"2267","label":"Komorniki gm.Kleszczewo/OSP","address":"","city":"","longitude":"17.1111042300","latitude":"52.3306343600","description":[]},{"id":"2268","label":"Komorniki gm.Kleszczewo/RSP","address":"","city":"","longitude":"17.1111493900","latitude":"52.3326259500","description":[]},{"id":"2269","label":"Komorniki gm.Kleszczewo/RSP","address":"","city":"","longitude":"17.1111046500","latitude":"52.3334087300","description":[]},{"id":"2272","label":"Kicin/Pętla","address":"","city":"","longitude":"17.0213179200","latitude":"52.4654992100","description":[]},{"id":"2273","label":"Kicin/Rolna","address":"","city":"","longitude":"17.0257032400","latitude":"52.4696196800","description":[]},{"id":"2274","label":"Kicin/Rolna","address":"","city":"","longitude":"17.0257464600","latitude":"52.4698016800","description":[]},{"id":"2275","label":"Kliny/Trakt","address":"","city":"","longitude":"17.0330154500","latitude":"52.4755891600","description":[]},{"id":"2276","label":"Kliny/Trakt","address":"","city":"","longitude":"17.0353960600","latitude":"52.4762967800","description":[]},{"id":"2277","label":"Kliny/Orla","address":"","city":"","longitude":"17.0414852700","latitude":"52.4781827200","description":[]},{"id":"2278","label":"Kliny/Orla","address":"","city":"","longitude":"17.0421019700","latitude":"52.4783680900","description":[]},{"id":"2279","label":"Kliny/Cmentarz Ewangelicki","address":"","city":"","longitude":"17.0566298700","latitude":"52.4855072300","description":[]},{"id":"2280","label":"Kliny/Cmentarz Ewangelicki","address":"","city":"","longitude":"17.0574692900","latitude":"52.4863213700","description":[]},{"id":"2281","label":"Kliny/Brzozowa","address":"","city":"","longitude":"17.0596249800","latitude":"52.4895432400","description":[]},{"id":"2282","label":"Kliny/Brzozowa","address":"","city":"","longitude":"17.0600334800","latitude":"52.4898439700","description":[]},{"id":"2283","label":"Mielno/Łąkowa","address":"","city":"","longitude":"17.0673597200","latitude":"52.4916912000","description":[]},{"id":"2284","label":"Mielno/Łąkowa","address":"","city":"","longitude":"17.0669669800","latitude":"52.4921246300","description":[]},{"id":"2285","label":"Mielno/Lisia","address":"","city":"","longitude":"17.0719919400","latitude":"52.4894810800","description":[]},{"id":"2286","label":"Mielno/Lisia","address":"","city":"","longitude":"17.0718976700","latitude":"52.4894689300","description":[]},{"id":"2287","label":"Wierzonka/Jednostka Wojskowa","address":"","city":"","longitude":"17.0815207600","latitude":"52.4849103700","description":[]},{"id":"2288","label":"Wierzonka/Jednostka Wojskowa","address":"","city":"","longitude":"17.0806318700","latitude":"52.4852556000","description":[]},{"id":"2289","label":"Wierzonka/Pętla","address":"","city":"","longitude":"17.0951310000","latitude":"52.4780400000","description":[]},{"id":"2290","label":"Wierzonka/Pętla","address":"","city":"","longitude":"17.0949170000","latitude":"52.4777490000","description":[]},{"id":"2291","label":"Wierzonka/Szkoła","address":"","city":"","longitude":"17.0920900000","latitude":"52.4874200000","description":[]},{"id":"2292","label":"Wierzonka/Szkoła","address":"","city":"","longitude":"17.0918870000","latitude":"52.4876560000","description":[]},{"id":"2293","label":"Dębogóra/Kasztanowa","address":"","city":"","longitude":"17.0956738100","latitude":"52.4909536400","description":[]},{"id":"2294","label":"Dębogóra/Kasztanowa","address":"","city":"","longitude":"17.0965076600","latitude":"52.4913690400","description":[]},{"id":"2295","label":"Karłowice/Dwór","address":"","city":"","longitude":"17.1003210000","latitude":"52.4940860000","description":[]},{"id":"2296","label":"Karłowice/Dwór","address":"","city":"","longitude":"17.1013400000","latitude":"52.4948070000","description":[]},{"id":"2297","label":"Karłowice/Pętla","address":"","city":"","longitude":"17.1066468200","latitude":"52.4974480200","description":[]},{"id":"2298","label":"Karłowice/Pętla","address":"","city":"","longitude":"17.1066667200","latitude":"52.4973890300","description":[]},{"id":"2299","label":"Tuczno/Pętla","address":"","city":"","longitude":"17.1367033100","latitude":"52.5155781700","description":[]},{"id":"2300","label":"Czerwonak/Zalesie","address":"","city":"","longitude":"16.9910483270","latitude":"52.4649436430","description":[]},{"id":"2301","label":"Czerwonak/Zalesie","address":"","city":"","longitude":"16.9914910539","latitude":"52.4649526388","description":[]},{"id":"2303","label":"Czerwonak/Żurawia","address":"","city":"","longitude":"16.9874688400","latitude":"52.4674431700","description":[]},{"id":"2304","label":"Czerwonak/Gajowa","address":"","city":"","longitude":"16.9958905100","latitude":"52.4709332500","description":[]},{"id":"2305","label":"Czerwonak/Gajowa","address":"","city":"","longitude":"16.9953006700","latitude":"52.4709255400","description":[]},{"id":"2306","label":"Czerwonak/Zdroje","address":"","city":"","longitude":"17.0002495100","latitude":"52.4705100000","description":[]},