[
  {
    "id": "pharmacy-10617",
    "label": "Apteki Arnika",
    "address": "pl. Edmunda Bojanowskiego 3",
    "city": "Luboń",
    "longitude": 16.8601,
    "latitude": 52.3498,
    "description": []
  },
  {
    "id": "pharmacy-10618",
    "label": "Far-mia",
    "address": "ul. 11 Listopada 141",
    "city": "Luboń",
    "longitude": 16.8498,
    "latitude": 52.3444,
    "description": [
      "Pon.-Sob. 08:00-20:00",
      "Niedz. zamknięta"
    ]
  },
  {
    "id": "pharmacy-10619",
    "label": "U Złotego Źródła",
    "address": "ul. 11 Listopada 28",
    "city": "Luboń",
    "longitude": 16.8723,
    "latitude": 52.3457,
    "description": [
      "Pon.-Pt. 08:00-20:00",
      "Sob. 08:00-14:00",
      "Niedz. zamknięta"
    ]
  },
  {
    "id": "pharmacy-10620",
    "label": "Panorama 3",
    "address": "ul. Aleksandra Puszkina 38b",
    "city": "Luboń",
    "longitude": 16.8837,
    "latitude": 52.3524,
    "description": []
  },
  {
    "id": "pharmacy-10621",
    "label": "Przy Sikorskiego",
    "address": "ul. gen. Władysława Sikorskiego 44",
    "city": "Luboń",
    "longitude": 16.8683,
    "latitude": 52.3521,
    "description": [
      "Pon.-Pt. 08:00-20:00",
      "Sob. 08:00-14:00",
      "Niedz. zamknięta"
    ]
  },
  {
    "id": "pharmacy-10622",
    "label": "Dla Ciebie",
    "address": "ul. Józefa Poniatowskiego 24",
    "city": "Luboń",
    "longitude": 16.8613,
    "latitude": 52.3494,
    "description": [
      "Pon.-Pt. 08:00-21:00",
      "Wt. 08:00-21;0",
      "Sob. 08:00-14:00",
      "Niedz. 09:00-15:00"
    ]
  },
  {
    "id": "pharmacy-10623",
    "label": "Apteka",
    "address": "ul. Kręta 9",
    "city": "Luboń",
    "longitude": 16.881,
    "latitude": 52.3211,
    "description": [
      "Pon.-Pt. 09:00-18:00",
      "Sob. 09:00-13:00",
      "Niedz. zamknięta"
    ]
  },
  {
    "id": "pharmacy-10624",
    "label": "Apteka Rodzinna",
    "address": "ul. ks. Streicha 27",
    "city": "Luboń",
    "longitude": 16.8909,
    "latitude": 52.3478,
    "description": [
      "Pon.-Pt. 09:00-18:00",
      "Sob. 09:00-13:00",
      "Niedz. zamknięta"
    ]
  },
  {
    "id": "pharmacy-10625",
    "label": "Niezwykła",
    "address": "ul. Stefana Żeromskiego 1",
    "city": "Luboń",
    "longitude": 16.8823,
    "latitude": 52.3404,
    "description": []
  },
  {
    "id": "pharmacy-10626",
    "label": "Apteka Fama-Vit",
    "address": "ul. Tadeusza Kościuszki 51",
    "city": "Luboń",
    "longitude": 16.8707,
    "latitude": 52.3503,
    "description": [
      "Pon.-Pt. 07:30-20:00",
      "Sob. 08:00-14:00",
      "Niedz. zamknięta"
    ]
  },
  {
    "id": "pharmacy-10627",
    "label": "Moderna 7",
    "address": "ul. Wojska Polskiego 5a",
    "city": "Luboń",
    "longitude": 16.8731,
    "latitude": 52.3427,
    "description": [
      "Pon.-Pt. 08:00-18:00",
      "Sob.-Niedz. zamknięta"
    ]
  },
  {
    "id": "pharmacy-10628",
    "label": "W Przychodni",
    "address": "ul. Wschodnia 25",
    "city": "Luboń",
    "longitude": 16.8828,
    "latitude": 52.3437,
    "description": [
      "Pon.-Pt. 08:00-20:00",
      "Sob. 08:00-14:00",
      "Niedz. zamknięta"
    ]
  },
  {
    "id": "pharmacy-10629",
    "label": "Złoty Lek",
    "address": "ul. Żabikowska 16",
    "city": "Luboń",
    "longitude": 16.8753,
    "latitude": 52.3434,
    "description": [
      "Pon.-Pt. 09:00-22:00",
      "Sob. 09:00-18:00",
      "Niedz. zamknięta"
    ]
  },
  {
    "id": "pharmacy-10630",
    "label": "Lubońskie Centrum Zdrowia",
    "address": "ul. Żabikowska 53b",
    "city": "Luboń",
    "longitude": 16.8823,
    "latitude": 52.3493,
    "description": [
      "Pon.-Pt. 08:00-20:00",
      "Sob. 09:00-18:00",
      "Niedz. 09:00-16:00"
    ]
  },
  {
    "id": "pharmacy-10631",
    "label": "Osiedlowa",
    "address": "ul. Żabikowska 62",
    "city": "Luboń",
    "longitude": 16.8806,
    "latitude": 52.3488,
    "description": []
  },
  {
    "id": "pharmacy-10632",
    "label": "Alga",
    "address": "ul. Żabikowska 66",
    "city": "Luboń",
    "longitude": 16.8795,
    "latitude": 52.3501,
    "description": [
      "Pon.-Sob. 09:00-21:00",
      "Niedz. 10:00-19:00"
    ]
  },
  {
    "id": "pharmacy-11726",
    "label": "Parkowa",
    "address": "ul. Bydgoska 14",
    "city": "Owińska",
    "longitude": 16.9748,
    "latitude": 52.5173,
    "description": [
      "Pon.-Pt. 08:00-18:00",
      "Sob. 09:00-13:00",
      "Niedz. zamknięta"
    ]
  },
  {
    "id": "pharmacy-11727",
    "label": "Apteka Cysterska",
    "address": "ul. Poprzeczna 4",
    "city": "Owińska",
    "longitude": 16.9802,
    "latitude": 52.5127,
    "description": [
      "Pon.-Pt. 09:00-18:00",
      "Sob. 09:00-13:00",
      "Niedz. zamknięta"
    ]
  },
  {
    "id": "pharmacy-11757",
    "label": "Apteka",
    "address": "ul. Zapłocie 6",
    "city": "Paczkowo",
    "longitude": 17.159,
    "latitude": 52.3993,
    "description": []
  },
  {
    "id": "pharmacy-11966",
    "label": "Apteka W Przychodni",
    "address": "ul. Grunwaldzka 508",
    "city": "Plewiska",
    "longitude": 16.816,
    "latitude": 52.3708,
    "description": [
      "Pon.-Pt. 08:00-21:00",
      "Sob. 08:00-16:00",
      "Niedz. zamknięta"
    ]
  },
  {
    "id": "pharmacy-11967",
    "label": "Przyjazna",
    "address": "ul. Grunwaldzka 517c",
    "city": "Plewiska",
    "longitude": 16.8118,
    "latitude": 52.3683,
    "description": [
      "Pon.-Pt. 08:00-20:00",
      "Sob. 09:00-16:00",
      "Niedz. zamknięta"
    ]
  },
  {
    "id": "pharmacy-11968",
    "label": "Apteka Fabianowska",
    "address": "ul. Miętowa 5/8",
    "city": "Plewiska",
    "longitude": 16.8144,
    "latitude": 52.3723,
    "description": [
      "Pon.-Pt. 08:00-19:00",
      "Sob. 09:00-14:00",
      "Niedz. zamknięta"
    ]
  },
  {
    "id": "pharmacy-1205",
    "label": "DOZ Apteka Dbam o Zdrowie",
    "address": "23-go Lutego 18",
    "city": "Poznań",
    "longitude": 16.9283,
    "latitude": 52.41018333,
    "description": [
      "Pon.-Pt. 00:00-24:00",
      "Sob. 00:00-24:00",
      "Niedz. 00:00-24:00"
    ]
  },
  {
    "id": "pharmacy-1206",
    "label": "Apteka DOZ",
    "address": "Os. Lecha 120",
    "city": "Poznań",
    "longitude": 16.9748018,
    "latitude": 52.3872621,
    "description": [
      "Pon.-Pt. 07:30-20:00",
      "Sob. 08:00-15:00",
      "Niedz. 08:00-15:00"
    ]
  },
  {
    "id": "pharmacy-1207",
    "label": "Apteka DOZ",
    "address": "Św. Szczepana 7",
    "city": "Poznań",
    "longitude": 16.90645833,
    "latitude": 52.37167778,
    "description": [
      "Pon.-Pt. 08:00-19:00",
      "Sob. 09:00-14:00",
      "Niedz. 09:00-14:00"
    ]
  },
  {
    "id": "pharmacy-1208",
    "label": "Apteka DOZ",
    "address": "Dąbrowskiego 140/142",
    "city": "Poznań",
    "longitude": 16.88726667,
    "latitude": 52.41630556,
    "description": [
      "Pon.-Pt. 08:00-20:00",
      "Sob. 08:00-15:00",
      "Niedz. 08:00-15:00"
    ]
  },
  {
    "id": "pharmacy-1209",
    "label": "Apteka DOZ",
    "address": "Os. Orła Białego 75",
    "city": "Poznań",
    "longitude": 16.96413056,
    "latitude": 52.37485,
    "description": [
      "Pon.-Pt. 08:00-20:00",
      "Sob. 08:00-15:00",
      "Niedz. 08:00-15:00"
    ]
  },
  {
    "id": "pharmacy-12095",
    "label": "Dom Leków",
    "address": "os. Bohaterów II Wojny Światowej 33",
    "city": "Poznań",
    "longitude": 16.9519,
    "latitude": 52.3833,
    "description": [
      "Pon.-Pt. 08:00-20:00",
      "Sob. 09:00-17:00",
      "Niedz. zamknięta"
    ]
  },
  {
    "id": "pharmacy-12096",
    "label": "Centrum Leków",
    "address": "os. Lecha 121",
    "city": "Poznań",
    "longitude": 16.976,
    "latitude": 52.3867,
    "description": [
      "Pon.-Pt. 08:00-20:00",
      "Sob. 08:00-15:00",
      "Niedz. zamknięta"
    ]
  },
  {
    "id": "pharmacy-12097",
    "label": "Doz Apteka.dbam O Zdrowie Pharmacja",
    "address": "os. Lotnictwa Polskiego 109",
    "city": "Poznań",
    "longitude": 16.8649,
    "latitude": 52.4229,
    "description": [
      "Pon.-Pt. 08:00-19:00",
      "Sob. 08:00-14:00",
      "Niedz. zamknięta"
    ]
  },
  {
    "id": "pharmacy-12098",
    "label": "Dom Leków",
    "address": "ul. Kurpińskiego 10/L4",
    "city": "Poznań",
    "longitude": 16.9136,
    "latitude": 52.4501,
    "description": [
      "Pon.-Pt. 08:00-21:00",
      "Sob. 08:00-17:00",
      "Niedz. zamknięta"
    ]
  },
  {
    "id": "pharmacy-12099",
    "label": "Na Rusa",
    "address": "ul. Bliźniąt 12/4",
    "city": "Poznań",
    "longitude": 16.985,
    "latitude": 52.3927,
    "description": []
  },
  {
    "id": "pharmacy-1210",
    "label": "Apteka DOZ",
    "address": "Gorczyczewskiego 1",
    "city": "Poznań",
    "longitude": 16.892368,
    "latitude": 52.409253,
    "description": [
      "Pon.-Pt. 08:00-20:00",
      "Sob. 08:00-15:00",
      "Niedz. 08:00-15:00"
    ]
  },
  {
    "id": "pharmacy-12100",
    "label": "Pharmacon",
    "address": "ul. Budzisława 1/2",
    "city": "Poznań",
    "longitude": 16.9482,
    "latitude": 52.4554,
    "description": [
      "Pon.-Pt. 08:00-21:00",
      "Sob. 08:00-15:00",
      "Niedz. zamknięta"
    ]
  },
  {
    "id": "pharmacy-12101",
    "label": "Centrum Leków",
    "address": "ul. Czechosłowacka 46",
    "city": "Poznań",
    "longitude": 16.9046079,
    "latitude": 52.3697499,
    "description": [
      "Pon.-Pt. 08:00-20:00",
      "Sob. 08:00-15:00",
      "Niedz. 09:30-14:30"
    ]
  },
  {
    "id": "pharmacy-12102",
    "label": "Apteka Medkon",
    "address": "ul. Krańcowa 62/U5",
    "city": "Poznań",
    "longitude": 16.8953,
    "latitude": 52.3942,
    "description": [
      "Pon.-Pt. 08:00-20:00",
      "Sob. 09:00-14:00",
      "Niedz. zamknięta"
    ]
  },
  {
    "id": "pharmacy-12103",
    "label": "Ziko Apteka",
    "address": "ul. Jana Henryka Dąbrowskiego 7",
    "city": "Poznań",
    "longitude": 16.9121,
    "latitude": 52.4111,
    "description": [
      "Pon.-Pt. 08:00-20:00",
      "Sob. 08:00-16:00",
      "Niedz. zamknięta"
    ]
  },
  {
    "id": "pharmacy-12104",
    "label": "Vivre Moja Apteka",
    "address": "ul. Jana Henryka Dąbrowskiego 77a",
    "city": "Poznań",
    "longitude": 16.9009,
    "latitude": 52.4141,
    "description": []
  },
  {
    "id": "pharmacy-12105",
    "label": "Konfederacka",
    "address": "ul. Konfederacka 2",
    "city": "Poznań",
    "longitude": 16.8711,
    "latitude": 52.3974,
    "description": [
      "Pon.-Sob. 08:00-21:00",
      "Niedz. 10:00-18:00"
    ]
  },
  {
    "id": "pharmacy-12106",
    "label": "Apteka Wasza",
    "address": "ul. Królowej Jadwigi 58a",
    "city": "Poznań",
    "longitude": 16.9289,
    "latitude": 52.4,
    "description": [
      "Pon.-Pt. 08:00-20:00",
      "Sob. 10:00-14:00",
      "Niedz. zamknięta"
    ]
  },
  {
    "id": "pharmacy-12107",
    "label": "Apteka Verus",
    "address": "ul. Limbowa 3",
    "city": "Poznań",
    "longitude": 16.9055,
    "latitude": 52.3655,
    "description": [
      "Pon.-Pt. 08:00-20:00",
      "Sob. 08:00-16:00",
      "Niedz. zamknięta"
    ]
  },
  {
    "id": "pharmacy-12108",
    "label": "Panaceum",
    "address": "ul. Macieja Palacza 36",
    "city": "Poznań",
    "longitude": 16.8848,
    "latitude": 52.3885,
    "description": []
  },
  {
    "id": "pharmacy-12109",
    "label": "Przyjazna",
    "address": "ul. Obornicka 260/a",
    "city": "Poznań",
    "longitude": 16.9081,
    "latitude": 52.4478,
    "description": [
      "Pon.-Pt. 07:30-20:30",
      "Sob. 08:00-15:00",
      "Niedz. zamknięta"
    ]
  },
  {
    "id": "pharmacy-1211",
    "label": "DOZ Apteka Dbam o Zdrowie",
    "address": "Dąbrowskiego 44",
    "city": "Poznań",
    "longitude": 16.90602222,
    "latitude": 52.41217222,
    "description": [
      "Pon.-Pt. 08:00-20:00",
      "Sob. 08:00-16:00",
      "Niedz. 08:00-16:00"
    ]
  },
  {
    "id": "pharmacy-12110",
    "label": "Witaminka Centrum Leków",
    "address": "ul. Opieńskiego 1/36",
    "city": "Poznań",
    "longitude": 16.9193,
    "latitude": 52.4612,
    "description": []
  },
  {
    "id": "pharmacy-12111",
    "label": "Dom Leków",
    "address": "ul. Półwiejska 17",
    "city": "Poznań",
    "longitude": 16.9303,
    "latitude": 52.4034,
    "description": [
      "Pon.-Pt. 07:30-21:00",
      "Sob. 09:00-17:00",
      "Niedz. 10:00-16:00"
    ]
  },
  {
    "id": "pharmacy-12112",
    "label": "Amfora Przy Figurce",
    "address": "ul. Starołęcka 235",
    "city": "Poznań",
    "longitude": 16.9182,
    "latitude": 52.3417,
    "description": [
      "Pon.-Pt. 08:00-20:00",
      "Sob. 08:00-18:00",
      "Niedz. zamknięta"
    ]
  },
  {
    "id": "pharmacy-12113",
    "label": "Hebeapteka",
    "address": "ul. Wierzbięcice 36/38",
    "city": "Poznań",
    "longitude": 16.922,
    "latitude": 52.3949,
    "description": [
      "Pon.-Pt. 08:00-21:00",
      "Sob. 08:00-19:00",
      "Niedz. zamknięta"
    ]
  },
  {
    "id": "pharmacy-12114",
    "label": "Apteka Green Point",
    "address": "ul. Hetmańska 91",
    "city": "Poznań",
    "longitude": 16.9129,
    "latitude": 52.3864,
    "description": [
      "Pon.-Pt. 08:00-20:00",
      "Sob. 09:00-20:00",
      "Niedz. zamknięta"
    ]
  },
  {
    "id": "pharmacy-12115",
    "label": "Super-Pharm",
    "address": "ul. Pleszewska 1",
    "city": "Poznań",
    "longitude": 16.9565,
    "latitude": 52.3968,
    "description": [
      "Pon.-Sob. 10:00-22:00",
      "Pt. 10:00-22:00",
      "Niedz. 10:00-21:00"
    ]
  },
  {
    "id": "pharmacy-1212",
    "label": "Apteka DOZ",
    "address": "Jaworowa 66",
    "city": "Poznań",
    "longitude": 16.904888,
    "latitude": 52.367222,
    "description": [
      "Pon.-Pt. 08:00-20:00",
      "Sob. 08:00-16:00",
      "Niedz. 08:00-16:00"
    ]
  },
  {
    "id": "pharmacy-1213",
    "label": "DOZ Apteka Dbam o Zdrowie",
    "address": "Al. Solidarności  47",
    "city": "Poznań",
    "longitude": 16.9226927,
    "latitude": 52.4357566,
    "description": [
      "Pon.-Pt. 09:00-21:00",
      "Sob. 09:00-21:00",
      "Niedz. 09:00-21:00"
    ]
  },
  {
    "id": "pharmacy-1214",
    "label": "Apteka DOZ",
    "address": "Mrągowska 4",
    "city": "Poznań",
    "longitude": 16.86473611,
    "latitude": 52.38094722,
    "description": [
      "Pon.-Pt. 09:00-21:00",
      "Sob. 09:00-21:00",
      "Niedz. 09:00-21:00"
    ]
  },
  {
    "id": "pharmacy-12214",
    "label": "Nasza",
    "address": "ul. Ogrodowa 14",
    "city": "Przeźmierowo",
    "longitude": 16.7761,
    "latitude": 52.4323,
    "description": []
  },
  {
    "id": "pharmacy-12215",
    "label": "Stokrotka II",
    "address": "ul. Rynkowa 105",
    "city": "Przeźmierowo",
    "longitude": 16.7878,
    "latitude": 52.4214,
    "description": [
      "Pon.-Pt. 08:00-20:00",
      "Sob. 08:00-15:00",
      "Niedz. zamknięta"
    ]
  },
  {
    "id": "pharmacy-12216",
    "label": "Stokrotka",
    "address": "ul. Rynkowa 63",
    "city": "Przeźmierowo",
    "longitude": 16.7848,
    "latitude": 52.4282,
    "description": [
      "Pon.-Pt. 08:00-20:00",
      "Sob. 08:00-15:00",
      "Niedz. zamknięta"
    ]
  },
  {
    "id": "pharmacy-12217",
    "label": "Apteka Pomocna",
    "address": "ul. Rynkowa 75c",
    "city": "Przeźmierowo",
    "longitude": 16.7861,
    "latitude": 52.4262,
    "description": [
      "Pon.-Pt. 08:00-20:00",
      "Sob. 09:00-14:00",
      "Niedz. zamknięta"
    ]
  },
  {
    "id": "pharmacy-12299",
    "label": "Apteka dla Ciebie",
    "address": "ul.  Józefa Ignacego Kraszewskiego 11",
    "city": "Puszczykowo",
    "longitude": 16.8696,
    "latitude": 52.2633,
    "description": [
      "Pon.-Pt. 08:00-19:00",
      "Sob. 09:00-14:00",
      "Niedz. zamknięta"
    ]
  },
  {
    "id": "pharmacy-12300",
    "label": "W Starym Domu",
    "address": "ul. Dworcowa 22",
    "city": "Puszczykowo",
    "longitude": 16.8612,
    "latitude": 52.2725,
    "description": []
  },
  {
    "id": "pharmacy-12301",
    "label": "Alchemia",
    "address": "ul. Kościelna 7",
    "city": "Puszczykowo",
    "longitude": 16.8566,
    "latitude": 52.286,
    "description": [
      "Pon.-Pt. 08:00-20:00",
      "Sob. 08:00-14:00",
      "Niedz. 09:00-14:00"
    ]
  },
  {
    "id": "pharmacy-12302",
    "label": "Św. Kamila",
    "address": "ul. Poznańska 56",
    "city": "Puszczykowo",
    "longitude": 16.8583,
    "latitude": 52.2894,
    "description": [
      "Pon.-Sob. 08:00-20:00",
      "Niedz. 09:00-16:00"
    ]
  },
  {
    "id": "pharmacy-12303",
    "label": "Viola-farm",
    "address": "ul. Poznanska 74a",
    "city": "Puszczykowo",
    "longitude": 16.8557,
    "latitude": 52.2866,
    "description": []
  },
  {
    "id": "pharmacy-12304",
    "label": "Centralna",
    "address": "ul. Poznańska 75",
    "city": "Puszczykowo",
    "longitude": 16.8571,
    "latitude": 52.2872,
    "description": [
      "Pon.-Pt. 08:00-20:00",
      "Sob. 08:00-15:00",
      "Niedz. zamknięta"
    ]
  },
  {
    "id": "pharmacy-12508",
    "label": "Punkt Apteczny Witaminka",
    "address": "ul. Szkolna 18",
    "city": "Robakowo",
    "longitude": 17.0572,
    "latitude": 52.3008,
    "description": [
      "Pon.-Pt. 08:00-19:00",
      "Sob. 09:00-14:00",
      "Niedz. zamknięta"
    ]
  },
  {
    "id": "pharmacy-12527",
    "label": "Consultorio",
    "address": "Kalinowe 14c/9,14a/9",
    "city": "Rokietnica",
    "longitude": 16.7417,
    "latitude": 52.5042,
    "description": []
  },
  {
    "id": "pharmacy-12530",
    "label": "Antidotum",
    "address": "ul. Pocztowa 7",
    "city": "Rokietnica",
    "longitude": 16.7546,
    "latitude": 52.5108,
    "description": [
      "Pon.-Pt. 08:00-18:00",
      "Sob. 08:00-13:00",
      "Niedz. zamknięta"
    ]
  },
  {
    "id": "pharmacy-127",
    "label": "Dr.Optima",
    "address": "ul. Strzelecka 48A",
    "city": "Poznań",
    "longitude": 16.9351102000001,
    "latitude": 52.3999232,
    "description": [
      "Pon.-Pt. 08:00-18:00",
      "Sob. 08:00-13:00",
      "Niedz. zamknięta"
    ]
  },
  {
    "id": "pharmacy-12724",
    "label": "36,6°c",
    "address": "ul. Kobylnicka 2a",
    "city": "Sady",
    "longitude": 16.7252,
    "latitude": 52.4501,
    "description": []
  },
  {
    "id": "pharmacy-12958",
    "label": "Apteka Nasza",
    "address": "ul. Kwiatowa 37",
    "city": "Skórzewo",
    "longitude": 16.7834,
    "latitude": 52.3911,
    "description": [
      "Pon.-Pt. 08:00-20:00",
      "Sob.-Niedz. 09:00-14:00"
    ]
  },
  {
    "id": "pharmacy-12959",
    "label": "Wielkopolska",
    "address": "ul. Malwowa 162",
    "city": "Skórzewo",
    "longitude": 16.802,
    "latitude": 52.3966,
    "description": [
      "Pon.-Pt. 08:00-21:00",
      "Sob. 09:00-21:00",
      "Niedz. 10:00-20:00"
    ]
  },
  {
    "id": "pharmacy-12960",
    "label": "Pogodna",
    "address": "ul. Poznańska 4",
    "city": "Skórzewo",
    "longitude": 16.7829,
    "latitude": 52.3885,
    "description": []
  },
  {
    "id": "pharmacy-12961",
    "label": "Źródło",
    "address": "ul. Poznańska 74",
    "city": "Skórzewo",
    "longitude": 16.7961,
    "latitude": 52.393,
    "description": []
  },
  {
    "id": "pharmacy-13370",
    "label": "Sucholeska",
    "address": "ul. Nowy Rynek 6",
    "city": "Suchy Las",
    "longitude": 16.8794,
    "latitude": 52.4748,
    "description": []
  },
  {
    "id": "pharmacy-13371",
    "label": "Eskulap",
    "address": "ul. Obornicka 85",
    "city": "Suchy Las",
    "longitude": 16.8755,
    "latitude": 52.473,
    "description": []
  },
  {
    "id": "pharmacy-13372",
    "label": "Awicenna",
    "address": "ul. Wojciecha Bogusławskiego 8",
    "city": "Suchy Las",
    "longitude": 16.8785,
    "latitude": 52.4734,
    "description": []
  },
  {
    "id": "pharmacy-13410",
    "label": "Sagittarius",
    "address": "ul. św. Antoniego 2",
    "city": "Swadzim",
    "longitude": 16.765,
    "latitude": 52.4399,
    "description": [
      "Pon.-Sob. 09:00-21:00",
      "Niedz. 09:30-20:00"
    ]
  },
  {
    "id": "pharmacy-13411",
    "label": "Centrum Leków",
    "address": "os. Dąbrowszczaków 26",
    "city": "Swarzędz",
    "longitude": 17.0852170000001,
    "latitude": 52.415222,
    "description": [
      "Pon.-Pt. 08:00-20:00",
      "Sob. 08:00-14:00",
      "Niedz. zamknięta"
    ]
  },
  {
    "id": "pharmacy-13412",
    "label": "Art Medicum",
    "address": "os. Edwarda Raczyńskiego 1/1",
    "city": "Swarzędz",
    "longitude": 17.0577,
    "latitude": 52.3998,
    "description": []
  },
  {
    "id": "pharmacy-13413",
    "label": "Przyjazna",
    "address": "os. Hipolita Cegielskiego 32a",
    "city": "Swarzędz",
    "longitude": 17.0642,
    "latitude": 52.4,
    "description": [
      "Pon.-Pt. 07:30-21:00",
      "Sob.-Niedz. 08:00-16:00"
    ]
  },
  {
    "id": "pharmacy-13414",
    "label": "Apteka Osiedlowa",
    "address": "os. Kościuszkowców 13",
    "city": "Swarzędz",
    "longitude": 17.0784,
    "latitude": 52.4205,
    "description": []
  },
  {
    "id": "pharmacy-13415",
    "label": "Dom Leków",
    "address": "os. Kościuszkowców 34",
    "city": "Swarzędz",
    "longitude": 17.0807,
    "latitude": 52.4218,
    "description": [
      "Pon.-Pt. 07:00-22:00",
      "Sob. 08:00-22:00",
      "Niedz. 10:00-18:00"
    ]
  },
  {
    "id": "pharmacy-13416",
    "label": "Przy Rondzie",
    "address": "os. Tytusa  Działyńskiego 1j",
    "city": "Swarzędz",
    "longitude": 17.0652,
    "latitude": 52.3994,
    "description": [
      "Pon.-Pt. 08:00-21:00",
      "Sob. 08:00-15:00",
      "Niedz. 09:00-14:00"
    ]
  },
  {
    "id": "pharmacy-13417",
    "label": "Optima",
    "address": "os. Tytusa Działyńskiego 39",
    "city": "Swarzędz",
    "longitude": 17.0681,
    "latitude": 52.3989,
    "description": [
      "Pon.-Pt. 09:00-20:00",
      "Sob. 09:00-13:00",
      "Niedz. zamknięta"
    ]
  },
  {
    "id": "pharmacy-13419",
    "label": "Pod Koroną",
    "address": "rynek Rynek 18",
    "city": "Swarzędz",
    "longitude": 17.0765,
    "latitude": 52.4102,
    "description": []
  },
  {
    "id": "pharmacy-13420",
    "label": "Apteka \"W Pasażu\"",
    "address": "ul.  Graniczna 63/19",
    "city": "Swarzędz",
    "longitude": 17.0575,
    "latitude": 52.4018,
    "description": [
      "Pon.-Pt. 09:00-20:00",
      "Sob. 09:00-16:00",
      "Niedz. zamknięta"
    ]
  },
  {
    "id": "pharmacy-13421",
    "label": "Apteka \"Rodzinna\"",
    "address": "ul.  Kupiecka 29",
    "city": "Swarzędz",
    "longitude": 17.0698,
    "latitude": 52.3956,
    "description": [
      "Pon.-Pt. 09:00-21:00",
      "Sob. 09:00-14:00",
      "Niedz. zamknięta"
    ]
  },
  {
    "id": "pharmacy-13422",
    "label": "Rosa-pharm",
    "address": "ul. A. Cieszkowskiego 39",
    "city": "Swarzędz",
    "longitude": 17.083,
    "latitude": 52.4198,
    "description": []
  },
  {
    "id": "pharmacy-13423",
    "label": "Przyjazna",
    "address": "ul. Cieszkowskiego 100/102/4",
    "city": "Swarzędz",
    "longitude": 17.0840774,
    "latitude": 52.4200751,
    "description": []
  },
  {
    "id": "pharmacy-13424",
    "label": "Apteka Przyjazna",
    "address": "ul. Cieszkowskiego 5/7",
    "city": "Swarzędz",
    "longitude": 17.0842,
    "latitude": 52.4098,
    "description": []
  },
  {
    "id": "pharmacy-13425",
    "label": "Nasza",
    "address": "ul. Dworcowa 4",
    "city": "Swarzędz",
    "longitude": 17.0723,
    "latitude": 52.4067,
    "description": [
      "Pon.-Pt. 08:00-20:00",
      "Sob. 09:00-13:00",
      "Niedz. zamknięta"
    ]
  },
  {
    "id": "pharmacy-13426",
    "label": "Nowa",
    "address": "ul. Graniczna 55/2",
    "city": "Swarzędz",
    "longitude": 17.0597,
    "latitude": 52.4015,
    "description": []
  },
  {
    "id": "pharmacy-13427",
    "label": "Rosa",
    "address": "ul. Kupiecka 15",
    "city": "Swarzędz",
    "longitude": 17.0706,
    "latitude": 52.3967,
    "description": [
      "Pon.-Pt. 08:00-20:00",
      "Sob. 08:00-15:00",
      "Niedz. zamknięta"
    ]
  },
  {
    "id": "pharmacy-13428",
    "label": "Nasza",
    "address": "ul. Piaski 8",
    "city": "Swarzędz",
    "longitude": 17.0751,
    "latitude": 52.4095,
    "description": [
      "Pon.-Pt. 08:00-20:00",
      "Sob. 09:00-13:00",
      "Niedz. zamknięta"
    ]
  },
  {
    "id": "pharmacy-13429",
    "label": "Swarzędzka Pod Wezw. Św.józefa",
    "address": "ul. Rynek 16",
    "city": "Swarzędz",
    "longitude": 17.0768,
    "latitude": 52.41,
    "description": []
  },
  {
    "id": "pharmacy-13430",
    "label": "Zamkowa",
    "address": "ul. Zamkowa 17c",
    "city": "Swarzędz",
    "longitude": 17.0777,
    "latitude": 52.413,
    "description": [
      "Pon.-Pt. 09:00-19:00",
      "Sob.-Niedz. 09:00-13:00"
    ]
  },
  {
    "id": "pharmacy-13949",
    "label": "Skibowa",
    "address": "ul. Fiołkowa 1",
    "city": "Tulce",
    "longitude": 17.0636,
    "latitude": 52.3453,
    "description": []
  },
  {
    "id": "pharmacy-13950",
    "label": "Punkt Apteczny Tulce",
    "address": "ul. Poznańska 21",
    "city": "Tulce",
    "longitude": 17.0768,
    "latitude": 52.3429,
    "description": []
  },
  {
    "id": "pharmacy-14408",
    "label": "Jaśminowa",
    "address": "ul. Komornicka 192",
    "city": "Wiry",
    "longitude": 16.8543,
    "latitude": 52.3194,
    "description": [
      "Pon.-Pt. 08:00-19:00",
      "Sob. 09:00-13:00",
      "Niedz. zamknięta"
    ]
  },
  {
    "id": "pharmacy-14998",
    "label": "Pod Lasem",
    "address": "pl. Grzybowy 7",
    "city": "Złotniki",
    "longitude": 16.8559,
    "latitude": 52.4794,
    "description": [
      "Pon.-Pt. 09:00-18:00",
      "Sob. 09:00-13:00",
      "Niedz. zamknięta"
    ]
  },
  {
    "id": "pharmacy-15108",
    "label": "DOZ Apteka Dbam o Zdrowie",
    "address": "ul. Stanisława Matyi 2",
    "city": "Poznań",
    "longitude": 16.9124,
    "latitude": 52.4018,
    "description": [
      "Pon.-Sob. 09:00-21:00",
      "Niedz. 09:00-20:00"
    ]
  },
  {
    "id": "pharmacy-15212",
    "label": "Super-Pharm",
    "address": "ul. Półwiejska 42 lokal 232 (Stary Browar)",
    "city": "Poznań",
    "longitude": 16.924744,
    "latitude": 52.402686,
    "description": [
      "Pon.-Pt. 09:00-21:00",
      "Sob. 09:00-21:00",
      "Niedz. 10:00-18:00"
    ]
  },
  {
    "id": "pharmacy-15336",
    "label": "Recepta Na Zdrowie",
    "address": "ul. Jeziorna 9",
    "city": "Szczytniki",
    "longitude": 17.0174818531915,
    "latitude": 52.30207505,
    "description": [
      "Pon.-Pt. 09:00-19:00",
      "Sob. 09:00-14:00",
      "Niedz. zamknięta"
    ]
  },
  {
    "id": "pharmacy-15366",
    "label": "Punkt Apteczny",
    "address": "ul. Szafirowa 1A",
    "city": "Dąbrowa k. Poznania",
    "longitude": 16.757169,
    "latitude": 52.39673,
    "description": [
      "Sob. 09:00-14:00",
      "Wt.-Czw. 08:00-19:00",
      "Niedz. zamknięta"
    ]
  },
  {
    "id": "pharmacy-216",
    "label": "Apteka św. Łazarza",
    "address": "ul. Głogowska 107/109",
    "city": "Poznań",
    "longitude": 16.895848,
    "latitude": 52.391292,
    "description": [
      "Pon.-Pt. 08:00-21:00",
      "Sob. 09:00-17:00",
      "Niedz. zamknięta"
    ]
  },
  {
    "id": "pharmacy-217",
    "label": "Apteka pod Klonami",
    "address": "ul. Górna Wilda 82",
    "city": "Poznań",
    "longitude": 16.9244679999999,
    "latitude": 52.3968549,
    "description": [
      "Pon.-Pt. 08:00-20:00",
      "Sob. 09:00-15:00",
      "Niedz. zamknięta"
    ]
  },
  {
    "id": "pharmacy-2170",
    "label": "Apteka Krzesiny",
    "address": "ul. Jarosławska 4",
    "city": "Poznań",
    "longitude": 16.985633,
    "latitude": 52.342046,
    "description": [
      "Pon.-Pt. 08:00-18:00",
      "Sob. 09:00-12:00",
      "Niedz. zamknięta"
    ]
  },
  {
    "id": "pharmacy-2172",
    "label": "Apteka Pod Sasanką",
    "address": "ul. Krakowska 32/2",
    "city": "Poznań",
    "longitude": 16.928895,
    "latitude": 52.4007839,
    "description": [
      "Pon.-Pt. 08:00-20:00",
      "Sob. 08:00-20:00",
      "Niedz. 11:00-20:00"
    ]
  },
  {
    "id": "pharmacy-2178",
    "label": "Helianthus",
    "address": "os. Armii Krajowej 105",
    "city": "Poznań",
    "longitude": 16.94979,
    "latitude": 52.3796229,
    "description": []
  },
  {
    "id": "pharmacy-2179",
    "label": "Apteka Allium",
    "address": "os. Armii Krajowej 98",
    "city": "Poznań",
    "longitude": 16.952046,
    "latitude": 52.3799379,
    "description": [
      "Pon.-Pt. 09:00-18:00",
      "Sob. 09:00-14:00",
      "Niedz. zamknięta"
    ]
  },
  {
    "id": "pharmacy-2180",
    "label": "Apteka 112",
    "address": "os. Boh. Ii Wojny Światowej 31",
    "city": "Poznań",
    "longitude": 16.9519852,
    "latitude": 52.3838616,
    "description": []
  },
  {
    "id": "pharmacy-2181",
    "label": "Apteka Gemini",
    "address": "os. Bolesława Chrobrego 101/7",
    "city": "Poznań",
    "longitude": 16.9122045,
    "latitude": 52.458761,
    "description": [
      "Pon.-Pt. 08:00-20:00",
      "Sob. 08:00-16:00",
      "Niedz. zamknięta"
    ]
  },
  {
    "id": "pharmacy-2182",
    "label": "Sabiduria",
    "address": "os. Bolesława Chrobrego 11 110",
    "city": "Poznań",
    "longitude": 16.915157,
    "latitude": 52.4578558,
    "description": []
  },
  {
    "id": "pharmacy-2183",
    "label": "Apteka",
    "address": "os. Bolesława Chrobrego 118",
    "city": "Poznań",
    "longitude": 16.9165065,
    "latitude": 52.4492769,
    "description": [
      "Pon.-Pt. 08:00-20:00",
      "Sob. 08:00-14:00",
      "Niedz. zamknięta"
    ]
  },
  {
    "id": "pharmacy-2184",
    "label": "Adamus",
    "address": "os. Bolesława Śmiałego 104",
    "city": "Poznań",
    "longitude": 16.9237733,
    "latitude": 52.4526554,
    "description": []
  },
  {
    "id": "pharmacy-2185",
    "label": "Adamus",
    "address": "os. Bolesława Śmiałego 31",
    "city": "Poznań",
    "longitude": 16.9240743,
    "latitude": 52.4502399,
    "description": []
  },
  {
    "id": "pharmacy-2186",
    "label": "Apteka Prima",
    "address": "os. Czecha 73",
    "city": "Poznań",
    "longitude": 16.977406,
    "latitude": 52.3859252,
    "description": [
      "Pon.-Pt. 07:00-20:00",
      "Sob. 08:00-20:00",
      "Niedz. 09:00-15:00"
    ]
  },
  {
    "id": "pharmacy-2189",
    "label": "Apteka Pamiątkowa",
    "address": "os. Czecha 79",
    "city": "Poznań",
    "longitude": 16.9795322,
    "latitude": 52.3873671,
    "description": []
  },
  {
    "id": "pharmacy-2192",
    "label": "Apis",
    "address": "os. Dębina 14",
    "city": "Poznań",
    "longitude": 16.904977,
    "latitude": 52.3618056,
    "description": []
  },
  {
    "id": "pharmacy-2193",
    "label": "Passiflora",
    "address": "os. J. III Sobieskiego Paw. 52",
    "city": "Poznań",
    "longitude": 16.8971433,
    "latitude": 52.4563217,
    "description": []
  },
  {
    "id": "pharmacy-2196",
    "label": "Apteka Rodzinna",
    "address": "os. Jagiellońskie 12",
    "city": "Poznań",
    "longitude": 16.949944,
    "latitude": 52.3933369,
    "description": []
  },
  {
    "id": "pharmacy-2199",
    "label": "Dla Ciebie",
    "address": "os. Jagiellońskie 121D",
    "city": "Poznań",
    "longitude": 16.9529094,
    "latitude": 52.3910384,
    "description": []
  },
  {
    "id": "pharmacy-2200",
    "label": "Apteka Dobra",
    "address": "os. Jana III Sobieskiego 103 9",
    "city": "Poznań",
    "longitude": 16.9062193,
    "latitude": 52.463068,
    "description": [
      "Pon.-Pt. 08:00-15:00",
      "Sob. 08:00-14:00",
      "Niedz. zamknięta"
    ]
  },
  {
    "id": "pharmacy-2204",
    "label": "Apteka Wielkopolska",
    "address": "os. Kosmonautów 104",
    "city": "Poznań",
    "longitude": 16.941584,
    "latitude": 52.437801,
    "description": [
      "Pon.-Pt. 07:00-21:00",
      "Sob. 08:00-21:00",
      "Niedz. 09:00-16:00"
    ]
  },
  {
    "id": "pharmacy-2205",
    "label": "Kosmonautów",
    "address": "os. Kosmonautów 15",
    "city": "Poznań",
    "longitude": 16.943683,
    "latitude": 52.4382419,
    "description": []
  },
  {
    "id": "pharmacy-2206",
    "label": "Orle Gniazdo",
    "address": "os. Lecha 43",
    "city": "Poznań",
    "longitude": 16.9750277,
    "latitude": 52.3906781,
    "description": []
  },
  {
    "id": "pharmacy-2207",
    "label": "Apteka Wielkolpolska",
    "address": "os. Marysieńki 25",
    "city": "Poznań",
    "longitude": 16.9029114,
    "latitude": 52.460036,
    "description": [
      "Pon.-Pt. 08:00-20:00",
      "Sob. 08:00-14:00",
      "Niedz. zamknięta"
    ]
  },
  {
    "id": "pharmacy-2208",
    "label": "Convallaria",
    "address": "os. Orła Białego 103",
    "city": "Poznań",
    "longitude": 16.9699649,
    "latitude": 52.3817869,
    "description": []
  },
  {
    "id": "pharmacy-2209",
    "label": "Zielona",
    "address": "os. Orła Białego 245",
    "city": "Poznań",
    "longitude": 16.9680002,
    "latitude": 52.3780373,
    "description": []
  },
  {
    "id": "pharmacy-2210",
    "label": "Zielona",
    "address": "os. Orła Białego 45",
    "city": "Poznań",
    "longitude": 16.962946,
    "latitude": 52.375932,
    "description": [
      "Pon.-Pt. 08:00-21:00",
      "Sob. 08:00-15:00",
      "Niedz. zamknięta"
    ]
  },
  {
    "id": "pharmacy-2211",
    "label": "Apteka",
    "address": "os. Oświecenia 57",
    "city": "Poznań",
    "longitude": 16.958123,
    "latitude": 52.3904349,
    "description": []
  },
  {
    "id": "pharmacy-2212",
    "label": "Apteka Wielkolpolska",
    "address": "os. Piastowskie 17",
    "city": "Poznań",
    "longitude": 16.945035,
    "latitude": 52.396474,
    "description": [
      "Pon.-Pt. 07:00-20:00",
      "Sob. 08:00-14:00",
      "Niedz. zamknięta"
    ]
  },
  {
    "id": "pharmacy-2213",
    "label": "Apteka nad Wartą",
    "address": "os. Piastowskie 22",
    "city": "Poznań",
    "longitude": 16.944943,
    "latitude": 52.3947439,
    "description": []
  },
  {
    "id": "pharmacy-2214",
    "label": "Apteka Wielkolpolska",
    "address": "os. Piastowskie 58",
    "city": "Poznań",
    "longitude": 16.9433871,
    "latitude": 52.3919146,
    "description": [
      "Pon.-Pt. 08:00-18:00",
      "Sob. zamknięta",
      "Niedz. zamknięta"
    ]
  },
  {
    "id": "pharmacy-2215",
    "label": "Serce Rataj",
    "address": "os. Piastowskie 74",
    "city": "Poznań",
    "longitude": 16.946623,
    "latitude": 52.3907139,
    "description": [
      "Pon.-Pt. 08:00-19:00",
      "Sob. 08:00-14:00",
      "Niedz. 09:00-14:00"
    ]
  },
  {
    "id": "pharmacy-2216",
    "label": "Alga",
    "address": "os. Piastowskie 74",
    "city": "Poznań",
    "longitude": 16.946623,
    "latitude": 52.3907139,
    "description": []
  },
  {
    "id": "pharmacy-2217",
    "label": "Apteka Gemini",
    "address": "os. Piastowskie 75",
    "city": "Poznań",
    "longitude": 16.9456634,
    "latitude": 52.3895309,
    "description": [
      "Pon.-Pt. 08:00-20:00",
      "Sob. 08:00-16:00",
      "Niedz. 09:00-14:00"
    ]
  },
  {
    "id": "pharmacy-2218",
    "label": "Dom Leków",
    "address": "os. Piastowskie 77/14",
    "city": "Poznań",
    "longitude": 16.9448347,
    "latitude": 52.3902786,
    "description": [
      "Pon.-Pt. 07:00-19:00",
      "Sob. 08:00-16:00",
      "Niedz. zamknięta"
    ]
  },
  {
    "id": "pharmacy-2219",
    "label": "Elixir",
    "address": "os. Pod Lipami 104",
    "city": "Poznań",
    "longitude": 16.9415255,
    "latitude": 52.4298257,
    "description": []
  },
  {
    "id": "pharmacy-2220",
    "label": "Polan",
    "address": "os. Polan 100",
    "city": "Poznań",
    "longitude": 16.9601489,
    "latitude": 52.383793,
    "description": []
  },
  {
    "id": "pharmacy-2221",
    "label": "Złota Jesień",
    "address": "os. Powstań Narodowych 35",
    "city": "Poznań",
    "longitude": 16.9538249,
    "latitude": 52.388652,
    "description": []
  },
  {
    "id": "pharmacy-2222",
    "label": "Apteka Dobrofarm",
    "address": "os. Przemysława 8C",
    "city": "Poznań",
    "longitude": 17.0026729,
    "latitude": 52.3898129,
    "description": [
      "Pon.-Pt. 09:00-19:00",
      "Sob. 09:00-13:00",
      "Niedz. zamknięta"
    ]
  },
  {
    "id": "pharmacy-2223",
    "label": "Vita-Med.",
    "address": "os. Przyjaźni 125B",
    "city": "Poznań",
    "longitude": 16.9298307,
    "latitude": 52.4315535,
    "description": []
  },
  {
    "id": "pharmacy-2224",
    "label": "Przyjazna",
    "address": "os. Przyjaźni 132 B",
    "city": "Poznań",
    "longitude": 16.9257,
    "latitude": 52.42962,
    "description": []
  },
  {
    "id": "pharmacy-2225",
    "label": "Winogradzka",
    "address": "os. Przyjaźni 141B",
    "city": "Poznań",
    "longitude": 16.9211779,
    "latitude": 52.430149,
    "description": []
  },
  {
    "id": "pharmacy-2226",
    "label": "Pod Zodiakiem",
    "address": "os. Rusa 12",
    "city": "Poznań",
    "longitude": 16.982786,
    "latitude": 52.3928189,
    "description": []
  },
  {
    "id": "pharmacy-2227",
    "label": "Apteka Galenica",
    "address": "os. Rzeczypospolitej 6A",
    "city": "Poznań",
    "longitude": 16.950857,
    "latitude": 52.3887749,
    "description": [
      "Pon.-Pt. 07:30-19:00",
      "Sob. 08:00-14:00",
      "Niedz. zamknięta"
    ]
  },
  {
    "id": "pharmacy-2228",
    "label": "Kwiaty Polne",
    "address": "os. S. Batorego 79-79A U4-U1",
    "city": "Poznań",
    "longitude": 16.9210513,
    "latitude": 52.4623064,
    "description": []
  },
  {
    "id": "pharmacy-2229",
    "label": "Vita-Farm",
    "address": "os. Stare Żegrze 110",
    "city": "Poznań",
    "longitude": 16.9674892,
    "latitude": 52.3836751,
    "description": []
  },
  {
    "id": "pharmacy-2230",
    "label": "Aspirynka",
    "address": "os. Stare Żegrze 34",
    "city": "Poznań",
    "longitude": 16.957542,
    "latitude": 52.380162,
    "description": []
  },
  {
    "id": "pharmacy-2231",
    "label": "Królewska",
    "address": "os. Stefana Batorego 17",
    "city": "Poznań",
    "longitude": 16.9225063,
    "latitude": 52.4571186,
    "description": []
  },
  {
    "id": "pharmacy-2232",
    "label": "Tysiąclecia",
    "address": "os. Tysiąclecia 30 box P",
    "city": "Poznań",
    "longitude": 16.9775991,
    "latitude": 52.3932685,
    "description": []
  },
  {
    "id": "pharmacy-2233",
    "label": "Remedium",
    "address": "os. Wichrowe Wzgórze 104",
    "city": "Poznań",
    "longitude": 16.9398916,
    "latitude": 52.4385526,
    "description": []
  },
  {
    "id": "pharmacy-2234",
    "label": "Apteka Wielkolpolska",
    "address": "os. Wichrowe Wzgórze 121A",
    "city": "Poznań",
    "longitude": 16.9315019,
    "latitude": 52.438767,
    "description": [
      "Pon.-Pt. 07:00-21:00",
      "Sob. 08:00-18:00",
      "Niedz. 09:00-15:00"
    ]
  },
  {
    "id": "pharmacy-2235",
    "label": "Apteka w Przychodni",
    "address": "os. Wichrowe Wzgórze 122",
    "city": "Poznań",
    "longitude": 16.9328359,
    "latitude": 52.438607,
    "description": [
      "Pon.-Pt. 08:00-20:00",
      "Sob. 08:00-15:00",
      "Niedz. zamknięta"
    ]
  },
  {
    "id": "pharmacy-2236",
    "label": "Wrzosowa",
    "address": "os. Winiary 54",
    "city": "Poznań",
    "longitude": 16.9107197,
    "latitude": 52.4335841,
    "description": []
  },
  {
    "id": "pharmacy-2237",
    "label": "U Złotego Źródła",
    "address": "os. Władysława Jagiełły 17",
    "city": "Poznań",
    "longitude": 16.905592,
    "latitude": 52.456629,
    "description": []
  },
  {
    "id": "pharmacy-2238",
    "label": "Centrum leków",
    "address": "os. Władysława Łokietka 115",
    "city": "Poznań",
    "longitude": 16.94292,
    "latitude": 52.448608,
    "description": [
      "Pon.-Pt. 08:00-20:00",
      "Sob. 08:00-15:00",
      "Niedz. zamknięta"
    ]
  },
  {
    "id": "pharmacy-2239",
    "label": "Nasza",
    "address": "os. Zwycięstwa 108",
    "city": "Poznań",
    "longitude": 16.922722,
    "latitude": 52.441437,
    "description": []
  },
  {
    "id": "pharmacy-2240",
    "label": "Apteka Wielkolpolska",
    "address": "os. Zwycięstwa 110",
    "city": "Poznań",
    "longitude": 16.9227067,
    "latitude": 52.4381624,
    "description": [
      "Pon.-Pt. 07:00-21:00",
      "Sob. 08:00-18:00",
      "Niedz. zamknięta"
    ]
  },
  {
    "id": "pharmacy-2241",
    "label": "Optima",
    "address": "pl. Cyryla Ratajskiego 4",
    "city": "Poznań",
    "longitude": 16.9234443,
    "latitude": 52.409864,
    "description": [
      "Pon.-Pt. 07:30-20:00",
      "Sob. 08:00-15:00",
      "Niedz. zamknięta"
    ]
  },
  {
    "id": "pharmacy-2242",
    "label": "Apteka Zakątek",
    "address": "pl. Galla 4",
    "city": "Poznań",
    "longitude": 16.8954258,
    "latitude": 52.4133527,
    "description": []
  },
  {
    "id": "pharmacy-2245",
    "label": "O.K. Apteka",
    "address": "pl. Wielkopolski 3A",
    "city": "Poznań",
    "longitude": 16.9308309,
    "latitude": 52.410905,
    "description": [
      "Pon.-Pt. 08:00-20:00",
      "Sob. 08:00-15:00",
      "Niedz. zamknięta"
    ]
  },
  {
    "id": "pharmacy-2250",
    "label": "Kocanka",
    "address": "ul. 28 Czerwca 1956 261",
    "city": "Poznań",
    "longitude": 16.9077994,
    "latitude": 52.3776535,
    "description": []
  },
  {
    "id": "pharmacy-2251",
    "label": "Przy Rynku Wildeckim",
    "address": "ul. 28 Czerwca 1956 r. 122",
    "city": "Poznań",
    "longitude": 16.9200768,
    "latitude": 52.3916156,
    "description": [
      "Pon.-Pt. 08:00-20:00",
      "Sob. 08:00-14:00",
      "Niedz. zamknięta"
    ]
  },
  {
    "id": "pharmacy-2252",
    "label": "Wildecka",
    "address": "ul. 28 Czerwca 1956 r. 138/140",
    "city": "Poznań",
    "longitude": 16.9182798,
    "latitude": 52.3896958,
    "description": []
  },
  {
    "id": "pharmacy-2253",
    "label": "Dom Leków",
    "address": "ul. 28 Czerwca 1956 r. 144/1",
    "city": "Poznań",
    "longitude": 16.9177645,
    "latitude": 52.3891695,
    "description": [
      "Pon.-Pt. 07:30-21:00",
      "Sob. 08:00-16:00",
      "Niedz. 10:00-15:00"
    ]
  },
  {
    "id": "pharmacy-2254",
    "label": "Witafarm",
    "address": "ul. 28 Czerwca 1956 r. 151",
    "city": "Poznań",
    "longitude": 16.9177266,
    "latitude": 52.388434,
    "description": []
  },
  {
    "id": "pharmacy-2255",
    "label": "Apteka Pamiątkowa",
    "address": "ul. 28 Czerwca 1956 r. 168",
    "city": "Poznań",
    "longitude": 16.9155419,
    "latitude": 52.3865249,
    "description": []
  },
  {
    "id": "pharmacy-2256",
    "label": "Apteka Wielkopolska",
    "address": "ul. 28 Czerwca 1956 r. 194",
    "city": "Poznań",
    "longitude": 16.9123789,
    "latitude": 52.3832339,
    "description": [
      "Pon.-Pt. 07:30-18:30",
      "Sob. 08:00-14:00",
      "Niedz. zamknięta"
    ]
  },
  {
    "id": "pharmacy-2257",
    "label": "Drosera",
    "address": "ul. 28 Czerwca 1956 r. 330",
    "city": "Poznań",
    "longitude": 16.9030231,
    "latitude": 52.3692204,
    "description": []
  },
  {
    "id": "pharmacy-2258",
    "label": "Apteka Wielkopolska",
    "address": "ul. 28 Czerwca 1956 r. 349 (wejście od Racjonalizatorów)",
    "city": "Poznań",
    "longitude": 16.9042721,
    "latitude": 52.366899,
    "description": [
      "Pon.-Pt. 08:00-20:00",
      "Sob. 08:00-14:00",
      "Niedz. zamknięta"
    ]
  },
  {
    "id": "pharmacy-2259",
    "label": "Dom Leków",
    "address": "ul. 28 Czerwca 1956 r. 384/19",
    "city": "Poznań",
    "longitude": 16.901973,
    "latitude": 52.3629061,
    "description": [
      "Pon.-Pt. 09:00-21:00",
      "Sob. 09:00-21:00",
      "Niedz. zamknięta"
    ]
  },
  {
    "id": "pharmacy-2263",
    "label": "Apteka Prima",
    "address": "ul. A. Szamarzewskiego 44 3A",
    "city": "Poznań",
    "longitude": 16.8933003,
    "latitude": 52.4117011,
    "description": [
      "Pon.-Pt. 08:00-20:00",
      "Sob. 08:00-16:00",
      "Niedz. zamknięta"
    ]
  },
  {
    "id": "pharmacy-2264",
    "label": "Lawenda",
    "address": "ul. A. Szamarzewskiego 82/84",
    "city": "Poznań",
    "longitude": 16.8822539,
    "latitude": 52.4132827,
    "description": []
  },
  {
    "id": "pharmacy-2265",
    "label": "Apteka Milfarma",
    "address": "ul. Szylinga 1",
    "city": "Poznań",
    "longitude": 16.9005314999999,
    "latitude": 52.4060579,
    "description": [
      "Pon.-Pt. 08:00-18:00",
      "Sob. zamknięta",
      "Niedz. zamknięta"
    ]
  },
  {
    "id": "pharmacy-2266",
    "label": "Apteka Wielkopolska 24H",
    "address": "Aleje Solidarności 36",
    "city": "Poznań",
    "longitude": 16.9339368,
    "latitude": 52.4334391,
    "description": []
  },
  {
    "id": "pharmacy-2267",
    "label": "Przy Palmiarni",
    "address": "ul. Artura Grottgera 5",
    "city": "Poznań",
    "longitude": 16.8977664,
    "latitude": 52.4013826,
    "description": []
  },
  {
    "id": "pharmacy-2269",
    "label": "Wrzosowa",
    "address": "ul. Błękitna 7",
    "city": "Poznań",
    "longitude": 16.9045447,
    "latitude": 52.4303601,
    "description": []
  },
  {
    "id": "pharmacy-2271",
    "label": "Apteka św. Wojciecha",
    "address": "ul. Bolesława Krzywoustego 114",
    "city": "Poznań",
    "longitude": 16.9928119,
    "latitude": 52.3624352,
    "description": [
      "Pon.-Pt. 08:00-20:00",
      "Sob. 08:00-14:00",
      "Niedz. zamknięta"
    ]
  },
  {
    "id": "pharmacy-2272",
    "label": "Panorama",
    "address": "ul. Brzask 10A 206",
    "city": "Poznań",
    "longitude": 16.878611,
    "latitude": 52.407215,
    "description": []
  },
  {
    "id": "pharmacy-2273",
    "label": "Bukowa",
    "address": "ul. Bukowa 2A",
    "city": "Poznań",
    "longitude": 16.904855,
    "latitude": 52.3653988,
    "description": []
  },
  {
    "id": "pharmacy-2274",
    "label": "Adamus",
    "address": "ul. Bukowska 100",
    "city": "Poznań",
    "longitude": 16.8828189,
    "latitude": 52.41007,
    "description": []
  },
  {
    "id": "pharmacy-2275",
    "label": "Super-Pharm",
    "address": "ul. Bukowska 156",
    "city": "Poznań",
    "longitude": 16.8615168,
    "latitude": 52.41082,
    "description": [
      "Pon.-Pt. 09:00-21:00",
      "Sob. 09:00-21:00",
      "Niedz. 10:00-20:00"
    ]
  },
  {
    "id": "pharmacy-2276",
    "label": "Pod Złotą Waga",
    "address": "ul. Chojnicka 50",
    "city": "Poznań",
    "longitude": 16.7823446,
    "latitude": 52.4777852,
    "description": []
  },
  {
    "id": "pharmacy-2277",
    "label": "Pod Złotą Wagą",
    "address": "ul. Chojnicka 51 1",
    "city": "Poznań",
    "longitude": 16.7822229,
    "latitude": 52.477621,
    "description": []
  },
  {
    "id": "pharmacy-2278",
    "label": "Vita -Salus",
    "address": "ul. Chojnicka 58",
    "city": "Poznań",
    "longitude": 16.7847039,
    "latitude": 52.47752,
    "description": []
  },
  {
    "id": "pharmacy-2281",
    "label": "Sagittarius",
    "address": "ul. Cześnikowska 2",
    "city": "Poznań",
    "longitude": 16.8744519,
    "latitude": 52.3993929,
    "description": []
  },
  {
    "id": "pharmacy-2283",
    "label": "Na Woli",
    "address": "ul. Dąbrowskiego 294",
    "city": "Poznań",
    "longitude": 16.85757,
    "latitude": 52.4263823,
    "description": []
  },
  {
    "id": "pharmacy-2284",
    "label": "Apteka Przy Rynku Jeżyckim",
    "address": "ul. Dąbrowskiego 49A",
    "city": "Poznań",
    "longitude": 16.9046163,
    "latitude": 52.4126837,
    "description": []
  },
  {
    "id": "pharmacy-2285",
    "label": "Arnika",
    "address": "ul. Dąbrowskiego 86",
    "city": "Poznań",
    "longitude": 16.8968281,
    "latitude": 52.4139867,
    "description": []
  },
  {
    "id": "pharmacy-2286",
    "label": "Apteka Verbena",
    "address": "ul. Długa 1/2",
    "city": "Poznań",
    "longitude": 16.93566,
    "latitude": 52.403644,
    "description": []
  },
  {
    "id": "pharmacy-2287",
    "label": "Apteka Wielkopolska",
    "address": "ul. Dojazd 34",
    "city": "Poznań",
    "longitude": 16.9015526,
    "latitude": 52.4369806,
    "description": [
      "Pon.-Pt. 07:30-18:00",
      "Sob. 09:00-15:00",
      "Niedz. zamknięta"
    ]
  },
  {
    "id": "pharmacy-2288",
    "label": "Medicus",
    "address": "ul. Drobnika 47",
    "city": "Poznań",
    "longitude": 16.9072523,
    "latitude": 52.4506913,
    "description": []
  },
  {
    "id": "pharmacy-2289",
    "label": "Alga",
    "address": "ul. Druskienicka 12A",
    "city": "Poznań",
    "longitude": 16.889758,
    "latitude": 52.446556,
    "description": []
  },
  {
    "id": "pharmacy-2290",
    "label": "DR ZDROWIE w Poznań Plaza",
    "address": "ul. ks. Drużbickiego 2",
    "city": "Poznań",
    "longitude": 16.9190339,
    "latitude": 52.4406227,
    "description": [
      "Pon.-Sob. 09:00-21:00",
      "Niedz. 10:00-20:00"
    ]
  },
  {
    "id": "pharmacy-2294",
    "label": "Kresowa",
    "address": "ul. F. Stróżyńskiego 29",
    "city": "Poznań",
    "longitude": 16.9031579,
    "latitude": 52.4632019,
    "description": []
  },
  {
    "id": "pharmacy-2295",
    "label": "Przyjazna",
    "address": "ul. Falista 4A 5N",
    "city": "Poznań",
    "longitude": 16.9478247,
    "latitude": 52.3693071,
    "description": []
  },
  {
    "id": "pharmacy-2296",
    "label": "Arnika",
    "address": "ul. Franciszka Ratajczaka 45",
    "city": "Poznań",
    "longitude": 16.924916,
    "latitude": 52.408529,
    "description": []
  },
  {
    "id": "pharmacy-2297",
    "label": "Zdrowie",
    "address": "ul. Galileusza 8",
    "city": "Poznań",
    "longitude": 16.8621655,
    "latitude": 52.3874373,
    "description": []
  },
  {
    "id": "pharmacy-2298",
    "label": "Apteka Prima",
    "address": "ul. Galileusza 8/13",
    "city": "Poznań",
    "longitude": 16.8621654999999,
    "latitude": 52.3874373,
    "description": [
      "Pon.-Pt. 07:00-20:00",
      "Sob. 08:00-20:00",
      "Niedz. 09:00-16:00"
    ]
  },
  {
    "id": "pharmacy-2299",
    "label": "Przyjazna",
    "address": "ul. Garbary 16",
    "city": "Poznań",
    "longitude": 16.936887,
    "latitude": 52.402414,
    "description": []
  },
  {
    "id": "pharmacy-2300",
    "label": "Apteka Prima",
    "address": "ul. Garbary 51",
    "city": "Poznań",
    "longitude": 16.9375459,
    "latitude": 52.406726,
    "description": [
      "Pon.-Pt. 08:00-20:00",
      "Sob. 08:00-14:00",
      "Niedz. zamknięta"
    ]
  },
  {
    "id": "pharmacy-2301",
    "label": "Przy Grobli",
    "address": "ul. Garbary 52",
    "city": "Poznań",
    "longitude": 16.938053,
    "latitude": 52.4069239,
    "description": []
  },
  {
    "id": "pharmacy-2302",
    "label": "Apteka Medkon",
    "address": "ul. Garbary 71",
    "city": "Poznań",
    "longitude": 16.937901,
    "latitude": 52.4090439,
    "description": [
      "Pon.-Pt. 08:00-20:00",
      "Sob. 09:00-14:00",
      "Niedz. zamknięta"
    ]
  },
  {
    "id": "pharmacy-2303",
    "label": "Słowiańska",
    "address": "ul. Gen. Stanisława Maczka 12",
    "city": "Poznań",
    "longitude": 16.9138617,
    "latitude": 52.4237794,
    "description": []
  },
  {
    "id": "pharmacy-2304",
    "label": "Apteka Dyżurna",
    "address": "ul. Głogowska 111",
    "city": "Poznań",
    "longitude": 16.895483,
    "latitude": 52.390982,
    "description": [
      "Pon.-Pt. 08:00-21:00",
      "Sob. 08:00-14:00",
      "Niedz. 10:00-14:00"
    ]
  },
  {
    "id": "pharmacy-2305",
    "label": "Familia",
    "address": "ul. Głogowska 132 140",
    "city": "Poznań",
    "longitude": 16.8906048,
    "latitude": 52.3876093,
    "description": []
  },
  {
    "id": "pharmacy-2306",
    "label": "Apteka Centrum Leków",
    "address": "ul. Głogowska 146",
    "city": "Poznań",
    "longitude": 16.8902119,
    "latitude": 52.386835,
    "description": [
      "Pon.-Pt. 08:00-20:00",
      "Sob. 08:00-15:00",
      "Niedz. zamknięta"
    ]
  },
  {
    "id": "pharmacy-2307",
    "label": "Verus",
    "address": "ul. Głogowska 29",
    "city": "Poznań",
    "longitude": 16.906274,
    "latitude": 52.3999869,
    "description": []
  },
  {
    "id": "pharmacy-2308",
    "label": "Apteka A2",
    "address": "ul. Głogowska 432",
    "city": "Poznań",
    "longitude": 16.835237,
    "latitude": 52.3542549,
    "description": []
  },
  {
    "id": "pharmacy-2309",
    "label": "Dom Leków",
    "address": "ul. Głogowska 440 i 442",
    "city": "Poznań",
    "longitude": 16.8410659,
    "latitude": 52.353141,
    "description": [
      "Pon.-Pt. 08:00-21:00",
      "Sob. 09:00-21:00",
      "Niedz. 09:00-20:00"
    ]
  },
  {
    "id": "pharmacy-2310",
    "label": "Główna",
    "address": "ul. Główna 53",
    "city": "Poznań",
    "longitude": 16.9738009,
    "latitude": 52.4220679,
    "description": []
  },
  {
    "id": "pharmacy-2311",
    "label": "Gardenia",
    "address": "ul. Głuszyna 206",
    "city": "Poznań",
    "longitude": 16.966728,
    "latitude": 52.313187,
    "description": []
  },
  {
    "id": "pharmacy-2312",
    "label": "Pod Koroną",
    "address": "ul. Górna Wilda 107",
    "city": "Poznań",
    "longitude": 16.9218547,
    "latitude": 52.3936912,
    "description": []
  },
  {
    "id": "pharmacy-2314",
    "label": "Apteka Wielkopolska",
    "address": "ul. Grochowska 116",
    "city": "Poznań",
    "longitude": 16.8757129,
    "latitude": 52.407421,
    "description": [
      "Pon.-Pt. 08:00-20:00",
      "Sob. 08:00-14:00",
      "Niedz. zamknięta"
    ]
  },
  {
    "id": "pharmacy-2315",
    "label": "Pod Koroną",
    "address": "ul. Grochowska 48",
    "city": "Poznań",
    "longitude": 16.8762416,
    "latitude": 52.4008655,
    "description": []
  },
  {
    "id": "pharmacy-2316",
    "label": "Grochowska",
    "address": "ul. Grochowska 49",
    "city": "Poznań",
    "longitude": 16.875422,
    "latitude": 52.4000129,
    "description": []
  },
  {
    "id": "pharmacy-2317",
    "label": "Dom Leków",
    "address": "ul. Grochowska 83/85",
    "city": "Poznań",
    "longitude": 16.875061,
    "latitude": 52.4049181,
    "description": [
      "Pon.-Pt. 08:00-20:00",
      "Sob. 08:00-15:00",
      "Niedz. zamknięta"
    ]
  },
  {
    "id": "pharmacy-2318",
    "label": "Gronowa",
    "address": "ul. Gronowa 61",
    "city": "Poznań",
    "longitude": 16.9339146,
    "latitude": 52.4294954,
    "description": []
  },
  {
    "id": "pharmacy-2319",
    "label": "Kaja",
    "address": "ul. Grunwaldzka 138",
    "city": "Poznań",
    "longitude": 16.863284,
    "latitude": 52.3954718,
    "description": []
  },
  {
    "id": "pharmacy-232",
    "label": "Apteka Medkon",
    "address": "ul. Franciszka Morawskiego 2B",
    "city": "Poznań",
    "longitude": 16.8946854000001,
    "latitude": 52.3943513,
    "description": [
      "Pon.-Pt. 08:00-20:00",
      "Sob. 09:00-14:00",
      "Niedz. zamknięta"
    ]
  },
  {
    "id": "pharmacy-2320",
    "label": "Grunwaldzkie Centrum Leków",
    "address": "ul. Grunwaldzka 15",
    "city": "Poznań",
    "longitude": 16.8988239,
    "latitude": 52.405325,
    "description": []
  },
  {
    "id": "pharmacy-2321",
    "label": "Viola",
    "address": "ul. Grunwaldzka 244",
    "city": "Poznań",
    "longitude": 16.8496929,
    "latitude": 52.388216,
    "description": []
  },
  {
    "id": "pharmacy-2322",
    "label": "Botaniqa",
    "address": "ul. Grunwaldzka 31C",
    "city": "Poznań",
    "longitude": 16.894779,
    "latitude": 52.404227,
    "description": []
  },
  {
    "id": "pharmacy-2323",
    "label": "Apteka",
    "address": "ul. Grunwaldzka 374",
    "city": "Poznań",
    "longitude": 16.830965,
    "latitude": 52.381298,
    "description": []
  },
  {
    "id": "pharmacy-2324",
    "label": "Apteka \"Grunwaldzka\"",
    "address": "ul. Grunwaldzka 99",
    "city": "Poznań",
    "longitude": 16.870264,
    "latitude": 52.397835,
    "description": []
  },
  {
    "id": "pharmacy-2325",
    "label": "Dom Leków",
    "address": "ul. Gwarna 5/2",
    "city": "Poznań",
    "longitude": 16.9209665999999,
    "latitude": 52.4076192,
    "description": []
  },
  {
    "id": "pharmacy-2328",
    "label": "Verus",
    "address": "ul. Henryka Łowmiańskiego 2",
    "city": "Poznań",
    "longitude": 16.9154558,
    "latitude": 52.4490965,
    "description": []
  },
  {
    "id": "pharmacy-2329",
    "label": "Hibiscus",
    "address": "ul. Hetmańska 104",
    "city": "Poznań",
    "longitude": 16.9182299,
    "latitude": 52.383717,
    "description": []
  },
  {
    "id": "pharmacy-233",
    "label": "Apteka Medkon",
    "address": "ul. Stróżyńskiego 13",
    "city": "Poznań",
    "longitude": 16.9043449000001,
    "latitude": 52.4553139,
    "description": [
      "Pon.-Pt. 08:00-20:00",
      "Sob. 09:00-14:00",
      "Niedz. zamknięta"
    ]
  },
  {
    "id": "pharmacy-2330",
    "label": "Zdrowoteka",
    "address": "ul. Hetmańska 26",
    "city": "Poznań",
    "longitude": 16.8900559,
    "latitude": 52.3913439,
    "description": []
  },
  {
    "id": "pharmacy-2331",
    "label": "Dom Leków",
    "address": "ul. Heweliusza 1E",
    "city": "Poznań",
    "longitude": 16.8729501,
    "latitude": 52.394463,
    "description": [
      "Pon.-Pt. 08:00-22:00",
      "Sob. 08:00-18:00",
      "Niedz. 09:00-16:00"
    ]
  },
  {
    "id": "pharmacy-2332",
    "label": "Helianthus",
    "address": "ul. Horacego 27A",
    "city": "Poznań",
    "longitude": 16.877495,
    "latitude": 52.4483927,
    "description": []
  },
  {
    "id": "pharmacy-2334",
    "label": "Nasza",
    "address": "ul. J. H. Dąbrowskiego 399",
    "city": "Poznań",
    "longitude": 16.8327935,
    "latitude": 52.432568,
    "description": []
  },
  {
    "id": "pharmacy-2335",
    "label": "Serce Jeżyc",
    "address": "ul. J. H. Dąbrowskiego 51",
    "city": "Poznań",
    "longitude": 16.9042292,
    "latitude": 52.4127669,
    "description": []
  },
  {
    "id": "pharmacy-2336",
    "label": "Dom Leków",
    "address": "ul. J. H. Dąbrowskiego 57",
    "city": "Poznań",
    "longitude": 16.903854,
    "latitude": 52.4127856,
    "description": [
      "Pon.-Pt. 07:00-21:00",
      "Sob. 08:00-18:00",
      "Niedz. 10:00-16:00"
    ]
  },
  {
    "id": "pharmacy-2337",
    "label": "Apteka Szarotka",
    "address": "ul. Dąbrowskiego 66",
    "city": "Poznań",
    "longitude": 16.9011356,
    "latitude": 52.4130336,
    "description": [
      "Pon.-Pt. 08:00-20:00",
      "Sob. 09:00-14:00",
      "Niedz. zamknięta"
    ]
  },
  {
    "id": "pharmacy-2338",
    "label": "Akademicka",
    "address": "ul. J. H. Dąbrowskiego 79",
    "city": "Poznań",
    "longitude": 16.8997998,
    "latitude": 52.4139317,
    "description": []
  },
  {
    "id": "pharmacy-2339",
    "label": "DOZ Apteka Dbam o Zdrowie Farmacjanna",
    "address": "ul. Jana Keplera 1/2B",
    "city": "Poznań",
    "longitude": 16.864244,
    "latitude": 52.390592,
    "description": [
      "Pon.-Pt. 08:00-20:00",
      "Sob. 08:00-16:00",
      "Niedz. 09:00-14:00"
    ]
  },
  {
    "id": "pharmacy-234",
    "label": "Apteka Medkon",
    "address": "ul. Blacharska 2",
    "city": "Poznań",
    "longitude": 16.9684469,
    "latitude": 52.420428,
    "description": [
      "Pon.-Pt. 08:00-20:00",
      "Sob. 09:00-14:00",
      "Niedz. zamknięta"
    ]
  },
  {
    "id": "pharmacy-2340",
    "label": "Przy Matejki",
    "address": "ul. Jana Matejki 2",
    "city": "Poznań",
    "longitude": 16.9002126,
    "latitude": 52.4052328,
    "description": []
  },
  {
    "id": "pharmacy-2341",
    "label": "Nova",
    "address": "ul. Jana Ostroroga 36",
    "city": "Poznań",
    "longitude": 16.88097,
    "latitude": 52.404136,
    "description": []
  },
  {
    "id": "pharmacy-2342",
    "label": "Verus",
    "address": "ul. Jesionowa 25",
    "city": "Poznań",
    "longitude": 16.8962779,
    "latitude": 52.367406,
    "description": []
  },
  {
    "id": "pharmacy-2343",
    "label": "Apteka Zielona",
    "address": "ul. Jeżycka 44",
    "city": "Poznań",
    "longitude": 16.9117849,
    "latitude": 52.4146969,
    "description": []
  },
  {
    "id": "pharmacy-2344",
    "label": "Panorama 2",
    "address": "ul. Józefa Łukaszewicza 43",
    "city": "Poznań",
    "longitude": 16.903017,
    "latitude": 52.3902834,
    "description": []
  },
  {
    "id": "pharmacy-2345",
    "label": "Apteka Jeżycka",
    "address": "ul. Juliusza Słowackiego 50",
    "city": "Poznań",
    "longitude": 16.9037593,
    "latitude": 52.4114987,
    "description": []
  },
  {
    "id": "pharmacy-2346",
    "label": "Junikowska",
    "address": "ul. Junikowska 13",
    "city": "Poznań",
    "longitude": 16.8455619,
    "latitude": 52.3853796,
    "description": []
  },
  {
    "id": "pharmacy-2347",
    "label": "Lutycka",
    "address": "ul. Juraszów 7",
    "city": "Poznań",
    "longitude": 16.9085335,
    "latitude": 52.4401403,
    "description": []
  },
  {
    "id": "pharmacy-2348",
    "label": "Apteka Wielkopolska",
    "address": "ul. Kącik 5",
    "city": "Poznań",
    "longitude": 16.9020077,
    "latitude": 52.3936963,
    "description": [
      "Pon.-Pt. 07:00-20:00",
      "Sob. 08:00-14:00",
      "Niedz. zamknięta"
    ]
  },
  {
    "id": "pharmacy-235",
    "label": "Apteka Medkon",
    "address": "ul. Milczańska 1",
    "city": "Poznań",
    "longitude": 16.9625012,
    "latitude": 52.3959195,
    "description": [
      "Pon.-Pt. 08:00-20:00",
      "Sob. 09:00-14:00",
      "Niedz. zamknięta"
    ]
  },
  {
    "id": "pharmacy-2352",
    "label": "Bolesława Chrobrego",
    "address": "ul. Karola Kurpińskiego paw. L",
    "city": "Poznań",
    "longitude": 16.9113988,
    "latitude": 52.4502105,
    "description": []
  },
  {
    "id": "pharmacy-2354",
    "label": "Apteka Agatom",
    "address": "ul. Katowicka 35",
    "city": "Poznań",
    "longitude": 16.9622038,
    "latitude": 52.3980585,
    "description": []
  },
  {
    "id": "pharmacy-2355",
    "label": "Agatom Ii",
    "address": "ul. Katowicka 55",
    "city": "Poznań",
    "longitude": 16.9620587,
    "latitude": 52.3976393,
    "description": []
  },
  {
    "id": "pharmacy-2357",
    "label": "Pod Słońcem",
    "address": "ul. Keplera 1",
    "city": "Poznań",
    "longitude": 16.864489,
    "latitude": 52.390483,
    "description": []
  },
  {
    "id": "pharmacy-2359",
    "label": "Apteka Wielkolpolska",
    "address": "ul. Kórnicka 24",
    "city": "Poznań",
    "longitude": 16.9501294,
    "latitude": 52.399597,
    "description": [
      "Pon.-Pt. 08:00-20:00",
      "Sob. 08:00-15:00",
      "Niedz. zamknięta"
    ]
  },
  {
    "id": "pharmacy-236",
    "label": "Apteka Medkon",
    "address": "ul. Słowiańska 36",
    "city": "Poznań",
    "longitude": 16.9250509999999,
    "latitude": 52.427906,
    "description": [
      "Pon.-Pt. 08:00-20:00",
      "Sob. 09:00-14:00",
      "Niedz. zamknięta"
    ]
  },
  {
    "id": "pharmacy-2361",
    "label": "Dworska",
    "address": "ul. Kościelna 39C 19",
    "city": "Poznań",
    "longitude": 16.9056464,
    "latitude": 52.4163005,
    "description": []
  },
  {
    "id": "pharmacy-2362",
    "label": "Apteka św. Jadwigi",
    "address": "ul. Kosińskiego 28",
    "city": "Poznań",
    "longitude": 16.9159784999999,
    "latitude": 52.388913,
    "description": []
  },
  {
    "id": "pharmacy-2363",
    "label": "Przyjazna",
    "address": "ul. Kostrzyńska 5",
    "city": "Poznań",
    "longitude": 16.9863603,
    "latitude": 52.4105292,
    "description": []
  },
  {
    "id": "pharmacy-2364",
    "label": "Kosynierska",
    "address": "ul. Kosynierska 6 8",
    "city": "Poznań",
    "longitude": 16.8884036,
    "latitude": 52.3857919,
    "description": []
  },
  {
    "id": "pharmacy-2365",
    "label": "Apteka Różana",
    "address": "ul. Książęca 1A",
    "city": "Poznań",
    "longitude": 16.930537,
    "latitude": 52.3669109,
    "description": [
      "Pon.-Pt. 08:00-20:00",
      "Sob. 08:00-14:00",
      "Niedz. zamknięta"
    ]
  },
  {
    "id": "pharmacy-2369",
    "label": "Apteka",
    "address": "ul. Leszczyńska 170",
    "city": "Poznań",
    "longitude": 16.8810895,
    "latitude": 52.3595886,
    "description": []
  },
  {
    "id": "pharmacy-237",
    "label": "Apteka św. Kamila",
    "address": "ul. Toruńska 23",
    "city": "Poznań",
    "longitude": 16.9835611,
    "latitude": 52.4122897,
    "description": [
      "Pon.-Pt. 08:00-20:00",
      "Sob. 08:00-14:00",
      "Niedz. 09:30-13:30"
    ]
  },
  {
    "id": "pharmacy-2370",
    "label": "Leszczyńska",
    "address": "ul. Leszczyńska 3-5",
    "city": "Poznań",
    "longitude": 16.8804099,
    "latitude": 52.3771689,
    "description": []
  },
  {
    "id": "pharmacy-2372",
    "label": "Literacka",
    "address": "ul. Literacka 43",
    "city": "Poznań",
    "longitude": 16.874279,
    "latitude": 52.4451114,
    "description": []
  },
  {
    "id": "pharmacy-2374",
    "label": "Apteka Na Warszawskim",
    "address": "ul. Łomżyńska 3",
    "city": "Poznań",
    "longitude": 16.985691,
    "latitude": 52.409095,
    "description": [
      "Pon.-Pt. 08:00-20:00",
      "Sob. 08:00-15:00",
      "Niedz. 09:00-14:00"
    ]
  },
  {
    "id": "pharmacy-2375",
    "label": "Apteka na Tarasie",
    "address": "ul. Łozowa 92",
    "city": "Poznań",
    "longitude": 16.9072768999999,
    "latitude": 52.3645981,
    "description": [
      "Pon.-Pt. 08:00-19:00",
      "Sob. 08:00-14:00",
      "Niedz. zamknięta"
    ]
  },
  {
    "id": "pharmacy-2376",
    "label": "Apteka św. Kamila",
    "address": "ul. Ludwika Zamenhofa 133 6B",
    "city": "Poznań",
    "longitude": 16.9460433,
    "latitude": 52.3824011,
    "description": []
  },
  {
    "id": "pharmacy-2377",
    "label": "Promienna",
    "address": "ul. M. Palacza 96",
    "city": "Poznań",
    "longitude": 16.8763436,
    "latitude": 52.3920758,
    "description": []
  },
  {
    "id": "pharmacy-2378",
    "label": "Na Zawadach",
    "address": "ul. Małachowskiego 27 1N",
    "city": "Poznań",
    "longitude": 16.9597988,
    "latitude": 52.4132691,
    "description": []
  },
  {
    "id": "pharmacy-2379",
    "label": "Super-Pharm",
    "address": "ul. Maltańska 1",
    "city": "Poznań",
    "longitude": 16.9597142,
    "latitude": 52.4016408,
    "description": [
      "Pon.-Pt. 09:00-22:00",
      "Sob. 09:00-22:00",
      "Niedz. 10:00-20:00"
    ]
  },
  {
    "id": "pharmacy-238",
    "label": "Apteka św. Kamila",
    "address": "ul. Mogileńska 10/35",
    "city": "Poznań",
    "longitude": 16.9923189,
    "latitude": 52.408893,
    "description": [
      "Pon.-Pt. 08:00-21:00",
      "Sob. 09:00-15:00",
      "Niedz. zamknięta"
    ]
  },
  {
    "id": "pharmacy-2380",
    "label": "Apteka Marcelin",
    "address": "ul. Marcelińska 102/200",
    "city": "Poznań",
    "longitude": 16.858877,
    "latitude": 52.4045105,
    "description": [
      "Pon.-Pt. 08:00-20:00",
      "Sob. 08:00-14:00",
      "Niedz. zamknięta"
    ]
  },
  {
    "id": "pharmacy-2381",
    "label": "Marcelinska",
    "address": "ul. Marcelińska 23",
    "city": "Poznań",
    "longitude": 16.8908241,
    "latitude": 52.4057496,
    "description": []
  },
  {
    "id": "pharmacy-2382",
    "label": "Verus",
    "address": "ul. Marcina Kasprzaka 16",
    "city": "Poznań",
    "longitude": 16.8948799,
    "latitude": 52.3936038,
    "description": []
  },
  {
    "id": "pharmacy-2385",
    "label": "Pod Dębem",
    "address": "ul. Matejki 56",
    "city": "Poznań",
    "longitude": 16.8999452,
    "latitude": 52.4003044,
    "description": []
  },
  {
    "id": "pharmacy-2387",
    "label": "Synergis",
    "address": "ul. Międzychodzka 7 101",
    "city": "Poznań",
    "longitude": 16.8776825,
    "latitude": 52.4062423,
    "description": []
  },
  {
    "id": "pharmacy-2388",
    "label": "Apteka Miodowa",
    "address": "ul. Miodowa 4",
    "city": "Poznań",
    "longitude": 16.8773722,
    "latitude": 52.4128793,
    "description": []
  },
  {
    "id": "pharmacy-2389",
    "label": "Melissa Bis",
    "address": "ul. Morawskiego 1",
    "city": "Poznań",
    "longitude": 16.8954766,
    "latitude": 52.3940791,
    "description": []
  },
  {
    "id": "pharmacy-239",
    "label": "Apteka św. Kamila",
    "address": "ul. Grudzińskiego 7/3",
    "city": "Swarzędz",
    "longitude": 17.080546,
    "latitude": 52.413723,
    "description": [
      "Pon.-Pt. 08:00-20:00",
      "Sob. 09:00-15:00",
      "Niedz. zamknięta"
    ]
  },
  {
    "id": "pharmacy-2390",
    "label": "Piastów",
    "address": "ul. Mścibora 67",
    "city": "Poznań",
    "longitude": 17.0151329,
    "latitude": 52.4072039,
    "description": []
  },
  {
    "id": "pharmacy-2391",
    "label": "Farmasol",
    "address": "ul. Muszkowska 1",
    "city": "Poznań",
    "longitude": 16.8265721,
    "latitude": 52.4341486,
    "description": []
  },
  {
    "id": "pharmacy-2392",
    "label": "Dom Leków",
    "address": "ul. Naramowicka 164",
    "city": "Poznań",
    "longitude": 16.9486142,
    "latitude": 52.4503802,
    "description": [
      "Pon.-Pt. 08:00-21:00",
      "Sob. 08:00-18:00",
      "Niedz. 09:00-15:00"
    ]
  },
  {
    "id": "pharmacy-2393",
    "label": "Apteka Naramowicka Plewa Szafran Spółka Jawna",
    "address": "ul. Naramowicka 172",
    "city": "Poznań",
    "longitude": 16.9476137,
    "latitude": 52.4479234,
    "description": []
  },
  {
    "id": "pharmacy-2394",
    "label": "Pharmacon",
    "address": "ul. Naramowicka 176",
    "city": "Poznań",
    "longitude": 16.9481778,
    "latitude": 52.4524321,
    "description": []
  },
  {
    "id": "pharmacy-2395",
    "label": "Żeń-Szeń",
    "address": "ul. Newtona 14",
    "city": "Poznań",
    "longitude": 16.8652746,
    "latitude": 52.3848132,
    "description": []
  },
  {
    "id": "pharmacy-2396",
    "label": "Łazarska",
    "address": "ul. Niegolewskich 7",
    "city": "Poznań",
    "longitude": 16.8992118,
    "latitude": 52.395256,
    "description": []
  },
  {
    "id": "pharmacy-2400",
    "label": "Apteka Dla Ciebie",
    "address": "ul. Ognik 18",
    "city": "Poznań",
    "longitude": 16.8694076,
    "latitude": 52.4067208,
    "description": []
  },
  {
    "id": "pharmacy-2401",
    "label": "Avena",
    "address": "ul. Opolska 17",
    "city": "Poznań",
    "longitude": 16.8992359,
    "latitude": 52.3690469,
    "description": []
  },
  {
    "id": "pharmacy-2402",
    "label": "Apteki Arnika",
    "address": "ul. Opolska 24",
    "city": "Poznań",
    "longitude": 16.900932,
    "latitude": 52.370784,
    "description": []
  },
  {
    "id": "pharmacy-2403",
    "label": "Słoneczna",
    "address": "ul. Orężna 13",
    "city": "Poznań",
    "longitude": 16.8824435,
    "latitude": 52.399278,
    "description": []
  },
  {
    "id": "pharmacy-2404",
    "label": "Apteka Wielkopolska",
    "address": "ul. Osinowa 14/16",
    "city": "Poznań",
    "longitude": 16.9098275,
    "latitude": 52.3676055,
    "description": [
      "Pon.-Pt. 08:30-18:00",
      "Sob. 09:00-13:00",
      "Niedz. zamknięta"
    ]
  },
  {
    "id": "pharmacy-2405",
    "label": "Apteka",
    "address": "ul. Ostatnia 45 1",
    "city": "Poznań",
    "longitude": 16.8749527,
    "latitude": 52.3718053,
    "description": []
  },
  {
    "id": "pharmacy-2406",
    "label": "Osiedlowa",
    "address": "ul. Paczkowska 2A",
    "city": "Poznań",
    "longitude": 16.831698,
    "latitude": 52.381859,
    "description": []
  },
  {
    "id": "pharmacy-2407",
    "label": "Kaja",
    "address": "ul. Palacza 141 143",
    "city": "Poznań",
    "longitude": 16.869895,
    "latitude": 52.395111,
    "description": []
  },
  {
    "id": "pharmacy-2409",
    "label": "Studencka",
    "address": "ul. Piątkowska 94",
    "city": "Poznań",
    "longitude": 16.9180011,
    "latitude": 52.4308268,
    "description": []
  },
  {
    "id": "pharmacy-2411",
    "label": "Zdrowie",
    "address": "ul. Piotra Ściegiennego 50",
    "city": "Poznań",
    "longitude": 16.8775886,
    "latitude": 52.3885461,
    "description": []
  },
  {
    "id": "pharmacy-2412",
    "label": "Apteka Wasza",
    "address": "ul. Piotra Tomickiego 35",
    "city": "Poznań",
    "longitude": 16.9613297,
    "latitude": 52.4126684,
    "description": []
  },
  {
    "id": "pharmacy-2416",
    "label": "Super-Pharm",
    "address": "ul. Półwiejska 42 lokal 226 (ATRIUM)",
    "city": "Poznań",
    "longitude": 16.927945,
    "latitude": 52.401375,
    "description": [
      "Pon.-Pt. 09:00-21:00",
      "Sob. 09:00-21:00",
      "Niedz. 10:00-20:00"
    ]
  },
  {
    "id": "pharmacy-2419",
    "label": "Apteka Gemini",
    "address": "ul. Półwiejska 5",
    "city": "Poznań",
    "longitude": 16.931106,
    "latitude": 52.4045488,
    "description": [
      "Pon.-Pt. 08:00-20:00",
      "Sob. 09:00-18:00",
      "Niedz. zamknięta"
    ]
  },
  {
    "id": "pharmacy-2421",
    "label": "Koniczynka",
    "address": "ul. Powstańców Wlkp. 14B",
    "city": "Poznań",
    "longitude": 16.922086,
    "latitude": 52.40448,
    "description": []
  },
  {
    "id": "pharmacy-2425",
    "label": "U Piotra i Pawła",
    "address": "ul. Promienista 160",
    "city": "Poznań",
    "longitude": 16.864105,
    "latitude": 52.386812,
    "description": []
  },
  {
    "id": "pharmacy-2427",
    "label": "Apteka",
    "address": "ul. Przybyszewskiego 49",
    "city": "Poznań",
    "longitude": 16.887139,
    "latitude": 52.4034276,
    "description": []
  },
  {
    "id": "pharmacy-2429",
    "label": "Różany Potok",
    "address": "ul. Romana Drewsa 1",
    "city": "Poznań",
    "longitude": 16.9385601,
    "latitude": 52.4675035,
    "description": []
  },
  {
    "id": "pharmacy-2430",
    "label": "Apteka Iluminata 2",
    "address": "ul. Rubież 14 40",
    "city": "Poznań",
    "longitude": 16.9499116,
    "latitude": 52.4480162,
    "description": []
  },
  {
    "id": "pharmacy-2431",
    "label": "Apteka Bajkowa",
    "address": "ul. Rumcajsa 2A",
    "city": "Poznań",
    "longitude": 16.8329105,
    "latitude": 52.4105332,
    "description": []
  },
  {
    "id": "pharmacy-2432",
    "label": "Apteka Św. Kosmy i Damiana",
    "address": "ul. Rusa 57",
    "city": "Poznań",
    "longitude": 16.9841842,
    "latitude": 52.3880222,
    "description": []
  },
  {
    "id": "pharmacy-2433",
    "label": "Rycerska",
    "address": "ul. Rycerska 35A",
    "city": "Poznań",
    "longitude": 16.871599,
    "latitude": 52.402879,
    "description": []
  },
  {
    "id": "pharmacy-2435",
    "label": "Dla Ciebie",
    "address": "ul. Rynek Łazarski 1 18",
    "city": "Poznań",
    "longitude": 16.8998059,
    "latitude": 52.394529,
    "description": []
  },
  {
    "id": "pharmacy-2436",
    "label": "Rosa",
    "address": "ul. Rynek Łazarski 2 1",
    "city": "Poznań",
    "longitude": 16.900111,
    "latitude": 52.394583,
    "description": []
  },
  {
    "id": "pharmacy-2437",
    "label": "Rosa",
    "address": "ul. Rynek Łazarski 7",
    "city": "Poznań",
    "longitude": 16.9022517,
    "latitude": 52.3949278,
    "description": []
  },
  {
    "id": "pharmacy-2438",
    "label": "Literacka",
    "address": "ul. Rzeszowska 1A",
    "city": "Poznań",
    "longitude": 16.8505447,
    "latitude": 52.4532646,
    "description": []
  },
  {
    "id": "pharmacy-2439",
    "label": "Nasza",
    "address": "ul. S. Przybyszewskiego 49",
    "city": "Poznań",
    "longitude": 16.887139,
    "latitude": 52.4034276,
    "description": []
  },
  {
    "id": "pharmacy-2440",
    "label": "Piotra i Pawła",
    "address": "ul. Sarmacka 15",
    "city": "Poznań",
    "longitude": 16.940376,
    "latitude": 52.4455449,
    "description": []
  },
  {
    "id": "pharmacy-2441",
    "label": "Raszyńska",
    "address": "ul. Ściegiennego 65",
    "city": "Poznań",
    "longitude": 16.874691,
    "latitude": 52.3899767,
    "description": []
  },
  {
    "id": "pharmacy-2444",
    "label": "Apteka Wielkolpolska",
    "address": "ul. Serbska 7",
    "city": "Poznań",
    "longitude": 16.9505716,
    "latitude": 52.4314015,
    "description": [
      "Pon.-Pt. 08:00-21:00",
      "Sob. 08:00-21:00",
      "Niedz. 10:00-18:00"
    ]
  },
  {
    "id": "pharmacy-2445",
    "label": "Krzyzowniki",
    "address": "ul. Sianowska 151A",
    "city": "Poznań",
    "longitude": 16.8095282,
    "latitude": 52.4349238,
    "description": []
  },
  {
    "id": "pharmacy-2446",
    "label": "Pod Jemiołą",
    "address": "ul. Sielska 32",
    "city": "Poznań",
    "longitude": 16.8843676,
    "latitude": 52.3860334,
    "description": []
  },
  {
    "id": "pharmacy-2447",
    "label": "Na Szczepankowie",
    "address": "ul. Skibowa 11",
    "city": "Poznań",
    "longitude": 17.008242,
    "latitude": 52.3636319,
    "description": []
  },
  {
    "id": "pharmacy-2448",
    "label": "Apteka Szczepankowo",
    "address": "ul. Skibowa 15C",
    "city": "Poznań",
    "longitude": 17.010217,
    "latitude": 52.3650619,
    "description": []
  },
  {
    "id": "pharmacy-2449",
    "label": "Skibowa",
    "address": "ul. Skibowa 16",
    "city": "Poznań",
    "longitude": 17.009718,
    "latitude": 52.3638009,
    "description": []
  },
  {
    "id": "pharmacy-2450",
    "label": "Libra",
    "address": "ul. Słowackiego 26/28",
    "city": "Poznań",
    "longitude": 16.907406,
    "latitude": 52.410761,
    "description": []
  },
  {
    "id": "pharmacy-2451",
    "label": "Puls",
    "address": "ul. Słowackiego 8",
    "city": "Poznań",
    "longitude": 16.9117536,
    "latitude": 52.4098001,
    "description": []
  },
  {
    "id": "pharmacy-2452",
    "label": "O.K. Apteka",
    "address": "ul. Słowiańska 38H",
    "city": "Poznań",
    "longitude": 16.9262551,
    "latitude": 52.428294,
    "description": [
      "Pon.-Pt. 08:00-22:00",
      "Sob. 09:00-18:00",
      "Niedz. 09:00-18:00"
    ]
  },
  {
    "id": "pharmacy-2453",
    "label": "Prima",
    "address": "ul. Słowiańska 53B L1",
    "city": "Poznań",
    "longitude": 16.9342927,
    "latitude": 52.4313954,
    "description": []
  },
  {
    "id": "pharmacy-2454",
    "label": "Przy Parku Wilsona",
    "address": "ul. Śniadeckich 1",
    "city": "Poznań",
    "longitude": 16.9046797,
    "latitude": 52.3996939,
    "description": []
  },
  {
    "id": "pharmacy-2455",
    "label": "Kwiaty Polne",
    "address": "ul. Sokoła 24",
    "city": "Poznań",
    "longitude": 16.9121186,
    "latitude": 52.4258624,
    "description": []
  },
  {
    "id": "pharmacy-2456",
    "label": "Hebeapteka",
    "address": "ul. Sokoła 26",
    "city": "Poznań",
    "longitude": 16.9117623,
    "latitude": 52.4263224,
    "description": [
      "Pon.-Pt. 08:00-21:00",
      "Sob. 08:00-19:00",
      "Niedz. 09:00-15:00"
    ]
  },
  {
    "id": "pharmacy-2457",
    "label": "Apteka Wielkopolska",
    "address": "Aleje Solidarności 42",
    "city": "Poznań",
    "longitude": 16.927449,
    "latitude": 52.435125,
    "description": [
      "Pon.-Pt. 07:00-21:00",
      "Sob. 08:00-21:00",
      "Niedz. 09:00-20:00"
    ]
  },
  {
    "id": "pharmacy-2458",
    "label": "Solna",
    "address": "ul. Solna 21",
    "city": "Poznań",
    "longitude": 16.924591,
    "latitude": 52.412625,
    "description": []
  },
  {
    "id": "pharmacy-2461",
    "label": "Apteka",
    "address": "ul. Sporna 16",
    "city": "Poznań",
    "longitude": 16.92106,
    "latitude": 52.4149495,
    "description": []
  },
  {
    "id": "pharmacy-2462",
    "label": "Pod Smokiem",
    "address": "ul. Średnia 1",
    "city": "Poznań",
    "longitude": 16.9703549,
    "latitude": 52.4216766,
    "description": []
  },
  {
    "id": "pharmacy-2467",
    "label": "Super-Pharm",
    "address": "ul. Stanisława Matyi 2",
    "city": "Poznań",
    "longitude": 16.914074,
    "latitude": 52.402447,
    "description": [
      "Pon.-Pt. 09:00-21:00",
      "Sob. 08:00-21:00",
      "Niedz. 09:00-20:00"
    ]
  },
  {
    "id": "pharmacy-2468",
    "label": "Przyjazna",
    "address": "ul. Starołęcka 42",
    "city": "Poznań",
    "longitude": 16.933129,
    "latitude": 52.3698703,
    "description": []
  },
  {
    "id": "pharmacy-2469",
    "label": "Pod Białym Orłem",
    "address": "ul. Stary Rynek 42 43",
    "city": "Poznań",
    "longitude": 16.9334271,
    "latitude": 52.40767,
    "description": []
  },
  {
    "id": "pharmacy-2470",
    "label": "Pod Złotym Lwem",
    "address": "ul. Stary Rynek 75",
    "city": "Poznań",
    "longitude": 16.9325209,
    "latitude": 52.4081399,
    "description": []
  },
  {
    "id": "pharmacy-2471",
    "label": "Apteka",
    "address": "ul. Strzelecka 2 6",
    "city": "Poznań",
    "longitude": 16.9313839,
    "latitude": 52.4047829,
    "description": []
  },
  {
    "id": "pharmacy-2472",
    "label": "Remedium",
    "address": "ul. Strzeszyńska 139",
    "city": "Poznań",
    "longitude": 16.8848511,
    "latitude": 52.4537646,
    "description": []
  },
  {
    "id": "pharmacy-2474",
    "label": "Z Sercem",
    "address": "ul. Strzeszyńska 63",
    "city": "Poznań",
    "longitude": 16.8940959,
    "latitude": 52.4488077,
    "description": []
  },
  {
    "id": "pharmacy-2475",
    "label": "Apteka Św. Jerzego",
    "address": "ul. Św. Jerzego 7 9",
    "city": "Poznań",
    "longitude": 16.9225649,
    "latitude": 52.3916793,
    "description": []
  },
  {
    "id": "pharmacy-2476",
    "label": "Hebeapteka",
    "address": "ul. Św. Marcin 24",
    "city": "Poznań",
    "longitude": 16.9277632,
    "latitude": 52.4061501,
    "description": [
      "Pon.-Pt. 09:00-21:00",
      "Sob. 10:00-20:00",
      "Niedz. 10:00-19:00"
    ]
  },
  {
    "id": "pharmacy-2477",
    "label": "Fontana",
    "address": "ul. Święty Marcin 23",
    "city": "Poznań",
    "longitude": 16.9262878,
    "latitude": 52.4061839,
    "description": []
  },
  {
    "id": "pharmacy-2478",
    "label": "Apteka Dyżurna",
    "address": "ul. Święty Marcin 61",
    "city": "Poznań",
    "longitude": 16.9216593,
    "latitude": 52.4067446,
    "description": [
      "Pon.-Pt. 08:00-20:00",
      "Sob. 08:00-16:00",
      "Niedz. zamknięta"
    ]
  },
  {
    "id": "pharmacy-2479",
    "label": "Słoneczna II",
    "address": "ul. Swoboda 22 24",
    "city": "Poznań",
    "longitude": 16.8723025,
    "latitude": 52.4093405,
    "description": []
  },
  {
    "id": "pharmacy-2480",
    "label": "Optima",
    "address": "ul. Szamarzewskiego 8",
    "city": "Poznań",
    "longitude": 16.9013397,
    "latitude": 52.4103436,
    "description": []
  },
  {
    "id": "pharmacy-2481",
    "label": "A i B",
    "address": "ul. Szarych Szeregów 12",
    "city": "Poznań",
    "longitude": 16.8869646,
    "latitude": 52.46266,
    "description": []
  },
  {
    "id": "pharmacy-2482",
    "label": "Melissa",
    "address": "ul. Szczepankowo 57",
    "city": "Poznań",
    "longitude": 17.0017499,
    "latitude": 52.368784,
    "description": []
  },
  {
    "id": "pharmacy-2485",
    "label": "Apteka im. I. Łukasiewicza",
    "address": "ul. Szpitalna 2",
    "city": "Poznań",
    "longitude": 16.8822504,
    "latitude": 52.4172254,
    "description": []
  },
  {
    "id": "pharmacy-2487",
    "label": "DR ZDROWIE w CH M1",
    "address": "ul. Szwajcarska 14",
    "city": "Poznań",
    "longitude": 16.9946909,
    "latitude": 52.3825512,
    "description": [
      "Pon.-Pt. 09:00-21:00",
      "Sob. 09:00-21:00",
      "Niedz. 10:00-20:00"
    ]
  },
  {
    "id": "pharmacy-2488",
    "label": "Nasza",
    "address": "ul. Szwajcarska 3",
    "city": "Poznań",
    "longitude": 16.995682,
    "latitude": 52.3897676,
    "description": []
  },
  {
    "id": "pharmacy-2489",
    "label": "Franowo",
    "address": "ul. Szwedzka 6",
    "city": "Poznań",
    "longitude": 16.9880864,
    "latitude": 52.3830864,
    "description": []
  },
  {
    "id": "pharmacy-2491",
    "label": "Alga",
    "address": "ul. Tatrzańska 1 5",
    "city": "Poznań",
    "longitude": 16.8497229,
    "latitude": 52.4295468,
    "description": []
  },
  {
    "id": "pharmacy-2492",
    "label": "Mercurius",
    "address": "ul. Trzebawska 22",
    "city": "Poznań",
    "longitude": 16.8671559,
    "latitude": 52.3701269,
    "description": []
  },
  {
    "id": "pharmacy-2493",
    "label": "Nasza",
    "address": "ul. Umultowska 32",
    "city": "Poznań",
    "longitude": 16.9275021,
    "latitude": 52.4517236,
    "description": []
  },
  {
    "id": "pharmacy-2494",
    "label": "Apteka \"Komandoria\" p.w. św. Jana Jerozolimskiego",
    "address": "ul. Warszawska 47",
    "city": "Poznań",
    "longitude": 16.968296,
    "latitude": 52.4094429,
    "description": []
  },
  {
    "id": "pharmacy-2495",
    "label": "Koniczynka",
    "address": "ul. Wergiliusza 2C",
    "city": "Poznań",
    "longitude": 16.874896,
    "latitude": 52.445588,
    "description": []
  },
  {
    "id": "pharmacy-2496",
    "label": "Wichrowa",
    "address": "ul. Wichrowa 1A",
    "city": "Poznań",
    "longitude": 16.8088549,
    "latitude": 52.43141,
    "description": []
  },
  {
    "id": "pharmacy-2499",
    "label": "Bliska Sercu",
    "address": "ul. Wierzbięcice 25",
    "city": "Poznań",
    "longitude": 16.920991,
    "latitude": 52.396539,
    "description": []
  },
  {
    "id": "pharmacy-2501",
    "label": "Wilczak",
    "address": "ul. Wilczak 12",
    "city": "Poznań",
    "longitude": 16.950416,
    "latitude": 52.4288869,
    "description": []
  },
  {
    "id": "pharmacy-2503",
    "label": "Ab - Lek",
    "address": "ul. Wojska Polskiego 6 8",
    "city": "Poznań",
    "longitude": 16.9087019,
    "latitude": 52.4247979,
    "description": []
  },
  {
    "id": "pharmacy-2504",
    "label": "Betula",
    "address": "ul. Wojskowa 3B",
    "city": "Poznań",
    "longitude": 16.892578,
    "latitude": 52.400464,
    "description": []
  },
  {
    "id": "pharmacy-2505",
    "label": "Familijna",
    "address": "ul. Wójtowska 34A",
    "city": "Poznań",
    "longitude": 16.939633,
    "latitude": 52.429718,
    "description": []
  },
  {
    "id": "pharmacy-2506",
    "label": "Apteka na Starówce",
    "address": "ul. Wrocławska 20",
    "city": "Poznań",
    "longitude": 16.9325847,
    "latitude": 52.4058797,
    "description": [
      "Pon.-Pt. 08:00-20:00",
      "Sob. 10:00-18:00",
      "Niedz. 10:00-18:00"
    ]
  },
  {
    "id": "pharmacy-2508",
    "label": "Apteka 36,6 O C",
    "address": "ul. Zakopiańska 37",
    "city": "Poznań",
    "longitude": 16.8854839,
    "latitude": 52.4491275,
    "description": []
  },
  {
    "id": "pharmacy-2509",
    "label": "Zakopiańska",
    "address": "ul. Zakopiańska 66",
    "city": "Poznań",
    "longitude": 16.883387,
    "latitude": 52.451411,
    "description": []
  },
  {
    "id": "pharmacy-2510",
    "label": "Apteka Pod Jemiołą",
    "address": "ul. Zdobywców Monte Cassino 54",
    "city": "Poznań",
    "longitude": 16.9545305,
    "latitude": 52.4373552,
    "description": []
  },
  {
    "id": "pharmacy-2511",
    "label": "Orchidea",
    "address": "ul. Zgoda 30B",
    "city": "Poznań",
    "longitude": 16.8800059,
    "latitude": 52.381651,
    "description": []
  },
  {
    "id": "pharmacy-2512",
    "label": "Apteka111",
    "address": "ul. Ziębicka 19",
    "city": "Poznań",
    "longitude": 16.8443841,
    "latitude": 52.384186,
    "description": []
  },
  {
    "id": "pharmacy-2513",
    "label": "Złotowska",
    "address": "ul. Złotowska 21",
    "city": "Poznań",
    "longitude": 16.8283567,
    "latitude": 52.4112664,
    "description": []
  },
  {
    "id": "pharmacy-4214",
    "label": "Apteka Centrum",
    "address": "ul. Głogowska 53",
    "city": "Poznań",
    "longitude": 16.902846,
    "latitude": 52.3975439,
    "description": []
  },
  {
    "id": "pharmacy-453",
    "label": "Apteka Dr.Max.",
    "address": "ul. Marcelińska 80",
    "city": "Poznań",
    "longitude": 16.8718878,
    "latitude": 52.4041894,
    "description": []
  },
  {
    "id": "pharmacy-454",
    "label": "Apteka Dr.Max.",
    "address": "ul. Marcinkowskiego 14",
    "city": "Poznań",
    "longitude": 16.9285607,
    "latitude": 52.4065485,
    "description": [
      "Pon.-Pt. 08:00-21:00",
      "Sob. 09:00-21:00",
      "Niedz. 10:00-20:00"
    ]
  },
  {
    "id": "pharmacy-455",
    "label": "Apteka Dr.Max.",
    "address": "ul. Głogowska 120",
    "city": "Poznań",
    "longitude": 16.8933145,
    "latitude": 52.3893842,
    "description": []
  },
  {
    "id": "pharmacy-456",
    "label": "Apteka Dr.Max.",
    "address": "ul. Piątkowska 87a",
    "city": "Poznań",
    "longitude": 16.91633,
    "latitude": 52.4284644,
    "description": []
  },
  {
    "id": "pharmacy-457",
    "label": "Apteka Dr.Max.",
    "address": "ul. Gwarna 9",
    "city": "Poznań",
    "longitude": 16.921059,
    "latitude": 52.4079211,
    "description": [
      "Pon.-Pt. 08:00-20:00",
      "Sob. 09:00-16:00"
    ]
  },
  {
    "id": "pharmacy-458",
    "label": "Apteka Dr.Max.",
    "address": "ul. Garbary 5",
    "city": "Poznań",
    "longitude": 16.9358699,
    "latitude": 52.401345,
    "description": [
      "Pon.-Pt. 07:30-19:00",
      "Sob. 08:00-13:00"
    ]
  },
  {
    "id": "pharmacy-459",
    "label": "Apteka Dr.Max.",
    "address": "ul. Starołęcka 79",
    "city": "Poznań",
    "longitude": 16.9278109,
    "latitude": 52.3645409,
    "description": [
      "Pon.-Pt. 08:00-20:00",
      "Sob. 08:00-14:00"
    ]
  },
  {
    "id": "pharmacy-460",
    "label": "Apteka Dr.Max.",
    "address": "ul. Łukaszewicza 34/36",
    "city": "Poznań",
    "longitude": 16.902682,
    "latitude": 52.391541,
    "description": [
      "Pon.-Pt. 08:00-19:00",
      "Sob. 08:00-14:00"
    ]
  },
  {
    "id": "pharmacy-461",
    "label": "Apteka Dr.Max.",
    "address": "ul. Mickiewicza 22",
    "city": "Poznań",
    "longitude": 16.9112933,
    "latitude": 52.4107079,
    "description": [
      "Pon.-Pt. 08:00-20:00",
      "Sob. 09:00-16:00"
    ]
  },
  {
    "id": "pharmacy-54",
    "label": "EURO-APTEKA",
    "address": "ul. Górecka 30 (CH Panorama)",
    "city": "Poznań",
    "longitude": 16.8973412,
    "latitude": 52.380383,
    "description": [
      "Pon.-Sob. 10:00-21:00",
      "Niedz. 10:00-19:00"
    ]
  },
  {
    "id": "pharmacy-55",
    "label": "EURO-APTEKA",
    "address": "ul. Kraszewskiego 3",
    "city": "Poznań",
    "longitude": 16.9035352999999,
    "latitude": 52.4121547,
    "description": [
      "Pon.-Pt. 08:00-20:00",
      "Sob. 08:00-16:00",
      "Niedz. zamknięta"
    ]
  },
  {
    "id": "pharmacy-6102",
    "label": "Apteka przy Krzyżu",
    "address": "ul. Poznańska 5A",
    "city": "Daszewice",
    "longitude": 16.9550859,
    "latitude": 52.3041379,
    "description": [
      "Pon.-Pt. 08:00-21:00",
      "Sob. 08:00-14:00",
      "Niedz. zamknięta"
    ]
  },
  {
    "id": "pharmacy-6136",
    "label": "Apteka Medicover",
    "address": "ul. abpa. A. Baraniaka 88",
    "city": "Poznań",
    "longitude": 16.964209,
    "latitude": 52.40149,
    "description": [
      "Pon.-Pt. 07:30-20:00",
      "Sob. 08:00-14:00",
      "Niedz. zamknięta"
    ]
  },
  {
    "id": "pharmacy-6352",
    "label": "Apteka Sub Rosa",
    "address": "ul. Poznańska 28A, Koziegłowy",
    "city": "Poznański",
    "longitude": 16.9919966,
    "latitude": 52.4446769,
    "description": [
      "Pon.-Pt. 08:00-21:00",
      "Sob. 08:00-16:00",
      "Niedz. 08:30-13:30"
    ]
  },
  {
    "id": "pharmacy-641",
    "label": "Apteka ZiKO",
    "address": "pl. Wiosny Ludów 2",
    "city": "Poznań",
    "longitude": 16.931793,
    "latitude": 52.405488,
    "description": [
      "Pon.-Sob. 08:00-21:00",
      "Niedz. 11:00-19:00"
    ]
  },
  {
    "id": "pharmacy-6562",
    "label": "Apteka Medkon",
    "address": "ul. Naramowicka 47 (lok. 112-113)",
    "city": "Poznań",
    "longitude": 16.943617,
    "latitude": 52.431915,
    "description": [
      "Pon.-Pt. 08:00-20:00",
      "Sob. 09:00-14:00",
      "Niedz. zamknięta"
    ]
  },
  {
    "id": "pharmacy-6563",
    "label": "Apteka Medkon",
    "address": "ul. Jutrzenka 8 (lok. H1, wejście od ul. Grochowskiej)",
    "city": "Poznań",
    "longitude": 16.877351,
    "latitude": 52.410702,
    "description": [
      "Pon.-Pt. 08:00-20:00",
      "Sob. 09:00-14:00",
      "Niedz. zamknięta"
    ]
  },
  {
    "id": "pharmacy-6585",
    "label": "Apteka Gemini",
    "address": "Os. Wichrowe Wzgórze 105",
    "city": "Poznań",
    "longitude": 16.940123,
    "latitude": 52.438763,
    "description": [
      "Pon.-Pt. 07:30-20:00",
      "Sob. 08:00-17:00",
      "Niedz. 09:00-15:00"
    ]
  },
  {
    "id": "pharmacy-6604",
    "label": "Apteka DOZ Luboń",
    "address": "ul. Jana III Sobieskiego 55A",
    "city": "Luboń",
    "longitude": 16.8758969,
    "latitude": 52.3343859,
    "description": [
      "Pon.-Pt. 08:00-20:00",
      "Sob. 08:00-14:00"
    ]
  },
  {
    "id": "pharmacy-662",
    "label": "Apteka ZiKO",
    "address": "ul. Dąbrowskiego 47",
    "city": "Poznań",
    "longitude": 16.9050118,
    "latitude": 52.4125483,
    "description": [
      "Pon.-Pt. 08:00-20:00",
      "Sob. 08:00-16:00",
      "Niedz. zamknięta"
    ]
  },
  {
    "id": "pharmacy-6633",
    "label": "Apteka Wielkopolska",
    "address": "ul. Polna 40",
    "city": "Poznań",
    "longitude": 16.895295,
    "latitude": 52.410953,
    "description": [
      "Pon.-Pt. 07:00-20:00",
      "Sob. 08:00-14:00",
      "Niedz. zamknięta"
    ]
  },
  {
    "id": "pharmacy-6634",
    "label": "Apteka Wielkopolska",
    "address": "ul. Malwowa 162",
    "city": "Poznań",
    "longitude": 16.8027079999999,
    "latitude": 52.3965697,
    "description": [
      "Pon.-Pt. 08:00-21:00",
      "Sob. 09:00-21:00",
      "Niedz. 10:00-20:00"
    ]
  },
  {
    "id": "pharmacy-6658",
    "label": "Cosmedica",
    "address": "ul. Bukowska 156 lok. B604 (CH King Cross)",
    "city": "Poznań",
    "longitude": 16.8615168,
    "latitude": 52.41082,
    "description": [
      "Pon.-Pt. 09:00-21:00",
      "Sob. 09:00-21:00",
      "Niedz. 10:00-20:00"
    ]
  },
  {
    "id": "pharmacy-666",
    "label": "Apteka ZiKO",
    "address": "ul. Głogowska 83",
    "city": "Poznań",
    "longitude": 16.8996019,
    "latitude": 52.394644,
    "description": [
      "Pon.-Pt. 08:00-21:00",
      "Sob. 08:00-14:00"
    ]
  },
  {
    "id": "pharmacy-6861",
    "label": "Apteka Rodzinna Czerwonak",
    "address": "ul. Gdyńska 74",
    "city": "Czerwonak",
    "longitude": 16.9799001,
    "latitude": 52.4731669,
    "description": [
      "Pon.-Pt. 08:00-20:00",
      "Sob. 08:00-16:00",
      "Niedz. 09:00-13:00"
    ]
  },
  {
    "id": "pharmacy-7056",
    "label": "Prababka",
    "address": "ul. Babki 4c",
    "city": "Babki",
    "longitude": 16.9382770164122,
    "latitude": 52.31237785,
    "description": []
  },
  {
    "id": "pharmacy-712",
    "label": "Apteka ZiKO",
    "address": "ul. Święty Marcin 58/64",
    "city": "Poznań",
    "longitude": 16.9225122,
    "latitude": 52.4071021,
    "description": [
      "Pon.-Pt. 08:00-20:00",
      "Sob. 08:00-14:00",
      "Niedz. zamknięta"
    ]
  },
  {
    "id": "pharmacy-723",
    "label": "Apteka ZiKO",
    "address": "ul. Wierzbięcice 36",
    "city": "Poznań",
    "longitude": 16.921644,
    "latitude": 52.394965,
    "description": [
      "Pon.-Pt. 08:00-20:00",
      "Sob. 08:00-14:00"
    ]
  },
  {
    "id": "pharmacy-7239",
    "label": "Rodzinna",
    "address": "ul. Poznańska 39",
    "city": "Biedrusko",
    "longitude": 16.9445,
    "latitude": 52.5409,
    "description": [
      "Pon.-Pt. 08:30-19:00",
      "Sob. 09:00-13:00",
      "Niedz. zamknięta"
    ]
  },
  {
    "id": "pharmacy-7461",
    "label": "A-2 Borówiecka",
    "address": "ul. Szkolna 1c",
    "city": "Borówiec",
    "longitude": 17.0431,
    "latitude": 52.2797,
    "description": [
      "Pon.-Pt. 08:30-19:30",
      "Sob. 10:00-14:00",
      "Niedz. zamknięta"
    ]
  },
  {
    "id": "pharmacy-7890",
    "label": "Kormed",
    "address": "ul. Poznańska 76",
    "city": "Czapury",
    "longitude": 16.9115,
    "latitude": 52.3151,
    "description": [
      "Pon.-Pt. 08:00-19:00",
      "Sob. 09:00-14:00",
      "Niedz. zamknięta"
    ]
  },
  {
    "id": "pharmacy-7976",
    "label": "Alba Nr 4",
    "address": "ul. Leśna 1",
    "city": "Czerwonak",
    "longitude": 16.9822,
    "latitude": 52.4654,
    "description": [
      "Pon.-Pt. 08:00-21:00",
      "Sob. 08:00-16:00",
      "Niedz. 09:00-14:00"
    ]
  },
  {
    "id": "pharmacy-8035",
    "label": "Dąbrówka",
    "address": "ul. Parkowa 9",
    "city": "Dąbrówka",
    "longitude": 16.7445,
    "latitude": 52.3847,
    "description": [
      "Pon.-Pt. 08:00-20:00",
      "Sob. 08:00-14:00",
      "Niedz. zamknięta"
    ]
  },
  {
    "id": "pharmacy-8036",
    "label": "Consultorio Dąbrówka",
    "address": "ul. Poznańska 31",
    "city": "Dąbrówka",
    "longitude": 16.7441,
    "latitude": 52.3831,
    "description": []
  },
  {
    "id": "pharmacy-8550",
    "label": "Apteka",
    "address": "ul. Dworcowa 55",
    "city": "Golęczewo",
    "longitude": 16.819,
    "latitude": 52.5349,
    "description": []
  },
  {
    "id": "pharmacy-8670",
    "label": "Apteka Witaminka",
    "address": "ul.  Siekierecka 24a",
    "city": "Gowarzewo",
    "longitude": 17.1419,
    "latitude": 52.3664,
    "description": [
      "Pon.-Pt. 09:00-18:00",
      "Sob. 09:00-13:00",
      "Niedz. zamknięta"
    ]
  },
  {
    "id": "pharmacy-8756",
    "label": "Przyjazna",
    "address": "ul. Swarzędzka 23",
    "city": "Gruszczyn",
    "longitude": 17.076,
    "latitude": 52.4413,
    "description": []
  },
  {
    "id": "pharmacy-9016",
    "label": "Heureka",
    "address": "ul. Poznańska 6",
    "city": "Jasin",
    "longitude": 17.0976,
    "latitude": 52.405,
    "description": []
  },
  {
    "id": "pharmacy-9265",
    "label": "Amfora Przy Kościele",
    "address": "ul. Mostowa 12",
    "city": "Kamionki",
    "longitude": 16.9992,
    "latitude": 52.2873,
    "description": [
      "Pon.-Pt. 08:00-20:00",
      "Sob. 08:00-18:00",
      "Niedz. zamknięta"
    ]
  },
  {
    "id": "pharmacy-9266",
    "label": "Amfora W Kamionkach",
    "address": "ul. Poznańska 150/2",
    "city": "Kamionki",
    "longitude": 16.9795,
    "latitude": 52.2901,
    "description": [
      "Pon.-Sob. 08:00-21:00",
      "Niedz. 09:00-20:00"
    ]
  },
  {
    "id": "pharmacy-9359",
    "label": "Kierska",
    "address": "ul. Kierska 2f",
    "city": "Kiekrz",
    "longitude": 16.78,
    "latitude": 52.4841,
    "description": [
      "Pon.-Pt. 08:00-21:00",
      "Sob. 08:00-16:00",
      "Niedz. 09:00-14:00"
    ]
  },
  {
    "id": "pharmacy-9485",
    "label": "Peonia",
    "address": "ul. Poznańska 113",
    "city": "Kobylnica",
    "longitude": 17.0798,
    "latitude": 52.4473,
    "description": [
      "Pon.-Pt. 08:00-18:00",
      "Sob. 09:00-14:00",
      "Niedz. 09:00-13:00"
    ]
  },
  {
    "id": "pharmacy-9486",
    "label": "Bliska",
    "address": "ul. Swarzędzka 2",
    "city": "Kobylnica",
    "longitude": 17.0761,
    "latitude": 52.4456,
    "description": [
      "Pon.-Pt. 08:00-20:00",
      "Sob. 08:00-16:00",
      "Niedz. zamknięta"
    ]
  },
  {
    "id": "pharmacy-9569",
    "label": "Zdrowoteka",
    "address": "ul. Ks. Malinowskiego 9/6",
    "city": "Komorniki",
    "longitude": 16.8001,
    "latitude": 52.3399,
    "description": [
      "Pon.-Pt. 08:00-20:00",
      "Sob.-Niedz. zamknięta"
    ]
  },
  {
    "id": "pharmacy-9570",
    "label": "Apteka Plus",
    "address": "ul. Pocztowa 6",
    "city": "Komorniki",
    "longitude": 16.8069,
    "latitude": 52.3364,
    "description": [
      "Pon.-Pt. 08:00-20:00",
      "Sob. 08:30-15:00",
      "Niedz. zamknięta"
    ]
  },
  {
    "id": "pharmacy-9571",
    "label": "Apteka W Ośrodku Zdrowia",
    "address": "ul. Stawna 7",
    "city": "Komorniki",
    "longitude": 16.8072,
    "latitude": 52.3334,
    "description": [
      "Pon.-Pt. 08:00-19:00",
      "Sob.-Niedz. zamknięta"
    ]
  }
]