[
  {
    "id": "75376",
    "label": "Sklep spożywczy SPOŁEM",
    "address": "ul. Komornicka 192",
    "city": "Wiry",
    "longitude": 16.854062999999996,
    "latitude": 52.3194019,
    "popupLines": [
      "pn-so: 00:00-24:00, nd: 00:00-24:00"
    ]
  },
  {
    "id": "65531",
    "label": "Fresh Market",
    "address": "ul. Sobieskiego 55a",
    "city": "Luboń",
    "longitude": 16.875886,
    "latitude": 52.334379,
    "popupLines": [
      "Open 24/7",
      "Santander Bank Polska"
    ]
  },
  {
    "id": "75982",
    "label": "Sklep",
    "address": "ul. Kościelna 20",
    "city": "Konarzewo",
    "longitude": 16.71288,
    "latitude": 52.335338,
    "popupLines": [
      "pn-so: 00:00-24:00, nd: 00:00-24:00"
    ]
  },
  {
    "id": "75241",
    "label": "Bank",
    "address": "ul. Poznańska 19A",
    "city": "Komorniki",
    "longitude": 16.808165,
    "latitude": 52.336023,
    "popupLines": [
      "bd."
    ]
  },
  {
    "id": "64455",
    "label": "Partner",
    "address": "ul. Poznańska 17",
    "city": "Komorniki",
    "longitude": 16.807928,
    "latitude": 52.336092,
    "popupLines": [
      "Open 24/7",
      "Santander Bank Polska"
    ]
  },
  {
    "id": "68532",
    "label": "oddział Banku",
    "address": "ul. Staszica 16",
    "city": "Komorniki",
    "longitude": 16.81016159,
    "latitude": 52.33781815,
    "popupLines": [
      "Open 24/7",
      "PKO BP",
      "PKO Bank Polski S.A."
    ]
  },
  {
    "id": "65784",
    "label": "Cukiernia Stricke",
    "address": "ul. Jarosławska 7",
    "city": "Poznań",
    "longitude": 16.986914,
    "latitude": 52.341502,
    "popupLines": [
      "Open 24/7",
      "Santander Bank Polska"
    ]
  },
  {
    "id": "75967,RNET2694",
    "label": "Intermarche",
    "address": "ul. Żabikowska 53A, Żabikowska 53A",
    "city": "Luboń",
    "longitude": 16.8821,
    "latitude": 52.3492,
    "popupLines": [
      "po-so: 08:00-22:00, nd: 09:00-20:00"
    ]
  },
  {
    "id": "70086",
    "label": "inne",
    "address": "ul. Sikorskiego 3",
    "city": "Luboń",
    "longitude": 16.87377167,
    "latitude": 52.34946823,
    "popupLines": [
      "Open 24/7",
      "PKO BP",
      "PKO Bank Polski S.A."
    ]
  },
  {
    "id": "66755",
    "label": "V Oddział w Poznaniu, Filia 5 w Luboniu",
    "address": "ul. Poniatowskiego 22",
    "city": "Luboń",
    "longitude": 16.861574,
    "latitude": 52.349661,
    "popupLines": [
      "Bank Pekao S.A.",
      "Open 24/7",
      "Pekao S.A."
    ]
  },
  {
    "id": "75243",
    "label": "Urząd Miasta",
    "address": "ul. Bojanowskiego 2",
    "city": "Luboń",
    "longitude": 16.860475,
    "latitude": 52.349907,
    "popupLines": [
      "bd."
    ]
  },
  {
    "id": "65311,69502",
    "label": "CH Pajo, oddział Banku",
    "address": "ul. Żabikowska 66",
    "city": "Luboń",
    "longitude": 16.87951,
    "latitude": 52.349924,
    "popupLines": [
      "Open 24/7",
      "PKO BP",
      "PKO Bank Polski S.A.",
      "Santander Bank Polska",
      "pn-so: 10:00-21:00, nd: 10:00-19:00"
    ]
  },
  {
    "id": "77234",
    "label": "Oddział 095",
    "address": "ul. Żabikowska 69",
    "city": "Luboń",
    "longitude": 16.882356,
    "latitude": 52.351491,
    "popupLines": [
      "Bank Millennium",
      "Bank Millennium S.A.",
      "Open 24/7"
    ]
  },
  {
    "id": "64454",
    "label": "1 Oddział w Luboniu",
    "address": "ul. Kościuszki 57/59",
    "city": "Luboń",
    "longitude": 16.868265,
    "latitude": 52.35208,
    "popupLines": [
      "Open 24/7",
      "Santander Bank Polska"
    ]
  },
  {
    "id": "74182,RNET5D63",
    "label": "mKiosk w Factory Poznań",
    "address": "ul. Dębiecka 1",
    "city": "Luboń",
    "longitude": 16.887893,
    "latitude": 52.352818,
    "popupLines": [
      "bd.",
      "mBank S.A."
    ]
  },
  {
    "id": "65128",
    "label": "Biedronka",
    "address": "ul. Żabikowska 71",
    "city": "Luboń",
    "longitude": 16.883943,
    "latitude": 52.353117,
    "popupLines": [
      "Open 24/7",
      "Santander Bank Polska"
    ]
  },
  {
    "id": "64766",
    "label": "CH Auchan",
    "address": "ul. Głogowska 432",
    "city": "Komorniki",
    "longitude": 16.835237,
    "latitude": 52.354255,
    "popupLines": [
      "Santander Bank Polska",
      "pn-so: 08:00-22:00, nd: 09:00-20:00"
    ]
  },
  {
    "id": "75239",
    "label": "Bank",
    "address": "ul. Konarzewska 12",
    "city": "Dopiewo",
    "longitude": 16.685021,
    "latitude": 52.357439,
    "popupLines": [
      "bd."
    ]
  },
  {
    "id": "70231",
    "label": "centrum handlowe",
    "address": "ul. Orkana 61_63",
    "city": "Poznań",
    "longitude": 16.88035011,
    "latitude": 52.35939026,
    "popupLines": [
      "Open 24/7",
      "PKO BP",
      "PKO Bank Polski S.A."
    ]
  },
  {
    "id": "64448,65220",
    "label": "22 Oddział w Poznaniu",
    "address": "ul. Skibowa 9a",
    "city": "Poznań",
    "longitude": 17.008002,
    "latitude": 52.363331,
    "popupLines": [
      "Open 24/7",
      "Santander Bank Polska"
    ]
  },
  {
    "id": "68492",
    "label": "oddział Banku",
    "address": "ul. 28 czerwca 1956r. nr 382",
    "city": "Poznań",
    "longitude": 16.90314865,
    "latitude": 52.36351395,
    "popupLines": [
      "Open 24/7",
      "PKO BP",
      "PKO Bank Polski S.A."
    ]
  },
  {
    "id": "64934",
    "label": "Pawilon handlowy",
    "address": "ul. Racjonalizatorów 3",
    "city": "Poznań",
    "longitude": 16.90474,
    "latitude": 52.366555,
    "popupLines": [
      "Open 24/7",
      "Santander Bank Polska"
    ]
  },
  {
    "id": "75479,PNET1509",
    "label": "Biedronka",
    "address": "Książęca 1, ul. Książęca 1",
    "city": "Poznań",
    "longitude": 16.931177,
    "latitude": 52.366593,
    "popupLines": [
      "po-so: 07:00-21:00, nd: 09:00-20:00"
    ]
  },
  {
    "id": "74348,PNET1282",
    "label": "Biedronka",
    "address": "Jesionowa 16, ul. Jesionowa 16",
    "city": "Poznań",
    "longitude": 16.8954,
    "latitude": 52.3671,
    "popupLines": [
      "pn-so: 00:00-24:00, nd: 00:00-24:00"
    ]
  },
  {
    "id": "73970,RNET5F96",
    "label": "Biedronka",
    "address": "ul. Żurawinowa 2, Żurawinowa 2",
    "city": "Poznań",
    "longitude": 16.9044,
    "latitude": 52.3674,
    "popupLines": [
      "mBank S.A.",
      "mbank",
      "po-so: 07:00-21:00, nd: 09:00-20:00"
    ]
  },
  {
    "id": "68567,69791",
    "label": "oddział Banku",
    "address": "ul. Grunwaldzka 517",
    "city": "Plewiska",
    "longitude": 16.81184006,
    "latitude": 52.36822128,
    "popupLines": [
      "Open 24/7",
      "PKO BP",
      "PKO Bank Polski S.A."
    ]
  },
  {
    "id": "69564",
    "label": "oddział Banku",
    "address": "ul. Starołęcka 42",
    "city": "Poznań",
    "longitude": 16.93276787,
    "latitude": 52.36973953,
    "popupLines": [
      "Open 24/7",
      "PKO BP",
      "PKO Bank Polski S.A."
    ]
  },
  {
    "id": "65130",
    "label": "Biedronka",
    "address": "ul. Grunwaldzka 481",
    "city": "Plewiska",
    "longitude": 16.815824,
    "latitude": 52.371469,
    "popupLines": [
      "Open 24/7",
      "Santander Bank Polska"
    ]
  },
  {
    "id": "64458",
    "label": "Kinepolis",
    "address": "ul. Bolesława Krzywoustego 72",
    "city": "Poznań",
    "longitude": 16.980824,
    "latitude": 52.373624,
    "popupLines": [
      "Santander Bank Polska",
      "pn-nd: 09:00-23:00"
    ]
  },
  {
    "id": "69485",
    "label": "oddział Banku",
    "address": "Os. Orła Białego 44",
    "city": "Poznań",
    "longitude": 16.96396065,
    "latitude": 52.37530518,
    "popupLines": [
      "Open 24/7",
      "PKO BP",
      "PKO Bank Polski S.A."
    ]
  },
  {
    "id": "64844",
    "label": "Stacja BP",
    "address": "ul. Kurlandzka 2",
    "city": "Poznań",
    "longitude": 16.957985,
    "latitude": 52.376535,
    "popupLines": [
      "Open 24/7",
      "Santander Bank Polska"
    ]
  },
  {
    "id": "75240",
    "label": "CH Aurora",
    "address": "ul. Platanowa 2",
    "city": "Dopiewo",
    "longitude": 16.739799,
    "latitude": 52.376944,
    "popupLines": [
      "bd."
    ]
  },
  {
    "id": "68580",
    "label": "targowisko",
    "address": "ul. Franowo 1",
    "city": "Poznań",
    "longitude": 16.98501205,
    "latitude": 52.37712479,
    "popupLines": [
      "Open 24/7",
      "PKO BP",
      "PKO Bank Polski S.A."
    ]
  },
  {
    "id": "70470",
    "label": "centrum handlowe",
    "address": "ul. Leszczyńska 3",
    "city": "Poznań",
    "longitude": 16.88075447,
    "latitude": 52.37730408,
    "popupLines": [
      "Open 24/7",
      "PKO BP",
      "PKO Bank Polski S.A."
    ]
  },
  {
    "id": "74741,PNET2246",
    "label": "Biedronka",
    "address": "Os. Orła Białego 5",
    "city": "Poznań",
    "longitude": 16.96013596,
    "latitude": 52.37754609,
    "popupLines": [
      "po-so: 05:00-21:00, nd: 05:00-21:00"
    ]
  },
  {
    "id": "74299,PNET1189",
    "label": "Biedronka",
    "address": "Hallera 2A, ul. Hallera 2A",
    "city": "Poznań",
    "longitude": 16.8723,
    "latitude": 52.3781,
    "popupLines": [
      "pn-so: 07:00-21:00, nd: 09:00-19:00"
    ]
  },
  {
    "id": "74863,PNET8412",
    "label": "Biedronka",
    "address": "Starołęcka 1, ul. Starołęcka 1",
    "city": "Poznań",
    "longitude": 16.9438771,
    "latitude": 52.3784944,
    "popupLines": [
      "pn-so: 00:00-24:00, nd: 00:00-24:00"
    ]
  },
  {
    "id": "66378",
    "label": "I Oddział w Poznaniu, Filia 1 w Poznaniu",
    "address": "ul. Szwedzka 6a",
    "city": "Poznań",
    "longitude": 16.983522,
    "latitude": 52.380107,
    "popupLines": [
      "Bank Pekao S.A.",
      "Open 24/7",
      "Pekao S.A."
    ]
  },
  {
    "id": "68475",
    "label": "zakład przemysłowy",
    "address": "ul. 28 czerwca 1956r. 223/229",
    "city": "Poznań",
    "longitude": 16.91056061,
    "latitude": 52.38035965,
    "popupLines": [
      "Open 24/7",
      "PKO BP",
      "PKO Bank Polski S.A."
    ]
  },
  {
    "id": "68539",
    "label": "inne",
    "address": "Os. Stare Żegrze 36",
    "city": "Poznań",
    "longitude": 16.9578228,
    "latitude": 52.38043976,
    "popupLines": [
      "Open 24/7",
      "PKO BP",
      "PKO Bank Polski S.A."
    ]
  },
  {
    "id": "64453,65602,72992,RNET4324",
    "label": "11 Oddział w Poznaniu, CH Panorama",
    "address": "Górecka 30, ul. Górecka 30",
    "city": "Poznań",
    "longitude": 16.895797,
    "latitude": 52.381036,
    "popupLines": [
      "ING Bank Śląski S.A.",
      "Open 24/7",
      "Santander Bank Polska",
      "pn-so: 10:00-21:00, nd: 10:00-19:00"
    ]
  },
  {
    "id": "76706,PNET3131",
    "label": "Biedronka",
    "address": "Stare Żegrze 15, ul. Stare Żegrze 15",
    "city": "Poznań",
    "longitude": 16.9632347,
    "latitude": 52.3812074,
    "popupLines": [
      "bd."
    ]
  },
  {
    "id": "66016",
    "label": "SELGROS",
    "address": "ul. Zamenhofa 133",
    "city": "Poznań",
    "longitude": 16.945842,
    "latitude": 52.382357,
    "popupLines": [
      "Bank Pekao S.A.",
      "Open 24/7",
      "Pekao S.A."
    ]
  },
  {
    "id": "68537",
    "label": "oddział Banku",
    "address": "ul. Zamenhoffa 133",
    "city": "Poznań",
    "longitude": 16.94604301,
    "latitude": 52.38240051,
    "popupLines": [
      "Open 24/7",
      "PKO BP",
      "PKO Bank Polski S.A."
    ]
  },
  {
    "id": "74010,RNET5C36",
    "label": "Centrum Handlowe M1",
    "address": "Szwajcarska_ 14, ul. Szwajcarska_ 14",
    "city": "Poznań",
    "longitude": 16.994769,
    "latitude": 52.382445,
    "popupLines": [
      "mBank S.A.",
      "mKiosk w CH M1",
      "pn-so: 09:00-21:00, nd: 10:00-21:00"
    ]
  },
  {
    "id": "64457",
    "label": "CH M1",
    "address": "ul. Szwajcarska 14",
    "city": "Poznań",
    "longitude": 16.99469,
    "latitude": 52.382551,
    "popupLines": [
      "Santander Bank Polska",
      "pn-so: 08:00-22:00, nd: 09:00-21:00"
    ]
  },
  {
    "id": "72928,RNET4210",
    "label": "CH M1",
    "address": "Szwajcarska 14, ul. Szwajcarska 14",
    "city": "Poznań",
    "longitude": 16.995093300000008,
    "latitude": 52.3825938,
    "popupLines": [
      "ING Bank Śląski S.A.",
      "pn-so: 09:00-21:00, nd: 10:00-20:00"
    ]
  },
  {
    "id": "76818",
    "label": "Oddział 028",
    "address": "ul. Szwajcarska 14",
    "city": "Poznań",
    "longitude": 16.994411,
    "latitude": 52.382783,
    "popupLines": [
      "Bank Millennium",
      "Bank Millennium S.A.",
      "Open 24/7"
    ]
  },
  {
    "id": "75804,PNET8718",
    "label": "Biedronka",
    "address": "Szwedzka _6, ul. Szwedzka _6",
    "city": "Poznań",
    "longitude": 16.987477,
    "latitude": 52.382832,
    "popupLines": [
      "pn-so: 10:00-21:00, nd: 10:00-20:00"
    ]
  },
  {
    "id": "64460",
    "label": "Stacja BP",
    "address": "ul. Hetmańska 98",
    "city": "Poznań",
    "longitude": 16.91593,
    "latitude": 52.384025,
    "popupLines": [
      "Open 24/7",
      "Santander Bank Polska"
    ]
  },
  {
    "id": "74202,PNET1001",
    "label": "Biedronka",
    "address": "Dolna Wilda 104/106, ul. Dolna Wilda 104/106",
    "city": "Poznań",
    "longitude": 16.9216268,
    "latitude": 52.3841557,
    "popupLines": [
      "pn-so: 07:00-21:00, nd: 09:00-19:00"
    ]
  },
  {
    "id": "74046,RNET5A74",
    "label": "Oddział mBank",
    "address": "Głogowska 161, ul. Głogowska 161",
    "city": "Poznań",
    "longitude": 16.887724,
    "latitude": 52.384285,
    "popupLines": [
      "Oddział mBank",
      "mBank S.A.",
      "pn-so: 00:00-24:00, nd: 00:00-24:00"
    ]
  },
  {
    "id": "74740,PNET2245",
    "label": "Biedronka",
    "address": "Os. Czecha 73",
    "city": "Poznań",
    "longitude": 16.9791,
    "latitude": 52.3844,
    "popupLines": [
      "po-so: 07:00-21:00, nd: 09:00-20:00"
    ]
  },
  {
    "id": "77122",
    "label": "Oddział 839",
    "address": "ul. Traugutta 15/17",
    "city": "Poznań",
    "longitude": 16.9142,
    "latitude": 52.385659,
    "popupLines": [
      "Bank Millennium",
      "Bank Millennium S.A.",
      "Open 24/7"
    ]
  },
  {
    "id": "68468",
    "label": "oddział Banku",
    "address": "Os. Czecha 73/74",
    "city": "Poznań",
    "longitude": 16.97691154,
    "latitude": 52.38614273,
    "popupLines": [
      "Open 24/7",
      "PKO BP",
      "PKO Bank Polski S.A."
    ]
  },
  {
    "id": "70072",
    "label": "ubezpieczeniafinanse",
    "address": "ul. Świebodzińska 18",
    "city": "Poznań",
    "longitude": 16.85399437,
    "latitude": 52.38626862,
    "popupLines": [
      "Open 24/7",
      "PKO BP",
      "PKO Bank Polski S.A."
    ]
  },
  {
    "id": "70386",
    "label": "inne",
    "address": "ul. Głogowska 154a",
    "city": "Poznań",
    "longitude": 16.88943672,
    "latitude": 52.38627243,
    "popupLines": [
      "Open 24/7",
      "PKO BP",
      "PKO Bank Polski S.A."
    ]
  },
  {
    "id": "75478,PNET2495",
    "label": "Biedronka",
    "address": "Os. Rzeczypospolitej 43",
    "city": "Poznań",
    "longitude": 16.946701,
    "latitude": 52.386403,
    "popupLines": [
      "po-so: 07:00-21:00, nd: 08:00-20:00"
    ]
  },
  {
    "id": "67549",
    "label": "Oddział w Poznaniu ul. Pamiątkowa 17",
    "address": "ul. Pamiątkowa 17",
    "city": "Poznań",
    "longitude": 16.916875,
    "latitude": 52.386688,
    "popupLines": [
      "Bank Pekao S.A.",
      "Open 24/7",
      "Pekao S.A."
    ]
  },
  {
    "id": "74793,PNET8188",
    "label": "Biedronka",
    "address": "Czecha 111, ul. Czecha 111",
    "city": "Poznań",
    "longitude": 16.982984,
    "latitude": 52.3869694,
    "popupLines": [
      "pn-so: 07:00-21:00, nd: 09:00-19:00"
    ]
  },
  {
    "id": "68473",
    "label": "pasaż handlowousługowy",
    "address": "ul. Galileusza 8",
    "city": "Poznań",
    "longitude": 16.86192322,
    "latitude": 52.38742447,
    "popupLines": [
      "Open 24/7",
      "PKO BP",
      "PKO Bank Polski S.A."
    ]
  },
  {
    "id": "64463",
    "label": "Market Selgros",
    "address": "ul. Zamenhoffa 133",
    "city": "Poznań",
    "longitude": 16.945313,
    "latitude": 52.387445,
    "popupLines": [
      "Open 24/7",
      "Santander Bank Polska"
    ]
  },
  {
    "id": "67546",
    "label": "Oddział w Poznaniu ul. Głogowska 132/140",
    "address": "ul. Głogowska 132/140",
    "city": "Poznań",
    "longitude": 16.890898,
    "latitude": 52.387505,
    "popupLines": [
      "Bank Pekao S.A.",
      "Open 24/7",
      "Pekao S.A."
    ]
  },
  {
    "id": "69478",
    "label": "oddział Banku",
    "address": "Os. Powstań Narodowych 32",
    "city": "Poznań",
    "longitude": 16.95425034,
    "latitude": 52.38761902,
    "popupLines": [
      "Open 24/7",
      "PKO BP",
      "PKO Bank Polski S.A."
    ]
  },
  {
    "id": "68545",
    "label": "inne",
    "address": "Os. Piastowskie 115",
    "city": "Poznań",
    "longitude": 16.94519806,
    "latitude": 52.38781738,
    "popupLines": [
      "Open 24/7",
      "PKO BP",
      "PKO Bank Polski S.A."
    ]
  },
  {
    "id": "64461",
    "label": "CH Górczyńskie",
    "address": "ul. Głogowska 138",
    "city": "Poznań",
    "longitude": 16.890834,
    "latitude": 52.388035,
    "popupLines": [
      "Santander Bank Polska",
      "pn-so: 09:00-21:00, nd: 10:00-16:00"
    ]
  },
  {
    "id": "65399",
    "label": "były 1 Oddział w Skórzewie",
    "address": "ul. Zakręt 11",
    "city": "Skórzewo",
    "longitude": 16.785173,
    "latitude": 52.388287,
    "popupLines": [
      "Open 24/7",
      "Santander Bank Polska"
    ]
  },
  {
    "id": "74353,PNET1296",
    "label": "Biedronka",
    "address": "Grunwaldzka 216, ul. Grunwaldzka 216",
    "city": "Poznań",
    "longitude": 16.854,
    "latitude": 52.3896,
    "popupLines": [
      "pn-so: 07:00-21:00, nd: 09:00-19:00"
    ]
  },
  {
    "id": "68554",
    "label": "szpital",
    "address": "ul. Szwajcarska 3",
    "city": "Poznań",
    "longitude": 16.99568176,
    "latitude": 52.38976669,
    "popupLines": [
      "Open 24/7",
      "PKO BP",
      "PKO Bank Polski S.A."
    ]
  },
  {
    "id": "73411,RNETN019,RNETN020,RNETN087,RNETN088",
    "label": "ING Bank Śląski, Oddział ING",
    "address": "Dworcowa 1, Oświecenia 59, ul. Dworcowa 1, ul. Oświecenia 59",
    "city": "Kostrzyn Wlk., Poznań",
    "longitude": 16.95875,
    "latitude": 52.39019,
    "popupLines": [
      "ING Bank Śląski S.A.",
      "pn-so: 00:00-24:00, nd: 00:00-24:00"
    ]
  },
  {
    "id": "75816,PNET2358,planetcash-PNET2358",
    "label": "Biedronka",
    "address": "ul. Ściegiennego 64, Ściegiennego 64",
    "city": "Poznań",
    "longitude": 16.875251,
    "latitude": 52.3903405,
    "popupLines": [
      "Planet Cash",
      "po-so: 07:00-21:00, nd: 07:00-21:00"
    ]
  },
  {
    "id": "68530,pko-3345",
    "label": "pasaż handlowousługowy, pasaż handlowy, przy sklepie Chata Polska",
    "address": "ul. Jana Keplera 1",
    "city": "60-158 Poznań, Poznań",
    "longitude": 16.86450958,
    "latitude": 52.39055252,
    "popupLines": [
      "Open 24/7",
      "PKO",
      "PKO BP",
      "PKO Bank Polski S.A."
    ]
  },
  {
    "id": "75884",
    "label": "0",
    "address": "ul. Poznańska 43",
    "city": "Skórzewo",
    "longitude": 16.789051,
    "latitude": 52.390624,
    "popupLines": [
      "pn-so: 00:00-24:00, nd: 00:00-24:00"
    ]
  },
  {
    "id": "70939,RNET6776,RNET6820",
    "label": "BNP Paribas",
    "address": "Głogowska 113-115, ul. Głogowska 113115",
    "city": "Poznań",
    "longitude": 16.895481,
    "latitude": 52.390942,
    "popupLines": [
      "BNP Paribas S.A.",
      "PlanetBNPP",
      "pn-so: 00:00-24:00, nd: 00:00-24:00"
    ]
  },
  {
    "id": "euronet-PLDJ0131",
    "label": "Biedronka",
    "address": "ul. Gwiaździsta 30",
    "city": "Poznań",
    "longitude": 16.867185,
    "latitude": 52.391016,
    "popupLines": [
      "Euronet"
    ]
  },
  {
    "id": "68498",
    "label": "inne",
    "address": "Os. Oświecenia 27",
    "city": "Poznań",
    "longitude": 16.95668602,
    "latitude": 52.39164734,
    "popupLines": [
      "Open 24/7",
      "PKO BP",
      "PKO Bank Polski S.A."
    ]
  },
  {
    "id": "662357464,71001,71002,RNET6698,RNET6771",
    "label": "BNP PARIBAS",
    "address": "Czerwca 1956 r. 121, ULICA 28 CZERWCA 1956 R. 121, ul. Czerwca 1956 r. 121",
    "city": "POZNAŃ",
    "longitude": 16.920194,
    "latitude": 52.392219,
    "popupLines": [
      "BNP PARIBAS BANK POLSKA S.A.",
      "BNP Paribas S.A.",
      "Financial Institution",
      "Max withdrawal: 4000",
      "PLANET CASH",
      "PlanetBNPP",
      "Smallest denom: 20",
      "pn-so: 00:00-24:00, nd: 00:00-24:00"
    ]
  },
  {
    "id": "57482,656989408",
    "label": "CREDIT AGRICOLE BANK POLSKA S.A., Oddział banku",
    "address": "ULICA 28 CZERWCA 1956 R. 121",
    "city": "POZNAN",
    "longitude": 16.920185,
    "latitude": 52.392261,
    "popupLines": [
      "BANK BRANCH",
      "Credit Agricole Bank Polska S.A.",
      "EURONET 360 FINANCE LTD",
      "EURONET POLSKA SP. Z O.O.",
      "Euronet",
      "Financial Institution",
      "Max withdrawal: 4000",
      "Open 24/7",
      "Smallest denom: 20"
    ]
  },
  {
    "id": "284208050",
    "label": "BANK BRANCH",
    "address": "28 CZERWCA 1956 ROKU 121",
    "city": "POZNAN",
    "longitude": 16.920098,
    "latitude": 52.392268,
    "popupLines": [
      "Financial Institution",
      "Max withdrawal: ",
      "RAIFFEISEN BANK POLSKA S.A.",
      "Smallest denom: "
    ]
  },
  {
    "id": "65654",
    "label": "Duży Ben",
    "address": "ul. 28 Czerwca 1956 119",
    "city": "Poznań",
    "longitude": 16.920206,
    "latitude": 52.392398,
    "popupLines": [
      "Open 24/7",
      "Santander Bank Polska"
    ]
  },
  {
    "id": "660735704",
    "label": "DUZY BEN",
    "address": "ULICA 28 CZERWCA 1956 R. 119",
    "city": "POZNAN",
    "longitude": 16.92007,
    "latitude": 52.39243,
    "popupLines": [
      "Max withdrawal: 6000",
      "Retail Store",
      "SANTANDER BANK POLSKA",
      "SANTANDER BANK POLSKA S.A.",
      "Smallest denom: 10"
    ]
  },
  {
    "id": "657280112",
    "label": "BIEDRONKA",
    "address": "ULICA STEFANA CZARNIECKIEGO 12",
    "city": "POZNAN",
    "longitude": 16.916869,
    "latitude": 52.392655,
    "popupLines": [
      "EURONET 360 FINANCE LTD",
      "EURONET POLSKA SP. Z O.O.",
      "Max withdrawal: 4000",
      "SUPERMARKET",
      "Smallest denom: 50",
      "Super Market"
    ]
  },
  {
    "id": "69472",
    "label": "oddział Banku",
    "address": "ul. Jugosłowiańska 22",
    "city": "Poznań",
    "longitude": 16.86433792,
    "latitude": 52.39268494,
    "popupLines": [
      "Open 24/7",
      "PKO BP",
      "PKO Bank Polski S.A."
    ]
  },
  {
    "id": "65064",
    "label": "15 Oddział w Poznaniu (Apteka)",
    "address": "Os. Rusa 12",
    "city": "Poznań",
    "longitude": 16.982786,
    "latitude": 52.392818,
    "popupLines": [
      "Open 24/7",
      "Santander Bank Polska"
    ]
  },
  {
    "id": "69526",
    "label": "inne",
    "address": "ul. Wierzbięcice 49",
    "city": "Poznań",
    "longitude": 16.92102051,
    "latitude": 52.39282227,
    "popupLines": [
      "Open 24/7",
      "PKO BP",
      "PKO Bank Polski S.A."
    ]
  },
  {
    "id": "75486,PNET1982",
    "label": "Biedronka",
    "address": "Os. Jagiellońskie 14",
    "city": "Poznań",
    "longitude": 16.950925,
    "latitude": 52.392824,
    "popupLines": [
      "po-so: 07:00-22:00, nd: 09:00-21:00"
    ]
  },
  {
    "id": "73186,78084346,RNET7164,RNET7266",
    "label": "ING BANK ŚLĄSKI",
    "address": "PRZEMYSŁOWA 64, ul. Przemysłowa 64",
    "city": "POZNAŃ",
    "longitude": 16.919252,
    "latitude": 52.392948,
    "popupLines": [
      "Financial Institution",
      "ING Bank Śląski S.A.",
      "MBANK S.A.",
      "Max withdrawal: 4000",
      "PLANET CASH",
      "Smallest denom: 20",
      "pn-so: 00:00-24:00, nd: 00:00-24:00"
    ]
  },
  {
    "id": "69469",
    "label": "oddział Banku",
    "address": "ul. Górna Wilda 109",
    "city": "Poznań",
    "longitude": 16.92194557,
    "latitude": 52.39345932,
    "popupLines": [
      "Open 24/7",
      "PKO BP",
      "PKO Bank Polski S.A."
    ]
  },
  {
    "id": "65785",
    "label": "1 Oddział w Kostrzynie",
    "address": "ul. Warszawska 15",
    "city": "Kostrzyn",
    "longitude": 17.223734,
    "latitude": 52.393773,
    "popupLines": [
      "Open 24/7",
      "Santander Bank Polska"
    ]
  },
  {
    "id": "pko-2643",
    "label": "",
    "address": "ul. Jugosłowiańska 22",
    "city": "60-301 Poznań",
    "longitude": 16.8633171,
    "latitude": 52.3939018,
    "popupLines": [
      "PKO"
    ]
  },
  {
    "id": "68502,70357",
    "label": "oddział Banku",
    "address": "ul. Głogowska 86 a",
    "city": "Poznań",
    "longitude": 16.89801025,
    "latitude": 52.3939209,
    "popupLines": [
      "Open 24/7",
      "PKO BP",
      "PKO Bank Polski S.A."
    ]
  },
  {
    "id": "67548",
    "label": "Oddział w Poznaniu ul. Grunwaldzka 165",
    "address": "ul. Grunwaldzka 165",
    "city": "Poznań",
    "longitude": 16.860074,
    "latitude": 52.39395,
    "popupLines": [
      "Bank Pekao S.A.",
      "Open 24/7",
      "Pekao S.A."
    ]
  },
  {
    "id": "64901,65560",
    "label": "21 Oddział w Poznaniu",
    "address": "ul. Głogowska 85",
    "city": "Poznań",
    "longitude": 16.898953,
    "latitude": 52.394075,
    "popupLines": [
      "Open 24/7",
      "Santander Bank Polska"
    ]
  },
  {
    "id": "69505",
    "label": "inne",
    "address": "Os. Tysiąclecia 71",
    "city": "Poznań",
    "longitude": 16.98034096,
    "latitude": 52.39411926,
    "popupLines": [
      "Open 24/7",
      "PKO BP",
      "PKO Bank Polski S.A."
    ]
  },
  {
    "id": "657562610",
    "label": "KASA STEFCZYKA",
    "address": "ULICA GÓRNA WILDA 99",
    "city": "POZNAN",
    "longitude": 16.922684,
    "latitude": 52.394231,
    "popupLines": [
      "BANK BRANCH",
      "EURONET 360 FINANCE LTD",
      "EURONET POLSKA SP. Z O.O.",
      "Financial Institution",
      "Max withdrawal: 4000",
      "Smallest denom: 20"
    ]
  },
  {
    "id": "57229",
    "label": "Oddział banku",
    "address": "ul. Głogowska 84",
    "city": "Poznań",
    "longitude": 16.89854,
    "latitude": 52.39436,
    "popupLines": [
      "Alior Bank S.A.",
      "Euronet",
      "Open 24/7"
    ]
  },
  {
    "id": "pekao-A5600270",
    "label": "Oddział w Poznaniu ul. Grunwaldzka 165",
    "address": "ul. Grunwaldzka 165",
    "city": "Poznań",
    "longitude": 16.8606307,
    "latitude": 52.3944054,
    "popupLines": [
      "Bank Pekao",
      "Pekao"
    ]
  },
  {
    "id": "73247,RNET7215,RNET7216",
    "label": "ING Bank Śląski",
    "address": "Głogowska 80, ul. Głogowska 80",
    "city": "Poznań",
    "longitude": 16.898995,
    "latitude": 52.394444,
    "popupLines": [
      "ING Bank Śląski S.A.",
      "pn-pt: 09:00-17:00"
    ]
  },
  {
    "id": "70224",
    "label": "oddział Banku",
    "address": "Os. Piastowskie 36",
    "city": "Poznań",
    "longitude": 16.94860458,
    "latitude": 52.39445877,
    "popupLines": [
      "Open 24/7",
      "PKO BP",
      "PKO Bank Polski S.A."
    ]
  },
  {
    "id": "74344,PNET1273",
    "label": "Biedronka",
    "address": "Os. Piastowskie 22",
    "city": "Poznań",
    "longitude": 16.9449,
    "latitude": 52.3947,
    "popupLines": [
      "pn-so: 07:00-21:00, nd: 09:00-19:00"
    ]
  },
  {
    "id": "657429166",
    "label": "CIUCHLANDIA",
    "address": "ULICA WIERZBIĘCICE 36",
    "city": "POZNAN",
    "longitude": 16.921509,
    "latitude": 52.394703,
    "popupLines": [
      "EURONET 360 FINANCE LTD",
      "EURONET POLSKA SP. Z O.O.",
      "Max withdrawal: 4000",
      "Retail Store",
      "SHOP",
      "Smallest denom: 50"
    ]
  },
  {
    "id": "75625,PNET2887",
    "label": "Biedronka",
    "address": "Poznańska 90, ul. Poznańska 90",
    "city": "Skórzewo",
    "longitude": 16.799186,
    "latitude": 52.394745,
    "popupLines": [
      "po-so: 07:00-21:00, nd: 09:00-20:00"
    ]
  },
  {
    "id": "64445,santander-3900727,santander-3900843",
    "label": "2 Oddział, 2 Oddział w Poznaniu",
    "address": "Jugosłowiańska 10, ul. Jugosłowiańska 10",
    "city": "Poznań",
    "longitude": 16.862469,
    "latitude": 52.395111,
    "popupLines": [
      "Open 24/7",
      "Santander",
      "Santander Bank Polska"
    ]
  },
  {
    "id": "64456",
    "label": "DW MPK Rataje",
    "address": "rondo Rataje",
    "city": "Poznań",
    "longitude": 16.950189,
    "latitude": 52.395195,
    "popupLines": [
      "Open 24/7",
      "Santander Bank Polska"
    ]
  },
  {
    "id": "27050",
    "label": "Oddział banku",
    "address": "ul. Głogowska 77",
    "city": "Poznań",
    "longitude": 16.90034,
    "latitude": 52.39529,
    "popupLines": [
      "Euro Bank S.A.",
      "Euronet",
      "Open 24/7"
    ]
  },
  {
    "id": "76891",
    "label": "Oddział 145",
    "address": "ul. Głogowska 72",
    "city": "Poznań",
    "longitude": 16.899821,
    "latitude": 52.395361,
    "popupLines": [
      "Bank Millennium",
      "Bank Millennium S.A.",
      "Open 24/7"
    ]
  },
  {
    "id": "68505",
    "label": "sklep",
    "address": "ul. Poznańska 98",
    "city": "Skórzewo",
    "longitude": 16.80062675,
    "latitude": 52.39613342,
    "popupLines": [
      "Open 24/7",
      "PKO BP",
      "PKO Bank Polski S.A."
    ]
  },
  {
    "id": "57391",
    "label": "Oddział banku",
    "address": "ul. Głogowska 67",
    "city": "Poznań",
    "longitude": 16.901331,
    "latitude": 52.39616,
    "popupLines": [
      "Credit Agricole Bank Polska S.A.",
      "Euronet",
      "Open 24/7"
    ]
  },
  {
    "id": "74032,RNET5F02",
    "label": "Galeria Mallwowa",
    "address": "Malwowa 162, ul. Malwowa 162",
    "city": "Skórzewo",
    "longitude": 16.802465,
    "latitude": 52.396474,
    "popupLines": [
      "mBank S.A.",
      "obok sklepu Piotr i Paweł",
      "po-so: 09:00-21:00, nd: 09:00-21:00"
    ]
  },
  {
    "id": "64845,santander-1362518",
    "label": "Stacja BP",
    "address": "Grunwaldzka 108, ul. Grunwaldzka 108",
    "city": "Poznań",
    "longitude": 16.868465,
    "latitude": 52.396544,
    "popupLines": [
      "Open 24/7",
      "Santander",
      "Santander Bank Polska"
    ]
  },
  {
    "id": "66376",
    "label": "II Oddział w Poznaniu, Filia 3 w Poznaniu",
    "address": "ul. Malwowa 162",
    "city": "Poznań",
    "longitude": 16.802064,
    "latitude": 52.396592,
    "popupLines": [
      "Bank Pekao S.A.",
      "Open 24/7",
      "Pekao S.A."
    ]
  },
  {
    "id": "74852,PNET8353",
    "label": "Biedronka",
    "address": "Strusia 12, ul. Strusia 12",
    "city": "Poznań",
    "longitude": 16.9023508,
    "latitude": 52.3969639,
    "popupLines": [
      "pn-so: 07:00-21:00, nd: 09:00-19:00"
    ]
  },
  {
    "id": "68497",
    "label": "oddział Banku",
    "address": "ul. Bolesława Krzywoustego 7",
    "city": "Poznań",
    "longitude": 16.94700241,
    "latitude": 52.39699173,
    "popupLines": [
      "Open 24/7",
      "PKO BP",
      "PKO Bank Polski S.A."
    ]
  },
  {
    "id": "75232",
    "label": "0",
    "address": "ul. Krzywoustego 3",
    "city": "Poznań",
    "longitude": 16.94600463,
    "latitude": 52.39704174,
    "popupLines": [
      "bd."
    ]
  },
  {
    "id": "77238",
    "label": "Oddział 454 (CH Posnania) (lewy patrząc od strony klienta), Oddział 454 (CH Posnania) (prawy patrząc od strony klienta)",
    "address": "ul. Pleszewska 1",
    "city": "Poznań",
    "longitude": 16.95542,
    "latitude": 52.39717,
    "popupLines": [
      "Bank Millennium",
      "Bank Millennium S.A.",
      "wgodzinachotwarciaCH"
    ]
  },
  {
    "id": "70364",
    "label": "inne",
    "address": "ul. Strusia 2",
    "city": "Poznań",
    "longitude": 16.9027462,
    "latitude": 52.39720154,
    "popupLines": [
      "Open 24/7",
      "PKO BP",
      "PKO Bank Polski S.A."
    ]
  },
  {
    "id": "77235",
    "label": "Oddział 359 CH Posnania",
    "address": "ul. Pleszewska 1",
    "city": "Poznań",
    "longitude": 16.955426,
    "latitude": 52.39726,
    "popupLines": [
      "Bank Millennium",
      "Bank Millennium S.A.",
      "pn-so: 10:00-22:00, nd: 10:00-21:00"
    ]
  },
  {
    "id": "69787",
    "label": "oddział Banku",
    "address": "ul. Głogowska 55/57",
    "city": "Poznań",
    "longitude": 16.90240097,
    "latitude": 52.39730072,
    "popupLines": [
      "Open 24/7",
      "PKO BP",
      "PKO Bank Polski S.A."
    ]
  },
  {
    "id": "27044",
    "label": "Oddział banku",
    "address": "ul. Pleszewska 1",
    "city": "Poznań",
    "longitude": 16.955305,
    "latitude": 52.397404,
    "popupLines": [
      "10:00-22:00",
      "Euro Bank S.A.",
      "Euronet"
    ]
  },
  {
    "id": "68484",
    "label": "sklep",
    "address": "ul. Poznańska 37",
    "city": "Kostrzyn",
    "longitude": 17.21965027,
    "latitude": 52.39754105,
    "popupLines": [
      "Open 24/7",
      "PKO BP",
      "PKO Bank Polski S.A."
    ]
  },
  {
    "id": "656897056",
    "label": "NETTO",
    "address": "ULICA GÓRNA WILDA 73",
    "city": "POZNAN",
    "longitude": 16.924852,
    "latitude": 52.397568,
    "popupLines": [
      "EURONET 360 FINANCE LTD",
      "EURONET POLSKA SP. Z O.O.",
      "Max withdrawal: 4000",
      "SUPERMARKET",
      "Smallest denom: 50",
      "Super Market"
    ]
  },
  {
    "id": "64462",
    "label": "Kwiaciarnia",
    "address": "ul. Berwińskiego 2",
    "city": "Poznań",
    "longitude": 16.901754,
    "latitude": 52.398061,
    "popupLines": [
      "Open 24/7",
      "Santander Bank Polska"
    ]
  },
  {
    "id": "65481,73260,73261,74017,RNET2656,RNET5A61,RNET7223,RNET7224",
    "label": "CH Carrefour/ CH Posnania, Posnania, Posnania (wyspa akwizycyjna)",
    "address": "Pleszewska 1_, ul. Pleszewska 1, ul. Pleszewska 1_",
    "city": "Poznań",
    "longitude": 16.9529,
    "latitude": 52.3984,
    "popupLines": [
      "Galeria Posnania",
      "ING Bank Śląski S.A.",
      "Santander Bank Polska",
      "mBank S.A.",
      "oddział mBank",
      "pn-pt: 07:00-21:30, nd: 09:00-21:00",
      "pn-so: 10:00-22:00, nd: 10:00-21:00"
    ]
  },
  {
    "id": "70520",
    "label": "sklep",
    "address": "ul. Hallera 11",
    "city": "Środa Wielkopolska",
    "longitude": 16.96226692,
    "latitude": 52.39842224,
    "popupLines": [
      "Open 24/7",
      "PKO BP",
      "PKO Bank Polski S.A."
    ]
  },
  {
    "id": "76142,PNET1575",
    "label": "Biedronka",
    "address": "Polanka 22, ul. Polanka 22",
    "city": "Poznań",
    "longitude": 16.959953,
    "latitude": 52.399185,
    "popupLines": [
      "po-so: 07:00-21:00, nd: 07:00-21:00"
    ]
  },
  {
    "id": "69540",
    "label": "inne",
    "address": "ul. Grochowska 49",
    "city": "Poznań",
    "longitude": 16.87555504,
    "latitude": 52.39947891,
    "popupLines": [
      "Open 24/7",
      "PKO BP",
      "PKO Bank Polski S.A."
    ]
  },
  {
    "id": "253279216",
    "label": "MTP",
    "address": "GŁOGOWSKA 16",
    "city": "POZNAN",
    "longitude": 16.90472,
    "latitude": 52.39949,
    "popupLines": [
      "Exhibition Center",
      "Max withdrawal: 6000",
      "SANTANDER BANK POLSKA",
      "SANTANDER BANK POLSKA S.A.",
      "Smallest denom: 10"
    ]
  },
  {
    "id": "pko-3786",
    "label": "brak",
    "address": "ul. Grochowska 49",
    "city": "60-332 Poznań",
    "longitude": 16.87547,
    "latitude": 52.3996039,
    "popupLines": [
      "PKO"
    ]
  },
  {
    "id": "75296",
    "label": "Bank",
    "address": "Os. Raczyńskiego 19",
    "city": "Swarzędz",
    "longitude": 17.063305,
    "latitude": 52.399707,
    "popupLines": [
      "bd."
    ]
  },
  {
    "id": "69521",
    "label": "oddział Banku",
    "address": "Os. Cegielskiego 32",
    "city": "Swarzędz",
    "longitude": 17.06403923,
    "latitude": 52.40000153,
    "popupLines": [
      "Open 24/7",
      "PKO BP",
      "PKO Bank Polski S.A."
    ]
  },
  {
    "id": "657698280",
    "label": "CITI HANDLOWY",
    "address": "ULICA STANISŁAWA MATYI 1",
    "city": "POZNAN",
    "longitude": 16.922454,
    "latitude": 52.400143,
    "popupLines": [
      "CITIBANK",
      "CITIBANK N.A.",
      "Financial Institution",
      "Max withdrawal: 1000",
      "Smallest denom: 20"
    ]
  },
  {
    "id": "70092",
    "label": "sklep",
    "address": "Os. Tytusa Działyńskiego 1K/501",
    "city": "Swarzędz",
    "longitude": 17.06727219,
    "latitude": 52.40018845,
    "popupLines": [
      "08:00-23:59",
      "PKO BP",
      "PKO Bank Polski S.A."
    ]
  },
  {
    "id": "65652",
    "label": "Biedronka",
    "address": "ul. Półwiejska 47",
    "city": "Poznań",
    "longitude": 16.928084,
    "latitude": 52.400559,
    "popupLines": [
      "Open 24/7",
      "Santander Bank Polska"
    ]
  },
  {
    "id": "374844096",
    "label": "BIEDRONKA",
    "address": "PÓŁWIEJSKA 47",
    "city": "POZNAN",
    "longitude": 16.92815,
    "latitude": 52.40056,
    "popupLines": [
      "Max withdrawal: 6000",
      "SANTANDER BANK POLSKA",
      "SANTANDER BANK POLSKA S.A.",
      "Smallest denom: 10",
      "Super Market"
    ]
  },
  {
    "id": "76074,PNET1987,planetcash-PNET1987",
    "label": "Biedronka",
    "address": "Wojskowa 3C, ul. Wojskowa 3C",
    "city": "Poznań",
    "longitude": 16.8926,
    "latitude": 52.4006,
    "popupLines": [
      "Planet Cash",
      "pn-so: 07:00-21:00, nd: 09:00-19:00"
    ]
  },
  {
    "id": "253285222",
    "label": "8 ODDZIAL W POZNANIU",
    "address": "PLAC ANDERSA 5",
    "city": "POZNAN",
    "longitude": 16.9269,
    "latitude": 52.40072,
    "popupLines": [
      "Financial Institution",
      "Max withdrawal: 6000",
      "SANTANDER BANK POLSKA",
      "SANTANDER BANK POLSKA S.A.",
      "Smallest denom: 10"
    ]
  },
  {
    "id": "64861,65223,65357",
    "label": "8 Oddział w Poznaniu",
    "address": "Pl. Andersa 5",
    "city": "Poznań",
    "longitude": 16.926754,
    "latitude": 52.400742,
    "popupLines": [
      "Open 24/7",
      "Santander Bank Polska"
    ]
  },
  {
    "id": "657577572",
    "label": "BIEDRONKA",
    "address": "ULICA KAZIMIERZA WIELKIEGO 2",
    "city": "POZNAN",
    "longitude": 16.936711,
    "latitude": 52.400835,
    "popupLines": [
      "EURONET 360 FINANCE LTD",
      "EURONET POLSKA SP. Z O.O.",
      "Max withdrawal: 4000",
      "SUPERMARKET",
      "Smallest denom: 50",
      "Super Market"
    ]
  },
  {
    "id": "253285222,57932",
    "label": "Oddział banku, PLUS BANK ODDZIAL",
    "address": "PLAC ANDERSA 5, ul. Plac Andersa 5",
    "city": "POZNAN",
    "longitude": 16.926689,
    "latitude": 52.400917,
    "popupLines": [
      "BANK BRANCH",
      "EURONET 360 FINANCE LTD",
      "EURONET POLSKA SP. Z O.O.",
      "Euronet",
      "Financial Institution",
      "Max withdrawal: 4000",
      "Open 24/7",
      "Plus Bank S.A.",
      "Smallest denom: 50"
    ]
  },
  {
    "id": "86",
    "label": "Oddział Banku",
    "address": "Pl. Andersa 7",
    "city": "Poznań",
    "longitude": 16.926453,
    "latitude": 52.400938,
    "popupLines": [
      "Deutsche Bank Polska S.A.",
      "Euronet",
      "Open 24/7"
    ]
  },
  {
    "id": "50977556",
    "label": "STARY BROWAR",
    "address": "PÓŁWIEJSKA 42",
    "city": "POZNAŃ",
    "longitude": 16.92827,
    "latitude": 52.40112,
    "popupLines": [
      "EURO BANK SA",
      "Max withdrawal: ",
      "Shopping Center",
      "Smallest denom: "
    ]
  },
  {
    "id": "493373082,73004,74016,74767,RNET2293,RNET4341,RNET5A62",
    "label": "CENTRUM HANDLOWE AVENIDA",
    "address": "Matyi 2, STANISŁAWA MATYI 1, ul. Matyi 2",
    "city": "POZNAŃ",
    "longitude": 16.913783,
    "latitude": 52.40128,
    "popupLines": [
      "ING Bank Śląski S.A.",
      "MBANK S.A.",
      "Max withdrawal: 4000",
      "Oddział mBank",
      "PLANET CASH",
      "Shopping Center",
      "Smallest denom: 20",
      "mBank S.A.",
      "po-so: 09:00-21:00, nd: 09:00-20:00"
    ]
  },
  {
    "id": "253425032",
    "label": "HOTEL NOVOTEL",
    "address": "PLAC ANDERSA 1",
    "city": "POZNAN",
    "longitude": 16.924476,
    "latitude": 52.401448,
    "popupLines": [
      "EURONET 360 FINANCE LTD",
      "EURONET POLSKA SP. Z O.O.",
      "HOTEL",
      "Hotel",
      "Max withdrawal: 4000",
      "Smallest denom: 20"
    ]
  },
  {
    "id": "50977556,73943,RNET5A14",
    "label": "ODDZIAŁ MBANK/CH STARY BROWAR",
    "address": "PÓŁWIEJSKA 42, ul. Półwiejska 42",
    "city": "POZNAŃ",
    "longitude": 16.92797,
    "latitude": 52.40145,
    "popupLines": [
      "Financial Institution",
      "MBANK S.A.",
      "Max withdrawal: 4000",
      "Oddział mBank w CH Stary Browar",
      "PLANET CASH",
      "Smallest denom: 20",
      "mBank S.A.",
      "pn-so: 09:00-21:00, nd: 10:00-20:00"
    ]
  },
  {
    "id": "97875004",
    "label": "BRANCH",
    "address": "STRZELECKA",
    "city": "POZNAŃ",
    "longitude": 16.934621,
    "latitude": 52.401476,
    "popupLines": [
      "EURO BANK SA",
      "Max withdrawal: ",
      "On Street",
      "Smallest denom: "
    ]
  },
  {
    "id": "253424446",
    "label": "HOTEL ANDERSIA",
    "address": "PLAC ANDERSA 3",
    "city": "POZNAN",
    "longitude": 16.925579,
    "latitude": 52.401498,
    "popupLines": [
      "EURONET 360 FINANCE LTD",
      "EURONET POLSKA SP. Z O.O.",
      "HOTEL",
      "Hotel",
      "Max withdrawal: 4000",
      "Smallest denom: 20"
    ]
  },
  {
    "id": "65706",
    "label": "Agrobex",
    "address": "ul. Graniczna 63",
    "city": "Swarzędz",
    "longitude": 17.058096,
    "latitude": 52.401595,
    "popupLines": [
      "Open 24/7",
      "Santander Bank Polska"
    ]
  },
  {
    "id": "336786172",
    "label": "STARY BROWAR",
    "address": "PÓŁWIEJSKA 32",
    "city": "POZNAN",
    "longitude": 16.9269,
    "latitude": 52.40163,
    "popupLines": [
      "Max withdrawal: 6000",
      "SANTANDER BANK POLSKA",
      "SANTANDER BANK POLSKA S.A.",
      "Shopping Center",
      "Smallest denom: 10"
    ]
  },
  {
    "id": "493373594,657692440,75293,RNET2608",
    "label": "DWORZEC PKP, DWORZEC PKP POZNAŃ GŁÓWNY, Dworzec PKP Poznań Główny",
    "address": "DWORCOWA 2, ULICA DWORCOWA 1, ul. Dworcowa 2",
    "city": "POZNAN",
    "longitude": 16.911585,
    "latitude": 52.401668,
    "popupLines": [
      "BANK POLSKA KASA OPIEKI S.A. - (BANK PEKAO S.A.)",
      "Dworzec Główny PKP Poznań",
      "MBANK S.A.",
      "Max withdrawal: 4000",
      "PLANET CASH",
      "Smallest denom: 20",
      "Smallest denom: 50",
      "Train/Bus Station",
      "pn-so: 00:00-24:00, nd: 00:00-24:00"
    ]
  },
  {
    "id": "73954,RNET5F91",
    "label": "CH Carrefour",
    "address": "Graniczna 61, ul. Graniczna 61",
    "city": "Swarzędz",
    "longitude": 17.057645,
    "latitude": 52.4016809,
    "popupLines": [
      "mBank S.A.",
      "pn-so: 00:00-24:00, nd: 00:00-24:00"
    ]
  },
  {
    "id": "706792836,76913",
    "label": "MILLENNIUM BRANCH, Oddział 188",
    "address": "ULICA PÓŁWIEJSKA 33, ul. Połwiejska 33",
    "city": "POZNAŃ",
    "longitude": 16.928991,
    "latitude": 52.401698,
    "popupLines": [
      "BANK MILLENNIUM S.A.",
      "Bank Millennium",
      "Financial Institution",
      "Max withdrawal: 4000",
      "Open 24/7",
      "Smallest denom: 50"
    ]
  },
  {
    "id": "64459",
    "label": "MTP",
    "address": "ul. Głogowska 16",
    "city": "Poznań",
    "longitude": 16.910173,
    "latitude": 52.401856,
    "popupLines": [
      "Open 24/7",
      "Santander Bank Polska"
    ]
  },
  {
    "id": "67554",
    "label": "Dworzec PKP",
    "address": "ul. Dworcowa 1",
    "city": "Poznań",
    "longitude": 16.911634,
    "latitude": 52.401951,
    "popupLines": [
      "Bank Pekao S.A.",
      "Open 24/7",
      "Pekao S.A."
    ]
  },
  {
    "id": "230155120",
    "label": "CH STARY BROWAR",
    "address": "ULICA PÓŁWIEJSKA 32",
    "city": "POZNAN",
    "longitude": 16.928861,
    "latitude": 52.402028,
    "popupLines": [
      "BANK POLSKA KASA OPIEKI S.A. - (BANK PEKAO S.A.)",
      "Max withdrawal: 4000",
      "Shopping Center",
      "Smallest denom: 50"
    ]
  },
  {
    "id": "74345,PNET1276",
    "label": "Biedronka",
    "address": "Matejki 62, ul. Matejki 62",
    "city": "Poznań",
    "longitude": 16.8996,
    "latitude": 52.4021,
    "popupLines": [
      "pn-so: 07:00-21:00, nd: 09:00-19:00"
    ]
  },
  {
    "id": "230155120",
    "label": "STARY BROWAR",
    "address": "ULICA PÓŁWIEJSKA 32",
    "city": "POZNAN",
    "longitude": 16.925349,
    "latitude": 52.402106,
    "popupLines": [
      "EURONET 360 FINANCE LTD",
      "EURONET POLSKA SP. Z O.O.",
      "Max withdrawal: 4000",
      "SHOPPING CENTER",
      "Shopping Mall",
      "Smallest denom: 20"
    ]
  },
  {
    "id": "64466",
    "label": "Stary Browar",
    "address": "ul. Półwiejska 32",
    "city": "Poznań",
    "longitude": 16.9287343,
    "latitude": 52.4021127,
    "popupLines": [
      "Santander Bank Polska",
      "pn-nd: 08:00-22:00",
      "pn-so: 09:00-21:00, nd: 10:00-20:00"
    ]
  },
  {
    "id": "17915",
    "label": "City Center",
    "address": "ul. Stanisława Matyi 2",
    "city": "Poznan",
    "longitude": 16.913979,
    "latitude": 52.402226,
    "popupLines": [
      "Bank Handlowy w Warszawie S.A.",
      "pn-so: 09:00-21:00, nd: 09:00-20:00"
    ]
  },
  {
    "id": "230155120",
    "label": "CITI HANDLOWY",
    "address": "ULICA PÓŁWIEJSKA 32",
    "city": "POZNAN",
    "longitude": 16.929236,
    "latitude": 52.402231,
    "popupLines": [
      "CITIBANK",
      "CITIBANK N.A.",
      "Financial Institution",
      "Max withdrawal: 1000",
      "Smallest denom: 20"
    ]
  },
  {
    "id": "66375",
    "label": "Centrum handlowe STARY BROWAR",
    "address": "ul. Półwiejska 32",
    "city": "Poznań",
    "longitude": 16.928766,
    "latitude": 52.402232,
    "popupLines": [
      "08:00-22:00",
      "Bank Pekao S.A.",
      "Pekao S.A."
    ]
  },
  {
    "id": "46",
    "label": "Oddział Banku",
    "address": "ul. Kaliska 21",
    "city": "Poznań",
    "longitude": 16.954998,
    "latitude": 52.402281,
    "popupLines": [
      "Deutsche Bank Polska S.A.",
      "Euronet",
      "Open 24/7"
    ]
  },
  {
    "id": "70473",
    "label": "centrum handlowe",
    "address": "ul. Półwiejska 32",
    "city": "Poznań",
    "longitude": 16.92895699,
    "latitude": 52.4023056,
    "popupLines": [
      "Open 24/7",
      "PKO BP",
      "PKO Bank Polski S.A."
    ]
  },
  {
    "id": "68524",
    "label": "uczelnia wyższa",
    "address": "ul. Piotrowo 3a",
    "city": "Poznań",
    "longitude": 16.95057678,
    "latitude": 52.40235901,
    "popupLines": [
      "Open 24/7",
      "PKO BP",
      "PKO Bank Polski S.A."
    ]
  },
  {
    "id": "65088",
    "label": "Galeria Malta",
    "address": "ul. Abp. A. Baraniaka 8",
    "city": "Poznań",
    "longitude": 16.958169,
    "latitude": 52.402576,
    "popupLines": [
      "Santander Bank Polska",
      "pn-so: 10:00-22:00, nd: 10:00-20:00"
    ]
  },
  {
    "id": "657438742",
    "label": "TRAIN/BUS STATION",
    "address": "ULICA DWORCOWA 2",
    "city": "POZNAN",
    "longitude": 16.91213,
    "latitude": 52.4027,
    "popupLines": [
      "Max withdrawal: 1000",
      "PKO BANK POLSKI",
      "POWSZECHNA KASA OSZCZEDNOSCI BANK POLSKI S.A. (PKO BANK POLSKI S.A.)",
      "Smallest denom: 15",
      "Train/Bus Station"
    ]
  },
  {
    "id": "64836",
    "label": "Dworzec PKP nowy",
    "address": "ul. Dworcowa 2",
    "city": "Poznań",
    "longitude": 16.91329382138747,
    "latitude": 52.40274150443923,
    "popupLines": [
      "Open 24/7",
      "Santander Bank Polska"
    ]
  },
  {
    "id": "657692440",
    "label": "AVENIDA POZNAN, PKP POZNAN GLOWNY",
    "address": "ULICA DWORCOWA 1, ULICA STANISŁAWA MATYI 1",
    "city": "POZNAN",
    "longitude": 16.913528,
    "latitude": 52.402773,
    "popupLines": [
      "EURONET 360 FINANCE LTD",
      "EURONET POLSKA SP. Z O.O.",
      "Max withdrawal: 4000",
      "RAIL STATION",
      "SHOPPING CENTER",
      "Shopping Mall",
      "Smallest denom: 20",
      "Train/Bus Station"
    ]
  },
  {
    "id": "478221562",
    "label": "DWORZEC PKP NOWY",
    "address": "DWORCOWA 2",
    "city": "POZNAN",
    "longitude": 16.91246,
    "latitude": 52.40279,
    "popupLines": [
      "Max withdrawal: 6000",
      "SANTANDER BANK POLSKA",
      "SANTANDER BANK POLSKA S.A.",
      "Smallest denom: 10",
      "Train/Bus Station"
    ]
  },
  {
    "id": "PNET6506,planetcash-PNET6506",
    "label": "BNP Paribas",
    "address": "Grunwaldzka 38A/3",
    "city": "Poznań",
    "longitude": 16.891286,
    "latitude": 52.402863,
    "popupLines": [
      "Planet Cash"
    ]
  },
  {
    "id": "73290,RNET7259,RNETP080",
    "label": "Oddział ING",
    "address": "Baraniaka 6, ul. Baraniaka 6",
    "city": "Poznań",
    "longitude": 16.957947,
    "latitude": 52.402867,
    "popupLines": [
      "Budynek Malta House",
      "ING Bank Śląski S.A.",
      "pn-so: 00:00-24:00, nd: 00:00-24:00"
    ]
  },
  {
    "id": "65832,santander-1080807",
    "label": "27 Oddział w Poznaniu, 42 Oddział",
    "address": "Grunwaldzka 38A, ul. Grunwaldzka 38a",
    "city": "Poznań",
    "longitude": 16.892096,
    "latitude": 52.402941,
    "popupLines": [
      "Open 24/7",
      "Santander",
      "Santander Bank Polska"
    ]
  },
  {
    "id": "657614914",
    "label": "KAMIENICA NA POLWIEJSKIEJ",
    "address": "ULICA PÓŁWIEJSKA 20",
    "city": "POZNAN",
    "longitude": 16.929666,
    "latitude": 52.40295,
    "popupLines": [
      "EURONET 360 FINANCE LTD",
      "EURONET POLSKA SP. Z O.O.",
      "Max withdrawal: 4000",
      "ON STREET",
      "On Street",
      "Smallest denom: 20"
    ]
  },
  {
    "id": "657671368",
    "label": "KASA STEFCZYKA",
    "address": "ULICA PÓŁWIEJSKA 18",
    "city": "POZNAN",
    "longitude": 16.929636,
    "latitude": 52.403091,
    "popupLines": [
      "BANK BRANCH",
      "EURONET 360 FINANCE LTD",
      "EURONET POLSKA SP. Z O.O.",
      "Financial Institution",
      "Max withdrawal: 4000",
      "Smallest denom: 20"
    ]
  },
  {
    "id": "45",
    "label": "Oddział Banku",
    "address": "ul. Grunwaldzka 38a",
    "city": "Poznań",
    "longitude": 16.892108,
    "latitude": 52.403099,
    "popupLines": [
      "Deutsche Bank Polska S.A.",
      "Euronet",
      "Open 24/7"
    ]
  },
  {
    "id": "68978",
    "label": "inne",
    "address": "ul. Głogowska 10",
    "city": "Poznań",
    "longitude": 16.91000748,
    "latitude": 52.40309906,
    "popupLines": [
      "Open 24/7",
      "PKO BP",
      "PKO Bank Polski S.A."
    ]
  },
  {
    "id": "73724,RNET4489,ing-RNET4489,planetcash-RNET4489",
    "label": "budynek biurowy",
    "address": "Grochowska 69, ul. Grochowska 69_",
    "city": "Poznań",
    "longitude": 16.8752352,
    "latitude": 52.4033089,
    "popupLines": [
      "ING",
      "ING Bank Śląski",
      "ING Bank Śląski S.A.",
      "Planet Cash",
      "PlanetCash"
    ]
  },
  {
    "id": "3300",
    "label": "Bank",
    "address": "ul. Towarowa 35",
    "city": "Poznań",
    "longitude": 16.916196,
    "latitude": 52.403409,
    "popupLines": [
      "Open 24/7",
      "SGB Bank S.A.",
      "SGB-Bank S.A."
    ]
  },
  {
    "id": "69495",
    "label": "szpital",
    "address": "ul. Przybyszewskiego 49",
    "city": "Poznań",
    "longitude": 16.88713837,
    "latitude": 52.40342712,
    "popupLines": [
      "Open 24/7",
      "PKO BP",
      "PKO Bank Polski S.A."
    ]
  },
  {
    "id": "pko-2952",
    "label": "",
    "address": "ul. Przybyszewskiego 49",
    "city": "60-355 Poznań",
    "longitude": 16.887797,
    "latitude": 52.403545,
    "popupLines": [
      "PKO"
    ]
  },
  {
    "id": "65131",
    "label": "Politechnika  Santander Universidades",
    "address": "ul. Piotrowo 2",
    "city": "Poznań",
    "longitude": 16.949363,
    "latitude": 52.403814,
    "popupLines": [
      "Santander Bank Polska",
      "pn-nd: 07:00-21:30"
    ]
  },
  {
    "id": "57231,657217086",
    "label": "ALIOR BANK ODDZIAL, Oddział banku",
    "address": "ULICA KAZIMIERZA KANTAKA 1, ul. Kantaka 1",
    "city": "POZNAN",
    "longitude": 16.930486,
    "latitude": 52.403843,
    "popupLines": [
      "Alior Bank S.A.",
      "BANK BRANCH",
      "EURONET 360 FINANCE LTD",
      "EURONET POLSKA SP. Z O.O.",
      "Euronet",
      "Financial Institution",
      "Max withdrawal: 4000",
      "Open 24/7",
      "Smallest denom: 50"
    ]
  },
  {
    "id": "246437964",
    "label": "BANK BRANCH",
    "address": "PÓŁWIEJSKA 5",
    "city": "POZNAN",
    "longitude": 16.930928,
    "latitude": 52.40452,
    "popupLines": [
      "Financial Institution",
      "Max withdrawal: ",
      "RAIFFEISEN BANK POLSKA S.A.",
      "Smallest denom: "
    ]
  },
  {
    "id": "euronet-PLDJ0082",
    "label": "Biedronka",
    "address": "ul. Marcelińska 77",
    "city": "Poznań",
    "longitude": 16.874013,
    "latitude": 52.404583,
    "popupLines": [
      "Euronet"
    ]
  },
  {
    "id": "74009,RNET5C31",
    "label": "ETC Swarzędz",
    "address": "Poznańska 6, ul. Poznańska 6",
    "city": "Swarzędz",
    "longitude": 17.095632,
    "latitude": 52.404622,
    "popupLines": [
      "mBank S.A.",
      "mKiosk",
      "pn-so: 10:00-21:00, nd: 10:00-21:00"
    ]
  },
  {
    "id": "657608380,73326,73327,RNET7190,RNETP072",
    "label": "ING BANK ŚLĄSKI",
    "address": "PÓŁWIEJSKA 2D, ul. Półwiejska 2D",
    "city": "POZNAŃ",
    "longitude": 16.930705,
    "latitude": 52.404703,
    "popupLines": [
      "Financial Institution",
      "ING Bank Śląski S.A.",
      "MBANK S.A.",
      "Max withdrawal: 4000",
      "PLANET CASH",
      "Smallest denom: 20",
      "pn-so: 00:00-24:00, nd: 00:00-24:00"
    ]
  },
  {
    "id": "3299",
    "label": "Centrum handlowe",
    "address": "ul. Poznańska 4a",
    "city": "Swarzędz",
    "longitude": 17.0917009,
    "latitude": 52.40481399,
    "popupLines": [
      "08:00-21:00",
      "SGB Bank S.A.",
      "SGB-Bank S.A."
    ]
  },
  {
    "id": "70356",
    "label": "urząd",
    "address": "ul. Strzelecka 2/6",
    "city": "Poznań",
    "longitude": 16.93144608,
    "latitude": 52.40481949,
    "popupLines": [
      "Open 24/7",
      "PKO BP",
      "PKO Bank Polski S.A."
    ]
  },
  {
    "id": "14562624,70902,RNET6784",
    "label": "BNP PARIBAS",
    "address": "PÓŁWIEJSKA 3, ul. Półwiejska 3",
    "city": "POZNAŃ",
    "longitude": 16.931106,
    "latitude": 52.404851,
    "popupLines": [
      "BNP PARIBAS BANK POLSKA S.A.",
      "BNP Paribas S.A.",
      "Financial Institution",
      "Max withdrawal: 4000",
      "PLANET CASH",
      "PlanetBNPP",
      "Smallest denom: 20",
      "pn-so: 00:00-24:00, nd: 00:00-24:00"
    ]
  },
  {
    "id": "67555",
    "label": "Oddział w Poznaniu ul. Grunwaldzka 21",
    "address": "ul. Grunwaldzka 21",
    "city": "Poznań",
    "longitude": 16.897416,
    "latitude": 52.404956,
    "popupLines": [
      "Bank Pekao S.A.",
      "Open 24/7",
      "Pekao S.A."
    ]
  },
  {
    "id": "64760",
    "label": "CH Etc",
    "address": "ul. Poznańska 6",
    "city": "Swarzędz",
    "longitude": 17.097651,
    "latitude": 52.404972,
    "popupLines": [
      "Santander Bank Polska",
      "pn-so: 10:00-21:00, nd: 11:00-20:00"
    ]
  },
  {
    "id": "68543",
    "label": "inny punkt handlowy",
    "address": "ul. Grochowska 83/85",
    "city": "Poznań",
    "longitude": 16.87533951,
    "latitude": 52.40504074,
    "popupLines": [
      "Open 24/7",
      "PKO BP",
      "PKO Bank Polski S.A."
    ]
  },
  {
    "id": "pko-3694",
    "label": "Solarium",
    "address": "ul. Grochowska 83/85",
    "city": "60-337 Poznań",
    "longitude": 16.8749436,
    "latitude": 52.4050675,
    "popupLines": [
      "PKO"
    ]
  },
  {
    "id": "64487",
    "label": "1 Oddział w Swarzędzu",
    "address": "ul. Dworcowa 7",
    "city": "Swarzędz",
    "longitude": 17.074015,
    "latitude": 52.405325,
    "popupLines": [
      "Open 24/7",
      "Santander Bank Polska"
    ]
  },
  {
    "id": "68582",
    "label": "centrum handlowe",
    "address": "Pl. Wiosny Ludów 2",
    "city": "Poznań",
    "longitude": 16.93161964,
    "latitude": 52.40544128,
    "popupLines": [
      "Open 24/7",
      "PKO BP",
      "PKO Bank Polski S.A."
    ]
  },
  {
    "id": "274574050",
    "label": "PRZY KUPCU POZNANSKIM",
    "address": "PLAC WIOSNY LUDÓW 2",
    "city": "POZNAN",
    "longitude": 16.931559,
    "latitude": 52.405607,
    "popupLines": [
      "EURONET 360 FINANCE LTD",
      "EURONET POLSKA SP. Z O.O.",
      "Max withdrawal: 4000",
      "ON STREET",
      "On Street",
      "Smallest denom: 20"
    ]
  },
  {
    "id": "64743,santander-4700023",
    "label": "CH Piotr i Paweł",
    "address": "Marcelińska 23, ul. Marcelińska 23",
    "city": "Poznań",
    "longitude": 16.890824,
    "latitude": 52.405749,
    "popupLines": [
      "Open 24/7",
      "Santander",
      "Santander Bank Polska"
    ]
  },
  {
    "id": "657285744",
    "label": "KAMIENICA NA ROGU",
    "address": "ULICA PODGÓRNA 15",
    "city": "POZNAN",
    "longitude": 16.931645,
    "latitude": 52.405758,
    "popupLines": [
      "EURONET 360 FINANCE LTD",
      "EURONET POLSKA SP. Z O.O.",
      "Max withdrawal: 4000",
      "ON STREET",
      "On Street",
      "Smallest denom: 20"
    ]
  },
  {
    "id": "127863340,65134",
    "label": "SKLEP MALPKA",
    "address": "SZKOLNA 19, ul. Szkolna 19",
    "city": "POZNAN",
    "longitude": 16.93173,
    "latitude": 52.40584,
    "popupLines": [
      "Max withdrawal: 6000",
      "Open 24/7",
      "Retail Store",
      "SANTANDER BANK POLSKA",
      "SANTANDER BANK POLSKA S.A.",
      "Santander Bank Polska",
      "Smallest denom: 10"
    ]
  },
  {
    "id": "49861644",
    "label": "BRANCH",
    "address": "WROCŁAWSKA",
    "city": "POZNAŃ",
    "longitude": 16.932875,
    "latitude": 52.40591,
    "popupLines": [
      "EURO BANK SA",
      "Max withdrawal: ",
      "On Street",
      "Smallest denom: "
    ]
  },
  {
    "id": "27052",
    "label": "Oddział banku",
    "address": "ul. Święty Marcin 19",
    "city": "Poznań",
    "longitude": 16.9269,
    "latitude": 52.40599,
    "popupLines": [
      "Euro Bank S.A.",
      "Euronet",
      "Open 24/7"
    ]
  },
  {
    "id": "724964178,76121,PNET3075",
    "label": "KAMIENICA",
    "address": "FRANCISZKA RATAJCZAKA 32, Ratajczaka 32, ul. Ratajczaka 32",
    "city": "POZNAŃ",
    "longitude": 16.925251,
    "latitude": 52.406035,
    "popupLines": [
      "MBANK S.A.",
      "Max withdrawal: 4000",
      "Office Building",
      "PLANET CASH",
      "Smallest denom: 20",
      "pn-so: 00:00-24:00, nd: 00:00-24:00"
    ]
  },
  {
    "id": "3313",
    "label": "Galeria MM",
    "address": "ul. Św. Marcin 24",
    "city": "Poznań",
    "longitude": 16.927754,
    "latitude": 52.406062,
    "popupLines": [
      "SGB Bank S.A.",
      "pn-pt: 09:00-21:00, nd: 10:00-21:00"
    ]
  },
  {
    "id": "69530",
    "label": "sklep",
    "address": "ul. Mścibora 67",
    "city": "Poznań",
    "longitude": 17.01453972,
    "latitude": 52.40607834,
    "popupLines": [
      "Open 24/7",
      "PKO BP",
      "PKO Bank Polski S.A."
    ]
  },
  {
    "id": "69499",
    "label": "szpital",
    "address": "ul. Grunwaldzka 16/18",
    "city": "Poznań",
    "longitude": 16.89886093,
    "latitude": 52.40610504,
    "popupLines": [
      "Open 24/7",
      "PKO BP",
      "PKO Bank Polski S.A."
    ]
  },
  {
    "id": "65428,santander-3900047",
    "label": "CWB, CWB Kolorowa",
    "address": "Kolorowa 8, ul. Kolorowa 8",
    "city": "Poznań",
    "longitude": 16.866846,
    "latitude": 52.406117,
    "popupLines": [
      "Open 24/7",
      "Santander",
      "Santander Bank Polska"
    ]
  },
  {
    "id": "657573962",
    "label": "FUX FOOD",
    "address": "ULICA WROCŁAWSKA 16",
    "city": "POZNAN",
    "longitude": 16.932819,
    "latitude": 52.40618,
    "popupLines": [
      "Bar/Tavern",
      "CAFE/ BAR",
      "EURONET 360 FINANCE LTD",
      "EURONET POLSKA SP. Z O.O.",
      "Max withdrawal: 4000",
      "Smallest denom: 50"
    ]
  },
  {
    "id": "657677222",
    "label": "GALERIA MM",
    "address": "ULICA ŚWIĘTY MARCIN 24",
    "city": "POZNAN",
    "longitude": 16.927934,
    "latitude": 52.406183,
    "popupLines": [
      "EURONET 360 FINANCE LTD",
      "EURONET POLSKA SP. Z O.O.",
      "Max withdrawal: 4000",
      "SHOPPING CENTER",
      "Shopping Mall",
      "Smallest denom: 50"
    ]
  },
  {
    "id": "493373760,75368,RNET2655",
    "label": "GALERIA MM",
    "address": "ul. Św.Marcin 24, ŚWIĘTY MARCIN 24, Św.Marcin 24",
    "city": "POZNAŃ",
    "longitude": 16.9278,
    "latitude": 52.4062,
    "popupLines": [
      "MBANK S.A.",
      "Max withdrawal: 4000",
      "PLANET CASH",
      "Shopping Mall",
      "Smallest denom: 20",
      "pn-pt: 09:00-21:00, so: 10:00-20:00, nd: 10:00-19:00"
    ]
  },
  {
    "id": "274529994",
    "label": "PLUS BANK ODDZIAL",
    "address": "ULICA ŚWIĘTY MARCIN 35",
    "city": "POZNAN",
    "longitude": 16.924656,
    "latitude": 52.406281,
    "popupLines": [
      "BANK BRANCH",
      "EURONET 360 FINANCE LTD",
      "EURONET POLSKA SP. Z O.O.",
      "Financial Institution",
      "Max withdrawal: 4000",
      "Smallest denom: 20"
    ]
  },
  {
    "id": "57390,657480340",
    "label": "CREDIT AGRICOLE BANK POLSKA S.A., Oddział banku",
    "address": "ULICA SZKOLNA 13",
    "city": "POZNAN",
    "longitude": 16.93211,
    "latitude": 52.406361,
    "popupLines": [
      "BANK BRANCH",
      "Credit Agricole Bank Polska S.A.",
      "EURONET 360 FINANCE LTD",
      "EURONET POLSKA SP. Z O.O.",
      "Euronet",
      "Financial Institution",
      "Max withdrawal: 4000",
      "Open 24/7",
      "Smallest denom: 50"
    ]
  },
  {
    "id": "69037",
    "label": "urząd",
    "address": "Pl. Kolegiacki 17",
    "city": "Poznań",
    "longitude": 16.93541336,
    "latitude": 52.40640259,
    "popupLines": [
      "Open 24/7",
      "PKO BP",
      "PKO Bank Polski S.A."
    ]
  },
  {
    "id": "329778888,75724",
    "label": "BANK, BS Kórnik",
    "address": "ULICA ŚWIĘTY MARCIN 41, ul. Św. Marcin 41/1",
    "city": "POZNAN",
    "longitude": 16.924143,
    "latitude": 52.406453,
    "popupLines": [
      "BANK",
      "Financial Institution",
      "Max withdrawal: 1000",
      "SGB",
      "SGB-BANK S.A.",
      "Smallest denom: 50",
      "pn-so: 00:00-24:00, nd: 00:00-24:00"
    ]
  },
  {
    "id": "santander-1362509",
    "label": "Stacja BP",
    "address": "Przybyszewskiego 39a",
    "city": "Poznań",
    "longitude": 16.888907,
    "latitude": 52.406595,
    "popupLines": [
      "Santander"
    ]
  },
  {
    "id": "657505822,74053,RNET5C61",
    "label": "MBANK",
    "address": "ul. św. Marcin 40, ŚWIĘTY MARCIN 40, św. Marcin 40",
    "city": "POZNAŃ",
    "longitude": 16.924864,
    "latitude": 52.406701,
    "popupLines": [
      "Financial Institution",
      "MBANK S.A.",
      "Max withdrawal: 4000",
      "PLANET CASH",
      "Smallest denom: 20",
      "mBank S.A.",
      "mKiosk w CH",
      "pn-pt: 10:00-19:00"
    ]
  },
  {
    "id": "657336936",
    "label": "HOTEL SHERATON",
    "address": "ULICA BUKOWSKA 3",
    "city": "POZNAN",
    "longitude": 16.910761,
    "latitude": 52.406727,
    "popupLines": [
      "EURONET 360 FINANCE LTD",
      "EURONET POLSKA SP. Z O.O.",
      "HOTEL",
      "Hotel",
      "Max withdrawal: 4000",
      "Smallest denom: 20"
    ]
  },
  {
    "id": "274497382",
    "label": "5 ODDZIAL W POZNANIU",
    "address": "ŚWIĘTY MARCIN 66",
    "city": "POZNAN",
    "longitude": 16.92309,
    "latitude": 52.40687,
    "popupLines": [
      "Financial Institution",
      "Max withdrawal: 6000",
      "SANTANDER BANK POLSKA",
      "SANTANDER BANK POLSKA S.A.",
      "Smallest denom: 10"
    ]
  },
  {
    "id": "657682044,71218,RNET6265",
    "label": "BANK BNP PARIBAS, BNP PARIBAS, BNP Paribas",
    "address": "ul. Św.Marcina 71, ŚWIĘTY MARCIN 71, Św.Marcina 71",
    "city": "POZNAŃ",
    "longitude": 16.920568,
    "latitude": 52.406895,
    "popupLines": [
      "BNP PARIBAS BANK POLSKA S.A.",
      "BNP Paribas S.A.",
      "Financial Institution",
      "Max withdrawal: 2000",
      "Max withdrawal: 4000",
      "PLANET CASH",
      "PlanetBNPP",
      "Smallest denom: 20",
      "bd."
    ]
  },
  {
    "id": "66377",
    "label": "I Oddział w Poznaniu",
    "address": "ul. Święty Marcin 52/56",
    "city": "Poznań",
    "longitude": 16.923481,
    "latitude": 52.406906,
    "popupLines": [
      "Bank Pekao S.A.",
      "Open 24/7",
      "Pekao S.A."
    ]
  },
  {
    "id": "44",
    "label": "Oddział Banku",
    "address": "ul. Św. Marcin 77",
    "city": "Poznań",
    "longitude": 16.91984,
    "latitude": 52.406921,
    "popupLines": [
      "Deutsche Bank Polska S.A.",
      "Euronet",
      "Open 24/7"
    ]
  },
  {
    "id": "331953190",
    "label": "BANK PEKAO S.A.",
    "address": "ULICA ŚWIĘTY MARCIN 52",
    "city": "POZNAN",
    "longitude": 16.923353,
    "latitude": 52.406988,
    "popupLines": [
      "BANK POLSKA KASA OPIEKI S.A. - (BANK PEKAO S.A.)",
      "Financial Institution",
      "Max withdrawal: 4000",
      "Smallest denom: 50"
    ]
  },
  {
    "id": "656893760",
    "label": "KAMIENICA WROCLAWSKA",
    "address": "ULICA WROCŁAWSKA 5",
    "city": "POZNAN",
    "longitude": 16.933149,
    "latitude": 52.407111,
    "popupLines": [
      "EURONET 360 FINANCE LTD",
      "EURONET POLSKA SP. Z O.O.",
      "Max withdrawal: 4000",
      "ON STREET",
      "On Street",
      "Smallest denom: 20"
    ]
  },
  {
    "id": "17917",
    "label": "Bałtyk",
    "address": "ul. Roosevelta 22",
    "city": "Poznan",
    "longitude": 16.911546,
    "latitude": 52.407115,
    "popupLines": [
      "09:00-17:00",
      "Bank Handlowy w Warszawie S.A.",
      "Open 24/7"
    ]
  },
  {
    "id": "69520",
    "label": "oddział Banku",
    "address": "ul. Roosevelta 22",
    "city": "Poznań",
    "longitude": 16.91178513,
    "latitude": 52.40711594,
    "popupLines": [
      "Open 24/7",
      "PKO BP",
      "PKO Bank Polski S.A."
    ]
  },
  {
    "id": "657607604",
    "label": "KAMIENICA KOZIA",
    "address": "ULICA SZKOLNA 5",
    "city": "POZNAN",
    "longitude": 16.932283,
    "latitude": 52.407223,
    "popupLines": [
      "EURONET 360 FINANCE LTD",
      "EURONET POLSKA SP. Z O.O.",
      "Max withdrawal: 4000",
      "ON STREET",
      "On Street",
      "Smallest denom: 20"
    ]
  },
  {
    "id": "706792862,76925",
    "label": "MILLENNIUM BRANCH, Oddział 208",
    "address": "ULICA ŚWIĘTY MARCIN 56, ul. Św. Marcin 56/64",
    "city": "POZNAŃ",
    "longitude": 16.920874,
    "latitude": 52.407224,
    "popupLines": [
      "BANK MILLENNIUM S.A.",
      "Bank Millennium",
      "Financial Institution",
      "Max withdrawal: 4000",
      "Open 24/7",
      "Smallest denom: 50"
    ]
  },
  {
    "id": "64485",
    "label": "5 Oddział w Poznaniu",
    "address": "ul. Św. Marcin 66/72",
    "city": "Poznań",
    "longitude": 16.921835,
    "latitude": 52.407273,
    "popupLines": [
      "Open 24/7",
      "Santander Bank Polska"
    ]
  },
  {
    "id": "657575368",
    "label": "KAMIENICA",
    "address": "ULICA GARBARY 56",
    "city": "POZNAN",
    "longitude": 16.938031,
    "latitude": 52.407489,
    "popupLines": [
      "EURONET 360 FINANCE LTD",
      "EURONET POLSKA SP. Z O.O.",
      "Max withdrawal: 4000",
      "ON STREET",
      "On Street",
      "Smallest denom: 50"
    ]
  },
  {
    "id": "64984",
    "label": "DS Jowita",
    "address": "ul. Zwierzyniecka 7",
    "city": "Poznań",
    "longitude": 16.910099,
    "latitude": 52.407594,
    "popupLines": [
      "Open 24/7",
      "Santander Bank Polska"
    ]
  },
  {
    "id": "657659218",
    "label": "OTHER",
    "address": "PLAC WOLNOŚCI 2",
    "city": "POZNAN",
    "longitude": 16.92793,
    "latitude": 52.40762,
    "popupLines": [
      "Financial Institution",
      "Max withdrawal: 1000",
      "PKO BANK POLSKI",
      "POWSZECHNA KASA OSZCZEDNOSCI BANK POLSKI S.A. (PKO BANK POLSKI S.A.)",
      "Smallest denom: 15"
    ]
  },
  {
    "id": "69878,70354",
    "label": "oddział Banku",
    "address": "Pl. Wolności 3",
    "city": "Poznań",
    "longitude": 16.92743301,
    "latitude": 52.40769196,
    "popupLines": [
      "Open 24/7",
      "PKO BP",
      "PKO Bank Polski S.A."
    ]
  },
  {
    "id": "494218296",
    "label": "KAMIENICA",
    "address": "ULICA SZKOLNA 3",
    "city": "POZNAN",
    "longitude": 16.932369,
    "latitude": 52.407703,
    "popupLines": [
      "EURONET 360 FINANCE LTD",
      "EURONET POLSKA SP. Z O.O.",
      "Max withdrawal: 4000",
      "RESIDENTIAL",
      "Smallest denom: 20"
    ]
  },
  {
    "id": "253103004",
    "label": "CITI HANDLOWY",
    "address": "PLAC WOLNOŚCI 4",
    "city": "POZNAN",
    "longitude": 16.927029,
    "latitude": 52.407714,
    "popupLines": [
      "CITIBANK",
      "CITIBANK N.A.",
      "Financial Institution",
      "Max withdrawal: 1000",
      "Smallest denom: 20"
    ]
  },
  {
    "id": "657570024",
    "label": "BUDYNEK MIESZKALNO-USLUGOWY",
    "address": "ULICA IGNACEGO PADEREWSKIEGO 3",
    "city": "POZNAN",
    "longitude": 16.931417,
    "latitude": 52.407722,
    "popupLines": [
      "BANK POLSKA KASA OPIEKI S.A. - (BANK PEKAO S.A.)",
      "BUDYNEK MIESZKALNO-USLUGOWY",
      "Max withdrawal: 4000",
      "Smallest denom: 50"
    ]
  },
  {
    "id": "66754",
    "label": "",
    "address": "ul. Paderewskiego 3",
    "city": "Poznań",
    "longitude": 16.931794,
    "latitude": 52.407731,
    "popupLines": [
      "Bank Pekao S.A.",
      "Open 24/7",
      "Pekao S.A."
    ]
  },
  {
    "id": "657024250",
    "label": "PKO BRANCH",
    "address": "PLAC WOLNOŚCI 1",
    "city": "POZNAN",
    "longitude": 16.92845,
    "latitude": 52.40776,
    "popupLines": [
      "Financial Institution",
      "Max withdrawal: 1000",
      "PKO BANK POLSKI",
      "POWSZECHNA KASA OSZCZEDNOSCI BANK POLSKI S.A. (PKO BANK POLSKI S.A.)",
      "Smallest denom: 15"
    ]
  },
  {
    "id": "274916066",
    "label": "BANK BRANCH",
    "address": "FRANCISZKA RATAJCZAKA 39",
    "city": "POZNAN",
    "longitude": 16.9252,
    "latitude": 52.407844,
    "popupLines": [
      "Financial Institution",
      "Max withdrawal: ",
      "RAIFFEISEN BANK POLSKA S.A.",
      "Smallest denom: "
    ]
  },
  {
    "id": "245939500",
    "label": "DS JOWITA",
    "address": "ZWIERZYNIECKA 7",
    "city": "POZNAN",
    "longitude": 16.91028,
    "latitude": 52.40788,
    "popupLines": [
      "Max withdrawal: 6000",
      "SANTANDER BANK POLSKA",
      "SANTANDER BANK POLSKA S.A.",
      "Smallest denom: 10",
      "University"
    ]
  },
  {
    "id": "68548",
    "label": "uczelnia wyższa",
    "address": "ul. Tadeusza Kościuszki 80 a",
    "city": "Poznań",
    "longitude": 16.91988373,
    "latitude": 52.40790176,
    "popupLines": [
      "Open 24/7",
      "PKO BP",
      "PKO Bank Polski S.A."
    ]
  },
  {
    "id": "68546",
    "label": "oddział Banku",
    "address": "ul. Pastelowa 12",
    "city": "Poznań",
    "longitude": 16.86737061,
    "latitude": 52.40803909,
    "popupLines": [
      "Open 24/7",
      "PKO BP",
      "PKO Bank Polski S.A."
    ]
  },
  {
    "id": "529047158",
    "label": "OTHER",
    "address": "PLAC WOLNOŚCI 11",
    "city": "POZNAN",
    "longitude": 16.92586,
    "latitude": 52.40808,
    "popupLines": [
      "Financial Institution",
      "Max withdrawal: 1000",
      "PKO BANK POLSKI",
      "POWSZECHNA KASA OSZCZEDNOSCI BANK POLSKI S.A. (PKO BANK POLSKI S.A.)",
      "Smallest denom: 15"
    ]
  },
  {
    "id": "67656",
    "label": "uczelnia wyższa",
    "address": "ul. H. Wieniawskiego 1",
    "city": "Poznań",
    "longitude": 16.91566277,
    "latitude": 52.40818787,
    "popupLines": [
      "Open 24/7",
      "PKO BP",
      "PKO Bank Polski S.A."
    ]
  },
  {
    "id": "1019091050",
    "label": "OTHER",
    "address": "PLAC WOLNOŚCI 20",
    "city": "POZNAN",
    "longitude": 16.92758,
    "latitude": 52.40819,
    "popupLines": [
      "Max withdrawal: 1000",
      "OTHER",
      "PKO BANK POLSKI",
      "POWSZECHNA KASA OSZCZEDNOSCI BANK POLSKI S.A. (PKO BANK POLSKI S.A.)",
      "Smallest denom: 15"
    ]
  },
  {
    "id": "274679588,3301",
    "label": "BANK",
    "address": "ULICA ZWIERZYNIECKA 14, ul. Zwierzyniecka 14/16",
    "city": "POZNAN",
    "longitude": 16.909216,
    "latitude": 52.408228,
    "popupLines": [
      "BANK",
      "Financial Institution",
      "Max withdrawal: 1000",
      "Open 24/7",
      "SGB",
      "SGB Bank S.A.",
      "SGB-BANK S.A.",
      "SGB-Bank S.A.",
      "Smallest denom: 50"
    ]
  },
  {
    "id": "331955692",
    "label": "BANK PEKAO S.A.",
    "address": "PLAC WOLNOŚCI 18",
    "city": "POZNAN",
    "longitude": 16.927854,
    "latitude": 52.408487,
    "popupLines": [
      "BANK POLSKA KASA OPIEKI S.A. - (BANK PEKAO S.A.)",
      "Financial Institution",
      "Max withdrawal: 4000",
      "Smallest denom: 50"
    ]
  },
  {
    "id": "67543",
    "label": "Oddział w Poznaniu pl. Wolności 18",
    "address": "Pl. Wolności 18",
    "city": "Poznań",
    "longitude": 16.927657,
    "latitude": 52.408492,
    "popupLines": [
      "Bank Pekao S.A.",
      "Open 24/7",
      "Pekao S.A."
    ]
  },
  {
    "id": "76562",
    "label": "SGBBANK S.A.",
    "address": "ul. Zwierzyniecka 14/16",
    "city": "Poznań",
    "longitude": 16.909392,
    "latitude": 52.408494,
    "popupLines": [
      "bd."
    ]
  },
  {
    "id": "70226",
    "label": "inne",
    "address": "ul. Muszkowska 2",
    "city": "Poznań",
    "longitude": 16.89527893,
    "latitude": 52.40855789,
    "popupLines": [
      "Open 24/7",
      "PKO BP",
      "PKO Bank Polski S.A."
    ]
  },
  {
    "id": "245940496,65310,65352",
    "label": "6 ODDZIAL W POZNANIU, OTHER",
    "address": "PLAC WOLNOŚCI 15",
    "city": "POZNAN",
    "longitude": 16.926278,
    "latitude": 52.408573,
    "popupLines": [
      "Financial Institution",
      "Max withdrawal: 1000",
      "Max withdrawal: 6000",
      "Open 24/7",
      "PKO BANK POLSKI",
      "POWSZECHNA KASA OSZCZEDNOSCI BANK POLSKI S.A. (PKO BANK POLSKI S.A.)",
      "SANTANDER BANK POLSKA",
      "SANTANDER BANK POLSKA S.A.",
      "Santander Bank Polska",
      "Smallest denom: 10",
      "Smallest denom: 15"
    ]
  },
  {
    "id": "274559230,65615",
    "label": "RUNNER SPORT",
    "address": "GARBARY 64, ul. Garbary 64",
    "city": "POZNAN",
    "longitude": 16.938115,
    "latitude": 52.408707,
    "popupLines": [
      "Max withdrawal: 6000",
      "Open 24/7",
      "Retail Store",
      "SANTANDER BANK POLSKA",
      "SANTANDER BANK POLSKA S.A.",
      "Santander Bank Polska",
      "Smallest denom: 10"
    ]
  },
  {
    "id": "253327416",
    "label": "BANK BRANCH",
    "address": "WIELKA 9",
    "city": "POZNAN",
    "longitude": 16.936329,
    "latitude": 52.408736,
    "popupLines": [
      "Financial Institution",
      "Max withdrawal: ",
      "RAIFFEISEN BANK POLSKA S.A.",
      "Smallest denom: "
    ]
  },
  {
    "id": "67550",
    "label": "Oddział w Poznaniu Stary Rynek 97/98",
    "address": "ul. Stary Rynek 97/98",
    "city": "Poznań",
    "longitude": 16.93445,
    "latitude": 52.408828,
    "popupLines": [
      "Bank Pekao S.A.",
      "Open 24/7",
      "Pekao S.A."
    ]
  },
  {
    "id": "159404192,71083,RNET6917",
    "label": "BNP PARIBAS",
    "address": "WIELKA 8, ul. Wielka 8",
    "city": "POZNAŃ",
    "longitude": 16.936016,
    "latitude": 52.40885,
    "popupLines": [
      "BNP PARIBAS BANK POLSKA S.A.",
      "BNP Paribas S.A.",
      "Financial Institution",
      "Max withdrawal: 4000",
      "PLANET CASH",
      "PlanetBNPP",
      "Smallest denom: 20",
      "pn-so: 00:00-24:00, nd: 00:00-24:00"
    ]
  },
  {
    "id": "589011274",
    "label": "BANK PEKAO S.A.",
    "address": "STARY RYNEK 97",
    "city": "POZNAN",
    "longitude": 16.934385,
    "latitude": 52.408877,
    "popupLines": [
      "BANK POLSKA KASA OPIEKI S.A. - (BANK PEKAO S.A.)",
      "Financial Institution",
      "Max withdrawal: 4000",
      "Smallest denom: 50"
    ]
  },
  {
    "id": "68573",
    "label": "oddział Banku",
    "address": "ul. Garbary 100/151156",
    "city": "Poznań",
    "longitude": 16.93813705,
    "latitude": 52.40902328,
    "popupLines": [
      "Open 24/7",
      "PKO BP",
      "PKO Bank Polski S.A."
    ]
  },
  {
    "id": "1019089206",
    "label": "OTHER",
    "address": "ULICA HENRYKA SIENKIEWICZA 22",
    "city": "POZNAN",
    "longitude": 16.90919,
    "latitude": 52.40904,
    "popupLines": [
      "Financial Institution",
      "Max withdrawal: 1000",
      "OTHER",
      "PKO BANK POLSKI",
      "POWSZECHNA KASA OSZCZEDNOSCI BANK POLSKI S.A. (PKO BANK POLSKI S.A.)",
      "Smallest denom: 15"
    ]
  },
  {
    "id": "65355",
    "label": "32 Oddział w Poznaniu",
    "address": "ul. Garbary 71",
    "city": "Poznań",
    "longitude": 16.937901,
    "latitude": 52.409043,
    "popupLines": [
      "Open 24/7",
      "Santander Bank Polska"
    ]
  },
  {
    "id": "74614,PNET1960",
    "label": "CH Carrefour",
    "address": "Nowogrodzka 13, ul. Nowogrodzka 13",
    "city": "Poznań",
    "longitude": 16.985075,
    "latitude": 52.409111,
    "popupLines": [
      "pn-so: 00:00-24:00, nd: 00:00-24:00"
    ]
  },
  {
    "id": "76774",
    "label": "SGB",
    "address": "ul. Mielżyńskiego 0",
    "city": "Poznań",
    "longitude": 16.923461156140572,
    "latitude": 52.40919810372072,
    "popupLines": [
      "bd."
    ]
  },
  {
    "id": "3295,329776734",
    "label": "BANK",
    "address": "ULICA SEWERYNA MIELŻYŃSKIEGO 22, ul. Mielżyńskiego 22",
    "city": "POZNAN",
    "longitude": 16.923287,
    "latitude": 52.409201,
    "popupLines": [
      "BANK",
      "Financial Institution",
      "Max withdrawal: 1000",
      "Open 24/7",
      "SGB",
      "SGB Bank S.A.",
      "SGB-BANK S.A.",
      "SGB-Bank S.A.",
      "Smallest denom: 50"
    ]
  },
  {
    "id": "657429586",
    "label": "DRAM: WHISKY EXPLORERS BAR",
    "address": "ULICA STARY RYNEK 92",
    "city": "POZNAN",
    "longitude": 16.933939,
    "latitude": 52.409202,
    "popupLines": [
      "EURONET 360 FINANCE LTD",
      "EURONET POLSKA SP. Z O.O.",
      "Max withdrawal: 4000",
      "RESIDENTIAL",
      "Smallest denom: 50"
    ]
  },
  {
    "id": "67552",
    "label": "Oddział Poznaniu ul. Roosevelta 18",
    "address": "ul. Roosevelta 18",
    "city": "Poznań",
    "longitude": 16.912084,
    "latitude": 52.409244,
    "popupLines": [
      "Bank Pekao S.A.",
      "Open 24/7",
      "Pekao S.A."
    ]
  },
  {
    "id": "689590066",
    "label": "UNIVERSITY",
    "address": "ULICA HENRYKA SIENKIEWICZA 20",
    "city": "POZNAN",
    "longitude": 16.90838,
    "latitude": 52.40926,
    "popupLines": [
      "Max withdrawal: 1000",
      "PKO BANK POLSKI",
      "POWSZECHNA KASA OSZCZEDNOSCI BANK POLSKI S.A. (PKO BANK POLSKI S.A.)",
      "Smallest denom: 15",
      "University"
    ]
  },
  {
    "id": "274887256",
    "label": "BANK PEKAO S.A.",
    "address": "ULICA FRANKLINA DELANO ROOSEVELTA 18",
    "city": "POZNAN",
    "longitude": 16.912131,
    "latitude": 52.409415,
    "popupLines": [
      "BANK POLSKA KASA OPIEKI S.A. - (BANK PEKAO S.A.)",
      "Financial Institution",
      "Max withdrawal: 4000",
      "Smallest denom: 50"
    ]
  },
  {
    "id": "69496",
    "label": "urząd",
    "address": "ul. Jackowskiego 18",
    "city": "Poznań",
    "longitude": 16.90149498,
    "latitude": 52.40954208,
    "popupLines": [
      "Open 24/7",
      "PKO BP",
      "PKO Bank Polski S.A."
    ]
  },
  {
    "id": "67641",
    "label": "oddział Banku",
    "address": "ul. Jana Pawła II 4",
    "city": "Więcbork",
    "longitude": 16.95520973,
    "latitude": 52.40958786,
    "popupLines": [
      "Open 24/7",
      "PKO BP",
      "PKO Bank Polski S.A."
    ]
  },
  {
    "id": "75276",
    "label": "jednostka Banku",
    "address": "ul. Wrzesińska 15",
    "city": "Swarzędz",
    "longitude": 17.080721,
    "latitude": 52.409698,
    "popupLines": [
      "bd."
    ]
  },
  {
    "id": "euronet-PLWJ0195",
    "label": "Szpital Kliniczny UM",
    "address": "ul. Polna 33",
    "city": "Poznań",
    "longitude": 16.895052,
    "latitude": 52.409784,
    "popupLines": [
      "Euronet"
    ]
  },
  {
    "id": "689418282",
    "label": "OTHER",
    "address": "ULICA HENRYKA SIENKIEWICZA 10",
    "city": "POZNAN",
    "longitude": 16.90544,
    "latitude": 52.4098,
    "popupLines": [
      "Max withdrawal: 1000",
      "OTHER",
      "PKO BANK POLSKI",
      "POWSZECHNA KASA OSZCZEDNOSCI BANK POLSKI S.A. (PKO BANK POLSKI S.A.)",
      "Smallest denom: 15"
    ]
  },
  {
    "id": "57481",
    "label": "Oddział banku",
    "address": "ul. Wrzesińska 41",
    "city": "Swarzędz",
    "longitude": 17.084869,
    "latitude": 52.409817,
    "popupLines": [
      "Credit Agricole Bank Polska S.A.",
      "Euronet",
      "Open 24/7"
    ]
  },
  {
    "id": "75687,PNET8358",
    "label": "Biedronka",
    "address": "Cieszkowskiego 5/7, ul. Cieszkowskiego 5/7",
    "city": "Swarzędz",
    "longitude": 17.0841567,
    "latitude": 52.410132,
    "popupLines": [
      "pn-so: 00:00-24:00, nd: 00:00-24:00"
    ]
  },
  {
    "id": "77001",
    "label": "Oddział 320",
    "address": "ul. Rynek 43134",
    "city": "Swarzędz",
    "longitude": 17.078823,
    "latitude": 52.410332,
    "popupLines": [
      "Bank Millennium",
      "Bank Millennium S.A.",
      "Open 24/7"
    ]
  },
  {
    "id": "70624,73778,75835,RNET2561,RNET2562,RNET5C96,RNET5E47,planetcash-RNET2561,planetcash-RNET2562,planetcash-RNET5C96,planetcash-RNET5E47,sgb-SGBA1768",
    "label": "King Cross Marcelin, King Cross Marcelin(Odział Getin Bank), King Cross Marcelin(mKiosk), King Cross Marcelin(oddział Getin Bank), King Cross Marcelin(poziom 0 obok sklepu Ryłko), SGB SA",
    "address": "Bukowska 156, ul. Bukowska 156",
    "city": "Poznań",
    "longitude": 16.86348554,
    "latitude": 52.41059749,
    "popupLines": [
      "Getin Bank S.A.",
      "Odział Getin Bank",
      "Planet Cash",
      "PlanetCash",
      "SGB",
      "Spółdzielcza Grupa Bankowa",
      "mBank S.A.",
      "mKiosk",
      "oddział Getin Bank",
      "po-so: 09:00-21:00, nd: 09:00-21:00",
      "poziom 0 obok sklepu Ryłko"
    ]
  },
  {
    "id": "71157,RNET6681",
    "label": "BNP Paribas",
    "address": "Rynek 32-33, ul. Rynek 3233",
    "city": "Swarzędz",
    "longitude": 17.078032,
    "latitude": 52.41064,
    "popupLines": [
      "BNP Paribas S.A.",
      "PlanetBNPP",
      "pn-so: 00:00-24:00, nd: 00:00-24:00"
    ]
  },
  {
    "id": "74851,PNET8349,planetcash-PNET8349",
    "label": "Biedronka",
    "address": "Polna 41, ul. Polna 41",
    "city": "Poznań",
    "longitude": 16.8954659,
    "latitude": 52.4107342,
    "popupLines": [
      "Planet Cash",
      "pn-so: 07:00-21:00, nd: 09:00-19:00"
    ]
  },
  {
    "id": "euronet-RCNJ0073",
    "label": "CH King Cross Marcelin",
    "address": "ul. Bukowska 156",
    "city": "Poznań",
    "longitude": 16.862961,
    "latitude": 52.410801,
    "popupLines": [
      "Euronet"
    ]
  },
  {
    "id": "64759,santander-3900701",
    "label": "CH King Cross",
    "address": "Bukowska 156, ul. Bukowska 156",
    "city": "Poznań",
    "longitude": 16.861516,
    "latitude": 52.41082,
    "popupLines": [
      "Santander",
      "Santander Bank Polska",
      "pn-so: 08:00-22:00, nd: 09:00-20:00"
    ]
  },
  {
    "id": "657472930",
    "label": "KAMIENICA",
    "address": "ULICA HENRYKA DĄBROWSKIEGO 20-22",
    "city": "POZNAN",
    "longitude": 16.912877,
    "latitude": 52.410835,
    "popupLines": [
      "EURONET 360 FINANCE LTD",
      "EURONET POLSKA SP. Z O.O.",
      "Max withdrawal: 4000",
      "ON STREET",
      "On Street",
      "Smallest denom: 50"
    ]
  },
  {
    "id": "40012481",
    "label": "ALIOR BANK, ODDZIAL",
    "address": "ULICA GEN. JANA H. DĄBROWSKIEGO 14-16",
    "city": "POZNAN",
    "longitude": 16.911297,
    "latitude": 52.410854,
    "popupLines": [
      "BANK BRANCH",
      "EURONET 360 FINANCE LTD",
      "EURONET POLSKA SP. Z O.O.",
      "Financial Institution",
      "Max withdrawal: 4000",
      "Smallest denom: 20"
    ]
  },
  {
    "id": "69539",
    "label": "inne",
    "address": "ul. Roosevelta 11",
    "city": "Poznań",
    "longitude": 16.91320801,
    "latitude": 52.41085815,
    "popupLines": [
      "Open 24/7",
      "PKO BP",
      "PKO Bank Polski S.A."
    ]
  },
  {
    "id": "euronet-RCWJ0P27",
    "label": "CH King Cross Marcelin",
    "address": "ul. Bukowska 156",
    "city": "Poznań",
    "longitude": 16.862779,
    "latitude": 52.410878,
    "popupLines": [
      "Euronet"
    ]
  },
  {
    "id": "57233,657043802",
    "label": "ALIOR BANK ODDZIAL, Oddział banku",
    "address": "ULICA SZYPERSKA 14",
    "city": "POZNAN",
    "longitude": 16.940682,
    "latitude": 52.410947,
    "popupLines": [
      "Alior Bank S.A.",
      "BANK BRANCH",
      "EURONET 360 FINANCE LTD",
      "EURONET POLSKA SP. Z O.O.",
      "Euronet",
      "Financial Institution",
      "Max withdrawal: 4000",
      "Open 24/7",
      "Smallest denom: 50"
    ]
  },
  {
    "id": "euronet-RCNJ0J84",
    "label": "Pati i Maks",
    "address": "ul. Polna 40",
    "city": "Poznań",
    "longitude": 16.895483,
    "latitude": 52.41099,
    "popupLines": [
      "Euronet"
    ]
  },
  {
    "id": "274520708",
    "label": "BANK BRANCH",
    "address": "ULICA GEN. JANA H. DĄBROWSKIEGO 9",
    "city": "POZNAN",
    "longitude": 16.91148,
    "latitude": 52.41103,
    "popupLines": [
      "Financial Institution",
      "Max withdrawal: ",
      "RAIFFEISEN BANK POLSKA S.A.",
      "Smallest denom: "
    ]
  },
  {
    "id": "76804,millennium-MBPL005R",
    "label": ", Oddział 005",
    "address": "ul. Bukowska 156",
    "city": "Poznań",
    "longitude": 16.861463,
    "latitude": 52.411039,
    "popupLines": [
      "Bank Millennium",
      "Bank Millennium S.A.",
      "Millennium",
      "Millennium Bank",
      "pn-so: 9:00-21:00, nd: 10:00-20:00"
    ]
  },
  {
    "id": "65816",
    "label": "Teatralka",
    "address": "ul. Roosevelta 10",
    "city": "Poznań",
    "longitude": 16.913319,
    "latitude": 52.411089,
    "popupLines": [
      "Open 24/7",
      "Santander Bank Polska"
    ]
  },
  {
    "id": "274971434",
    "label": "TEATRALKA",
    "address": "FRANKLINA ROOSEVELTA 10",
    "city": "POZNAN",
    "longitude": 16.91344,
    "latitude": 52.41109,
    "popupLines": [
      "Max withdrawal: 6000",
      "Restaurant",
      "SANTANDER BANK POLSKA",
      "SANTANDER BANK POLSKA S.A.",
      "Smallest denom: 10"
    ]
  },
  {
    "id": "274520708",
    "label": "KASA STEFCZYKA",
    "address": "ULICA GEN. JANA H. DĄBROWSKIEGO 9",
    "city": "POZNAN",
    "longitude": 16.911756,
    "latitude": 52.411092,
    "popupLines": [
      "BANK BRANCH",
      "EURONET 360 FINANCE LTD",
      "EURONET POLSKA SP. Z O.O.",
      "Financial Institution",
      "Max withdrawal: 4000",
      "Smallest denom: 20"
    ]
  },
  {
    "id": "69550",
    "label": "sklep",
    "address": "ul. Kraszewskiego 8",
    "city": "Poznań",
    "longitude": 16.90335083,
    "latitude": 52.41109467,
    "popupLines": [
      "Open 24/7",
      "PKO BP",
      "PKO Bank Polski S.A."
    ]
  },
  {
    "id": "RNET6918",
    "label": "BNP Paribas",
    "address": "Dąbrowskiego 9/11",
    "city": "Poznań",
    "longitude": 16.911714,
    "latitude": 52.411158,
    "popupLines": [
      null
    ]
  },
  {
    "id": "66389690,77064",
    "label": "MILLENNIUM BRANCH, Oddział 464",
    "address": "ULICA MAŁE GARBARY 9",
    "city": "POZNAŃ",
    "longitude": 16.938002,
    "latitude": 52.411159,
    "popupLines": [
      "BANK MILLENNIUM S.A.",
      "Bank Millennium",
      "Financial Institution",
      "Max withdrawal: 4000",
      "Open 24/7",
      "Smallest denom: 50"
    ]
  },
  {
    "id": "75484,PNET1907,planetcash-PNET1907",
    "label": "Biedronka",
    "address": "Bułgarska 121/123, ul. Bułgarska 121/123",
    "city": "Poznań",
    "longitude": 16.868376,
    "latitude": 52.411253,
    "popupLines": [
      "Planet Cash",
      "po-so: 07:00-21:00, nd: 09:00-20:00"
    ]
  },
  {
    "id": "27051,478389650",
    "label": "ODDZIAL BANKU MILLENNIUM 272, Oddział banku",
    "address": "JÓZEFA KRASZEWSKIEGO 9, ul. Kraszewskiego 9",
    "city": "POZNAN",
    "longitude": 16.90306,
    "latitude": 52.4113,
    "popupLines": [
      "10:00-17:00",
      "BANK BRANCH",
      "EURONET 360 FINANCE LTD",
      "EURONET POLSKA SP. Z O.O.",
      "Euro Bank S.A.",
      "Euronet",
      "Financial Institution",
      "Max withdrawal: 4000",
      "Smallest denom: 50"
    ]
  },
  {
    "id": "657190636",
    "label": "BIEDRONKA",
    "address": "ULICA PIASKOWA 2",
    "city": "POZNAN",
    "longitude": 16.939005,
    "latitude": 52.411438,
    "popupLines": [
      "EURONET 360 FINANCE LTD",
      "EURONET POLSKA SP. Z O.O.",
      "Max withdrawal: 4000",
      "SUPERMARKET",
      "Smallest denom: 50",
      "Super Market"
    ]
  },
  {
    "id": "252961766",
    "label": "BANK BRANCH",
    "address": "MŁYŃSKA 14",
    "city": "POZNAN",
    "longitude": 16.927314,
    "latitude": 52.411494,
    "popupLines": [
      "Financial Institution",
      "Max withdrawal: ",
      "RAIFFEISEN BANK POLSKA S.A.",
      "Smallest denom: "
    ]
  },
  {
    "id": "euronet-RCNJ0AE9",
    "label": "Netto",
    "address": "ul. Polna 28",
    "city": "Poznań",
    "longitude": 16.89542,
    "latitude": 52.411569,
    "popupLines": [
      "Euronet"
    ]
  },
  {
    "id": "312179554,74759,PNET2275",
    "label": "SKLEP MIĘSNY",
    "address": "Dąbrowskiego 32, ULICA HENRYKA DĄBROWSKIEGO 20-22, ul. Dąbrowskiego 32",
    "city": "POZNAŃ",
    "longitude": 16.907774,
    "latitude": 52.411661,
    "popupLines": [
      "MBANK S.A.",
      "Max withdrawal: 4000",
      "PLANET CASH",
      "Retail Store",
      "Smallest denom: 20",
      "pn-so: 00:00-24:00, nd: 00:00-24:00"
    ]
  },
  {
    "id": "3302,sgb-S2AN1393",
    "label": "Kingcross, SGB - SGB - Bank S.A.",
    "address": "King Cross Bukowska 156, ul. Bukowska 156",
    "city": "Poznań",
    "longitude": 16.862585,
    "latitude": 52.411771,
    "popupLines": [
      "09:00-22:00",
      "SGB",
      "SGB Bank S.A.",
      "SGB-Bank S.A.",
      "Spółdzielcza Grupa Bankowa"
    ]
  },
  {
    "id": "47",
    "label": "Oddział Banku",
    "address": "ul. Garbary 95",
    "city": "Poznań",
    "longitude": 16.938584,
    "latitude": 52.412093,
    "popupLines": [
      "Deutsche Bank Polska S.A.",
      "Euronet",
      "Open 24/7"
    ]
  },
  {
    "id": "3322,75848,sgb-SGBA1794",
    "label": "SGB SA, Szpital",
    "address": "Szamarzewskiego 62, ul. Szamarzewskiego 62",
    "city": "Poznań",
    "longitude": 16.887611600000014,
    "latitude": 52.4121235,
    "popupLines": [
      "Open 24/7",
      "SGB",
      "SGB Bank S.A.",
      "SGB-Bank S.A.",
      "Spółdzielcza Grupa Bankowa",
      "pn-so: 00:00-24:00, nd: 00:00-24:00"
    ]
  },
  {
    "id": "274882550",
    "label": "PKO BRANCH",
    "address": "ULICA GEN. JANA H. DĄBROWSKIEGO 41",
    "city": "POZNAN",
    "longitude": 16.90631,
    "latitude": 52.41216,
    "popupLines": [
      "Financial Institution",
      "Max withdrawal: 1000",
      "PKO BANK POLSKI",
      "POWSZECHNA KASA OSZCZEDNOSCI BANK POLSKI S.A. (PKO BANK POLSKI S.A.)",
      "Smallest denom: 15"
    ]
  },
  {
    "id": "69788",
    "label": "oddział Banku",
    "address": "ul. Dąbrowskiego 41",
    "city": "Poznań",
    "longitude": 16.90611267,
    "latitude": 52.41220856,
    "popupLines": [
      "Open 24/7",
      "PKO BP",
      "PKO Bank Polski S.A."
    ]
  },
  {
    "id": "333560418,70823,71062,RNET6017,RNET6668",
    "label": "BNP PARIBAS",
    "address": "BÓŻNICZA 1, ul. Bóżnicza 1",
    "city": "POZNAŃ",
    "longitude": 16.93528599,
    "latitude": 52.41226061,
    "popupLines": [
      "BNP PARIBAS BANK POLSKA S.A.",
      "BNP Paribas S.A.",
      "Financial Institution",
      "Max withdrawal: 4000",
      "PLANET CASH",
      "PlanetBNPP",
      "Smallest denom: 20",
      "pn-so: 00:00-24:00, nd: 00:00-24:00"
    ]
  },
  {
    "id": "64810",
    "label": "Port Lotniczy Ławica",
    "address": "ul. Bukowska 265",
    "city": "Poznań",
    "longitude": 16.844546,
    "latitude": 52.412455,
    "popupLines": [
      "Open 24/7",
      "Santander Bank Polska"
    ]
  },
  {
    "id": "64446,65803",
    "label": "18 Oddział w Poznaniu",
    "address": "ul. Dąbrowskiego 53/55",
    "city": "Poznań",
    "longitude": 16.904247,
    "latitude": 52.412703,
    "popupLines": [
      "Open 24/7",
      "Santander Bank Polska"
    ]
  },
  {
    "id": "57613",
    "label": "Oddział banku",
    "address": "ul. Dąbrowskiego 75",
    "city": "Poznań",
    "longitude": 16.901192,
    "latitude": 52.413402,
    "popupLines": [
      "Credit Agricole Bank Polska S.A.",
      "Euronet",
      "Open 24/7"
    ]
  },
  {
    "id": "75464,PNET2785",
    "label": "Biedronka",
    "address": "Małachowskiego 14, ul. Małachowskiego 14",
    "city": "Poznań",
    "longitude": 16.959541,
    "latitude": 52.413452,
    "popupLines": [
      "pn-so: 00:00-24:00, nd: 00:00-24:00"
    ]
  },
  {
    "id": "pko-4459",
    "label": "",
    "address": "ul. Augustyna Szamarzawskiego 89",
    "city": "60-568 Poznań",
    "longitude": 16.8840687,
    "latitude": 52.4135523,
    "popupLines": [
      "PKO"
    ]
  },
  {
    "id": "70230",
    "label": "inne",
    "address": "ul. Dąbrowskiego 79",
    "city": "Poznań",
    "longitude": 16.89988327,
    "latitude": 52.41387939,
    "popupLines": [
      "Open 24/7",
      "PKO BP",
      "PKO Bank Polski S.A."
    ]
  },
  {
    "id": "68480",
    "label": "oddział Banku",
    "address": "ul. Cieszkowskiego 29",
    "city": "Swarzędz",
    "longitude": 17.08499336,
    "latitude": 52.41390228,
    "popupLines": [
      "Open 24/7",
      "PKO BP",
      "PKO Bank Polski S.A."
    ]
  },
  {
    "id": "69479",
    "label": "uczelnia wyższa",
    "address": "ul. Augustyna Szamarzawskiego 89",
    "city": "Poznań",
    "longitude": 16.88354111,
    "latitude": 52.41399002,
    "popupLines": [
      "Open 24/7",
      "PKO BP",
      "PKO Bank Polski S.A."
    ]
  },
  {
    "id": "657476226",
    "label": "NETTO",
    "address": "ULICA POZNAŃSKA 62",
    "city": "POZNAN",
    "longitude": 16.912784,
    "latitude": 52.413996,
    "popupLines": [
      "EURONET 360 FINANCE LTD",
      "EURONET POLSKA SP. Z O.O.",
      "Max withdrawal: 4000",
      "SUPERMARKET",
      "Smallest denom: 20",
      "Super Market"
    ]
  },
  {
    "id": "245940772",
    "label": "32 ODDZIAL W POZNANIU",
    "address": "GARBARY 71",
    "city": "POZNAN",
    "longitude": 16.93901,
    "latitude": 52.41401,
    "popupLines": [
      "Financial Institution",
      "Max withdrawal: 6000",
      "SANTANDER BANK POLSKA",
      "SANTANDER BANK POLSKA S.A.",
      "Smallest denom: 10"
    ]
  },
  {
    "id": "57328",
    "label": "Oddział banku",
    "address": "ul. Dabrowskiego 79A",
    "city": "Poznań",
    "longitude": 16.898968,
    "latitude": 52.41403,
    "popupLines": [
      "BOŚ Bank",
      "Euronet",
      "Open 24/7"
    ]
  },
  {
    "id": "67547",
    "label": "Port Lotniczy Poznań Ławica",
    "address": "ul. Bukowska 285",
    "city": "Poznań",
    "longitude": 16.837638,
    "latitude": 52.41423,
    "popupLines": [
      "Bank Pekao S.A.",
      "Open 24/7",
      "Pekao S.A."
    ]
  },
  {
    "id": "euronet-PLNJ0153",
    "label": "Biedronka",
    "address": "ul. Dąbrowskiego 79",
    "city": "Poznań",
    "longitude": 16.897721,
    "latitude": 52.41431,
    "popupLines": [
      "Euronet"
    ]
  },
  {
    "id": "69516,74540,PNET1671",
    "label": "Lotnisko Port Lotniczy Ławica, lotnisko",
    "address": "Bukowska 285, ul. Bukowska 285",
    "city": "Poznań",
    "longitude": 16.837237,
    "latitude": 52.414406,
    "popupLines": [
      "Open 24/7",
      "PKO BP",
      "PKO Bank Polski S.A.",
      "pn-so: 00:00-24:00, nd: 00:00-24:00"
    ]
  },
  {
    "id": "67347",
    "label": "I Oddział w Swarzędzu",
    "address": "Os. Dąbrowszczaków 8/5",
    "city": "Swarzędz",
    "longitude": 17.079632,
    "latitude": 52.414463,
    "popupLines": [
      "Bank Pekao S.A.",
      "Open 24/7",
      "Pekao S.A."
    ]
  },
  {
    "id": "274860668",
    "label": "CENTRUM AKADEMICKIE POLONEZ",
    "address": "ALEJA NIEPODLEGŁOŚCI 36",
    "city": "POZNAN",
    "longitude": 16.926327,
    "latitude": 52.414962,
    "popupLines": [
      "EURONET 360 FINANCE LTD",
      "EURONET POLSKA SP. Z O.O.",
      "Max withdrawal: 4000",
      "Smallest denom: 20",
      "UNIVERSITY/ ACADEMY",
      "University"
    ]
  },
  {
    "id": "111162986,74792,PNET8187",
    "label": "BIEDRONKA",
    "address": "KOŚCIELNA 30, ul. Kościelna 30",
    "city": "POZNAŃ",
    "longitude": 16.9059915,
    "latitude": 52.4150736,
    "popupLines": [
      "MBANK S.A.",
      "Max withdrawal: 4000",
      "PLANET CASH",
      "Retail Store",
      "Smallest denom: 20",
      "pn-so: 07:00-21:00, nd: 09:00-19:00"
    ]
  },
  {
    "id": "santander-3900017",
    "label": "31 Oddział",
    "address": "Jana H. Dąbrowskiego 129/131",
    "city": "Poznań",
    "longitude": 16.890197,
    "latitude": 52.415879,
    "popupLines": [
      "Santander"
    ]
  },
  {
    "id": "69506,pko-3239,pko-3388",
    "label": ", oddział Banku",
    "address": "Pl. Ludwika Waryńskiego 3",
    "city": "60-578 Poznań, Poznań",
    "longitude": 16.88301165,
    "latitude": 52.4160606,
    "popupLines": [
      "Open 24/7",
      "PKO",
      "PKO BP",
      "PKO Bank Polski S.A."
    ]
  },
  {
    "id": "65432,santander-3900703,santander-3900836",
    "label": "31 Oddział, 31 Oddział w Poznaniu",
    "address": "Jana H. Dąbrowskiego 129/131, ul. Dąbrowskiego 129/131",
    "city": "Poznań",
    "longitude": 16.889779,
    "latitude": 52.416236,
    "popupLines": [
      "Open 24/7",
      "Santander",
      "Santander Bank Polska"
    ]
  },
  {
    "id": "68974",
    "label": "dworzec kolejowy",
    "address": "ul. Garbary 125",
    "city": "Poznań",
    "longitude": 16.9383831,
    "latitude": 52.4164238,
    "popupLines": [
      "Open 24/7",
      "PKO BP",
      "PKO Bank Polski S.A."
    ]
  },
  {
    "id": "santander-4700869",
    "label": "Społem",
    "address": "Waryńskiego 1A",
    "city": "Poznań",
    "longitude": 16.8819478,
    "latitude": 52.4164886,
    "popupLines": [
      "Santander"
    ]
  },
  {
    "id": "pekao-A0040304",
    "label": "II Oddział w Poznaniu, Filia 4 w Poznaniu",
    "address": "ul. Nowina 9",
    "city": "Poznań",
    "longitude": 16.8772454,
    "latitude": 52.4171115,
    "popupLines": [
      "Bank Pekao",
      "Pekao"
    ]
  },
  {
    "id": "64450,65183",
    "label": "1 Oddział w Przeźmierowie",
    "address": "ul. Rynkowa 116",
    "city": "Przeźmierowo",
    "longitude": 16.78814,
    "latitude": 52.42011,
    "popupLines": [
      "Open 24/7",
      "Santander Bank Polska"
    ]
  },
  {
    "id": "75807",
    "label": "Filia",
    "address": "ul. Maczka 14",
    "city": "Poznań",
    "longitude": 16.9146,
    "latitude": 52.4237,
    "popupLines": [
      "pn-so: 00:00-24:00, nd: 00:00-24:00"
    ]
  },
  {
    "id": "65629",
    "label": "Apteka",
    "address": "ul. Wojska Polskiego 6/8",
    "city": "Poznań",
    "longitude": 16.908702,
    "latitude": 52.424798,
    "popupLines": [
      "Open 24/7",
      "Santander Bank Polska"
    ]
  },
  {
    "id": "67544",
    "label": "Oddział w Przeźmierowie ul. Rynkowa 75c",
    "address": "ul. Rynkowa 75c",
    "city": "Przeźmierowo",
    "longitude": 16.785638,
    "latitude": 52.426194,
    "popupLines": [
      "Bank Pekao S.A.",
      "Open 24/7",
      "Pekao S.A."
    ]
  },
  {
    "id": "74343,PNET1272",
    "label": "Biedronka",
    "address": "Sokoła 26, ul. Sokoła 26",
    "city": "Poznań",
    "longitude": 16.9118,
    "latitude": 52.4263,
    "popupLines": [
      "pn-so: 07:00-21:00, nd: 09:00-19:00"
    ]
  },
  {
    "id": "73353,RNET7319,RNET7320",
    "label": "ING Bank Śląski",
    "address": "Rynkowa 73, ul. Rynkowa 73",
    "city": "Przeźmierowo",
    "longitude": 16.785353,
    "latitude": 52.426638,
    "popupLines": [
      "ING Bank Śląski S.A.",
      "Oddział ING",
      "pn-so: 00:00-24:00, nd: 00:00-24:00"
    ]
  },
  {
    "id": "69470",
    "label": "uczelnia wyższa",
    "address": "ul. Wojska Polskiego 28",
    "city": "Poznań",
    "longitude": 16.90407753,
    "latitude": 52.42725372,
    "popupLines": [
      "Open 24/7",
      "PKO BP",
      "PKO Bank Polski S.A."
    ]
  },
  {
    "id": "70227",
    "label": "pasaż handlowousługowy",
    "address": "ul. Słowiańska 38",
    "city": "Poznań",
    "longitude": 16.92519188,
    "latitude": 52.42779922,
    "popupLines": [
      "Open 24/7",
      "PKO BP",
      "PKO Bank Polski S.A."
    ]
  },
  {
    "id": "68527",
    "label": "oddział Banku",
    "address": "ul. Rynkowa 75c",
    "city": "Przeźmierowo",
    "longitude": 16.78403282,
    "latitude": 52.42871094,
    "popupLines": [
      "Open 24/7",
      "PKO BP",
      "PKO Bank Polski S.A."
    ]
  },
  {
    "id": "76906",
    "label": "Oddział 172",
    "address": "ul. Oś. Przyjaźni 132C",
    "city": "Poznań",
    "longitude": 16.926008,
    "latitude": 52.42903,
    "popupLines": [
      "Bank Millennium",
      "Bank Millennium S.A.",
      "Open 24/7"
    ]
  },
  {
    "id": "euronet-RCDJ0639",
    "label": "Piotr i Paweł",
    "address": "ul. Tatrzańska 1/5",
    "city": "Poznań",
    "longitude": 16.848915,
    "latitude": 52.429926,
    "popupLines": [
      "Euronet"
    ]
  },
  {
    "id": "64536",
    "label": "7 Oddział w Poznaniu",
    "address": "ul. Gronowa 22",
    "city": "Poznań",
    "longitude": 16.934545,
    "latitude": 52.429987,
    "popupLines": [
      "Open 24/7",
      "Santander Bank Polska"
    ]
  },
  {
    "id": "euronet-PLNJ1017",
    "label": "Piotr i Paweł",
    "address": "ul. Tatrzańska 1/5",
    "city": "Poznań",
    "longitude": 16.8485,
    "latitude": 52.430128,
    "popupLines": [
      "Euronet"
    ]
  },
  {
    "id": "69493",
    "label": "sklep",
    "address": "Os. Przyjaźni 141 a",
    "city": "Poznań",
    "longitude": 16.92060852,
    "latitude": 52.43016815,
    "popupLines": [
      "Open 24/7",
      "PKO BP",
      "PKO Bank Polski S.A."
    ]
  },
  {
    "id": "69513",
    "label": "agencja",
    "address": "ul. Słowiańska 53 c",
    "city": "Poznań",
    "longitude": 16.93405342,
    "latitude": 52.43089676,
    "popupLines": [
      "Open 24/7",
      "PKO BP",
      "PKO Bank Polski S.A."
    ]
  },
  {
    "id": "70088",
    "label": "oddział Banku",
    "address": "Os. Przyjaźni 125 C",
    "city": "Poznań",
    "longitude": 16.92991066,
    "latitude": 52.43124008,
    "popupLines": [
      "Open 24/7",
      "PKO BP",
      "PKO Bank Polski S.A."
    ]
  },
  {
    "id": "70074",
    "label": "sklep",
    "address": "ul. Wejherowska 4",
    "city": "Poznań",
    "longitude": 16.82518959,
    "latitude": 52.43129349,
    "popupLines": [
      "Open 24/7",
      "PKO BP",
      "PKO Bank Polski S.A."
    ]
  },
  {
    "id": "74813,PNET8238",
    "label": "Biedronka",
    "address": "Dąbrowskiego 399, ul. Dąbrowskiego 399",
    "city": "Poznań",
    "longitude": 16.8327308,
    "latitude": 52.4324979,
    "popupLines": [
      "pn-so: 07:00-21:00, nd: 09:00-19:00"
    ]
  },
  {
    "id": "73858,RNET5E93",
    "label": "Tesco",
    "address": "Serbska 7, ul. Serbska 7",
    "city": "Poznań",
    "longitude": 16.950355,
    "latitude": 52.432563,
    "popupLines": [
      "mBank S.A.",
      "pn-so: 00:00-24:00, nd: 00:00-24:00",
      "przed wejściem do sklepu"
    ]
  },
  {
    "id": "76767,PNET3145",
    "label": "Biedronka",
    "address": "Serbska 15/1, ul. Serbska 15/1",
    "city": "Poznań",
    "longitude": 16.945983,
    "latitude": 52.43259,
    "popupLines": [
      "bd."
    ]
  },
  {
    "id": "64465",
    "label": "Tesco",
    "address": "ul. Serbska 7",
    "city": "Poznań",
    "longitude": 16.950686,
    "latitude": 52.43295,
    "popupLines": [
      "Open 24/7",
      "Santander Bank Polska"
    ]
  },
  {
    "id": "64852",
    "label": "Stacja BP",
    "address": "ul. Dąbrowskiego 543",
    "city": "Poznań",
    "longitude": 16.800849,
    "latitude": 52.433661,
    "popupLines": [
      "Open 24/7",
      "Santander Bank Polska"
    ]
  },
  {
    "id": "64946",
    "label": "Kaufland",
    "address": "Al. Solidarności 42",
    "city": "Poznań",
    "longitude": 16.927449,
    "latitude": 52.435125,
    "popupLines": [
      "Santander Bank Polska",
      "pn-so: 07:00-22:00, nd: 07:00-20:00"
    ]
  },
  {
    "id": "71017,RNET6916",
    "label": "BNP Paribas",
    "address": "Aleje Solidarności 46, ul. Aleje Solidarności 46",
    "city": "Poznań",
    "longitude": 16.924566,
    "latitude": 52.435204,
    "popupLines": [
      "BNP Paribas S.A.",
      "PlanetBNPP",
      "pn-so: 00:00-24:00, nd: 00:00-24:00"
    ]
  },
  {
    "id": "57480",
    "label": "Oddział banku",
    "address": "Al. Solidarności 46",
    "city": "Poznań",
    "longitude": 16.92452,
    "latitude": 52.43528,
    "popupLines": [
      "Credit Agricole Bank Polska S.A.",
      "Euronet",
      "Open 24/7"
    ]
  },
  {
    "id": "67556",
    "label": "Oddział w Poznaniu Al. Solidarności 46",
    "address": "Al. Solidarności 46",
    "city": "Poznań",
    "longitude": 16.924684,
    "latitude": 52.435285,
    "popupLines": [
      "Bank Pekao S.A.",
      "Open 24/7",
      "Pekao S.A."
    ]
  },
  {
    "id": "73315,RNET7282,RNET7283",
    "label": "ING Bank Śląski",
    "address": "Piątkowska 161, ul. Piątkowska 161",
    "city": "Poznań",
    "longitude": 16.911926,
    "latitude": 52.435825,
    "popupLines": [
      "ING Bank Śląski S.A.",
      "Oddział",
      "pn-so: 00:00-24:00, nd: 00:00-24:00"
    ]
  },
  {
    "id": "68501",
    "label": "sklep",
    "address": "Os. Wichrowe Wzgórze 120",
    "city": "Poznań",
    "longitude": 16.93419075,
    "latitude": 52.4368248,
    "popupLines": [
      "Open 24/7",
      "PKO BP",
      "PKO Bank Polski S.A."
    ]
  },
  {
    "id": "74042,RNET5C52",
    "label": "mKiosk w Galerii Pestka",
    "address": "Al. Solidarności 47",
    "city": "Poznań",
    "longitude": 16.919139,
    "latitude": 52.437338,
    "popupLines": [
      "mBank S.A.",
      "mKiosk",
      "pn-so: 09:00-21:00, nd: 10:00-20:00"
    ]
  },
  {
    "id": "27043",
    "label": "Oddział banku",
    "address": "Al. Solidarności 47",
    "city": "Poznań",
    "longitude": 16.91828,
    "latitude": 52.43754,
    "popupLines": [
      "09:30-21:00",
      "Euro Bank S.A.",
      "Euronet"
    ]
  },
  {
    "id": "68976",
    "label": "sklep",
    "address": "Os. Zwycięstwa 110",
    "city": "Poznań",
    "longitude": 16.92200089,
    "latitude": 52.43799973,
    "popupLines": [
      "Open 24/7",
      "PKO BP",
      "PKO Bank Polski S.A."
    ]
  },
  {
    "id": "76192,RNET3078",
    "label": "CH Carrefour",
    "address": "Kosmonautów 104, ul. Kosmonautów 104",
    "city": "Poznań",
    "longitude": 16.9414111,
    "latitude": 52.4383983,
    "popupLines": [
      "pn-so: 00:00-24:00, nd: 00:00-24:00"
    ]
  },
  {
    "id": "74481,PNET1557",
    "label": "Biedronka",
    "address": "Naramowicka 104, ul. Naramowicka 104",
    "city": "Poznań",
    "longitude": 16.9486144,
    "latitude": 52.43914,
    "popupLines": [
      "pn-so: 00:00-24:00, nd: 00:00-24:00"
    ]
  },
  {
    "id": "64765",
    "label": "CH Auchan",
    "address": "ul. Św. Antoniego 2",
    "city": "Swadzim",
    "longitude": 16.765846,
    "latitude": 52.440102,
    "popupLines": [
      "Santander Bank Polska",
      "pn-so: 08:00-22:00, nd: 09:00-20:00"
    ]
  },
  {
    "id": "64770,73855,RNET5F05",
    "label": "CH Plaza, Centrum Handlowe Poznań Plaza",
    "address": "Drużbickiego 2, ul. Drużbickiego 2, ul. K. Drużbickiego 2",
    "city": "Poznań",
    "longitude": 16.919034,
    "latitude": 52.440623,
    "popupLines": [
      "Santander Bank Polska",
      "mBank S.A.",
      "pn-pt: 09:30-21:00, nd: 10:00-20:00",
      "pn-so: 09:30-21:00, nd: 10:00-20:00",
      "poziom 1 , obok Cinema City"
    ]
  },
  {
    "id": "77237",
    "label": "Oddział 571  Centrum Handlowe Plaza",
    "address": "ul. Drużbickiego 2",
    "city": "Poznań",
    "longitude": 16.919107,
    "latitude": 52.440876,
    "popupLines": [
      "Bank Millennium",
      "Bank Millennium S.A.",
      "pn-so: 9:30-21:00, nd: 10:00-20:00"
    ]
  },
  {
    "id": "euronet-RCDJ0BV4",
    "label": "Biedronka",
    "address": "ul. Koszalińska",
    "city": "Poznań",
    "longitude": 16.867077,
    "latitude": 52.441328,
    "popupLines": [
      "Euronet"
    ]
  },
  {
    "id": "74300,PNET1190",
    "label": "Biedronka",
    "address": "Lechicka 59, ul. Lechicka 59",
    "city": "Poznań",
    "longitude": 16.9162,
    "latitude": 52.4435,
    "popupLines": [
      "pn-so: 00:00-24:00, nd: 00:00-24:00"
    ]
  },
  {
    "id": "73375,RNET4475",
    "label": "CH Carrefour",
    "address": "Poznańska 15, ul. Poznańska 15",
    "city": "Koziegłowy",
    "longitude": 16.9907956,
    "latitude": 52.4438292,
    "popupLines": [
      "ING Bank Śląski S.A.",
      "pn-so: 00:00-24:00, nd: 00:00-24:00"
    ]
  },
  {
    "id": "70456",
    "label": "pasaż handlowousługowy",
    "address": "ul. Poznańska 28 C",
    "city": "Koziegłowy",
    "longitude": 16.991745,
    "latitude": 52.44480515,
    "popupLines": [
      "Open 24/7",
      "PKO BP",
      "PKO Bank Polski S.A."
    ]
  },
  {
    "id": "64464",
    "label": "Autocentrum Piątkowo",
    "address": "ul. Wojciechowskiego 717",
    "city": "Poznań",
    "longitude": 16.912118,
    "latitude": 52.444867,
    "popupLines": [
      "Open 24/7",
      "Santander Bank Polska"
    ]
  },
  {
    "id": "pekao-A5550207",
    "label": "Studio Kosmetyczne URODA",
    "address": "ul. Literacka 43h/2",
    "city": "Poznań",
    "longitude": 16.8742777777778,
    "latitude": 52.4456111111111,
    "popupLines": [
      "Bank Pekao",
      "Pekao"
    ]
  },
  {
    "id": "67542",
    "label": "Studio Kosmetyczne URODA",
    "address": "ul. Literacka 43h/2",
    "city": "Poznań",
    "longitude": 16.87432,
    "latitude": 52.445995,
    "popupLines": [
      "Bank Pekao S.A.",
      "Open 24/7",
      "Pekao S.A."
    ]
  },
  {
    "id": "euronet-PLNJ0220",
    "label": "Przy Chacie Polskiej",
    "address": "ul. Literacka 34",
    "city": "Poznań",
    "longitude": 16.874754,
    "latitude": 52.446288,
    "popupLines": [
      "Euronet"
    ]
  },
  {
    "id": "64839",
    "label": "Pływalnia",
    "address": "ul. Piłsudskiego 3",
    "city": "Koziegłowy",
    "longitude": 16.991474,
    "latitude": 52.448257,
    "popupLines": [
      "Open 24/7",
      "Santander Bank Polska"
    ]
  },
  {
    "id": "64918",
    "label": "Galeria Podolany",
    "address": "ul. Strzeszyńska 63",
    "city": "Poznań",
    "longitude": 16.894095,
    "latitude": 52.448807,
    "popupLines": [
      "Open 24/7",
      "Santander Bank Polska"
    ]
  },
  {
    "id": "74459,PNET1515",
    "label": "Amazon",
    "address": "Poznańska 1D, ul. Poznańska 1D",
    "city": "Sady",
    "longitude": 16.70678,
    "latitude": 52.449172,
    "popupLines": [
      "pn-so: 00:00-24:00, nd: 00:00-24:00"
    ]
  },
  {
    "id": "69488",
    "label": "inny punkt handlowy",
    "address": "Os. Leśne 16A",
    "city": "Koziegłowy",
    "longitude": 16.99672318,
    "latitude": 52.44919968,
    "popupLines": [
      "Open 24/7",
      "PKO BP",
      "PKO Bank Polski S.A."
    ]
  },
  {
    "id": "70084",
    "label": "supermarket",
    "address": "Os. Wł. Łokietka  pawilon 102",
    "city": "Poznań",
    "longitude": 16.94129372,
    "latitude": 52.44940186,
    "popupLines": [
      "Open 24/7",
      "PKO BP",
      "PKO Bank Polski S.A."
    ]
  },
  {
    "id": "73849,RNET5E94",
    "label": "Galeria Podolany",
    "address": "Strzeszyńska 64, ul. Strzeszyńska 64",
    "city": "Poznań",
    "longitude": 16.893729,
    "latitude": 52.449518,
    "popupLines": [
      "mBank S.A.",
      "po-pt: 08:00-21:00, so-nd: 08:00-19:00",
      "wejście główne obok bankomatu BZWBK"
    ]
  },
  {
    "id": "67614,68467",
    "label": "oddział Banku",
    "address": "Os. B.Śmiałego 121, Os. Bolesława Śmiałego 121",
    "city": "Poznań",
    "longitude": 16.92133522,
    "latitude": 52.45016861,
    "popupLines": [
      "Open 24/7",
      "PKO BP",
      "PKO Bank Polski S.A."
    ]
  },
  {
    "id": "76904",
    "label": "Oddział 170",
    "address": "Os. Chrobrego 116",
    "city": "Poznań",
    "longitude": 16.915648,
    "latitude": 52.450214,
    "popupLines": [
      "Bank Millennium",
      "Bank Millennium S.A.",
      "Open 24/7"
    ]
  },
  {
    "id": "57234",
    "label": "Oddział banku",
    "address": "Os. Chrobrego 24",
    "city": "Poznań",
    "longitude": 16.916091,
    "latitude": 52.450228,
    "popupLines": [
      "Alior Bank S.A.",
      "Euronet",
      "Open 24/7"
    ]
  },
  {
    "id": "64796",
    "label": "Cukiernia Jagódka",
    "address": "Os. B. Śmiałego N1",
    "city": "Poznań",
    "longitude": 16.924074,
    "latitude": 52.450228,
    "popupLines": [
      "Open 24/7",
      "Santander Bank Polska"
    ]
  },
  {
    "id": "69790",
    "label": "oddział Banku",
    "address": "Os. Leśne 6E",
    "city": "Koziegłowy",
    "longitude": 16.99331856,
    "latitude": 52.45195389,
    "popupLines": [
      "Open 24/7",
      "PKO BP",
      "PKO Bank Polski S.A."
    ]
  },
  {
    "id": "75744,RNET1744",
    "label": "Biedronka",
    "address": "Os. Chrobrego 110",
    "city": "Poznań",
    "longitude": 16.914491,
    "latitude": 52.452415,
    "popupLines": [
      "po-so: 07:00-21:00, nd: 09:00-20:00"
    ]
  },
  {
    "id": "74205,PNET1006",
    "label": "Biedronka",
    "address": "Bolesława Śmiałego 109, ul. Bolesława Śmiałego 109",
    "city": "Poznań",
    "longitude": 16.9235733,
    "latitude": 52.4524634,
    "popupLines": [
      "pn-so: 07:00-21:00, nd: 09:00-19:00"
    ]
  },
  {
    "id": "69786",
    "label": "oddział Banku",
    "address": "ul. Naramowicka 176",
    "city": "Poznań",
    "longitude": 16.94839478,
    "latitude": 52.45252228,
    "popupLines": [
      "Open 24/7",
      "PKO BP",
      "PKO Bank Polski S.A."
    ]
  },
  {
    "id": "68534",
    "label": "inne",
    "address": "Os. Chrobrego  paw. 110",
    "city": "Poznań",
    "longitude": 16.91384888,
    "latitude": 52.45278931,
    "popupLines": [
      "Open 24/7",
      "PKO BP",
      "PKO Bank Polski S.A."
    ]
  },
  {
    "id": "70361",
    "label": "sklep",
    "address": "ul. Strzeszyńska 61",
    "city": "Poznań",
    "longitude": 16.8845253,
    "latitude": 52.45394516,
    "popupLines": [
      "Open 24/7",
      "PKO BP",
      "PKO Bank Polski S.A."
    ]
  },
  {
    "id": "76295,PNET2782",
    "label": "Biedronka",
    "address": "Stróżyńskiego 21A, ul. Stróżyńskiego 21A",
    "city": "Poznań",
    "longitude": 16.903038,
    "latitude": 52.457952,
    "popupLines": [
      "po-so: 07:00-21:00, nd: 07:00-21:00"
    ]
  },
  {
    "id": "75242",
    "label": "Bank",
    "address": "ul. Szkolna 1C",
    "city": "Tarnowo Podgórne",
    "longitude": 16.662807,
    "latitude": 52.458698,
    "popupLines": [
      "bd."
    ]
  },
  {
    "id": "74208,PNET1011",
    "label": "Biedronka",
    "address": "Obornicka 334, ul. Obornicka 334",
    "city": "Poznań",
    "longitude": 16.8953473,
    "latitude": 52.4590089,
    "popupLines": [
      "pn-so: 00:00-24:00, nd: 00:00-24:00"
    ]
  },
  {
    "id": "74922,PNET9477",
    "label": "Sklep Fawor",
    "address": "Os. Zygmunta Starego 13A",
    "city": "Poznań",
    "longitude": 16.91250505,
    "latitude": 52.4595063,
    "popupLines": [
      "pn-so: 00:00-24:00, nd: 00:00-24:00"
    ]
  },
  {
    "id": "3306,75300",
    "label": "Bank, SGB",
    "address": "ul. Szarych Szeregów 23",
    "city": "Poznań",
    "longitude": 16.881543,
    "latitude": 52.460084,
    "popupLines": [
      "Open 24/7",
      "SGB Bank S.A.",
      "SGB-Bank S.A.",
      "bd."
    ]
  },
  {
    "id": "66017",
    "label": "II Oddział w Poznaniu, Filia 1 w Poznaniu",
    "address": "ul. Obornicka 337",
    "city": "Poznań",
    "longitude": 16.892436,
    "latitude": 52.460443,
    "popupLines": [
      "Bank Pekao S.A.",
      "Open 24/7",
      "Pekao S.A."
    ]
  },
  {
    "id": "73790,RNET5E58",
    "label": "Centrum Handlowe d./Tesco, Tesco",
    "address": "Opieńskiego 1, ul. Opieńskiego 1",
    "city": "Poznań",
    "longitude": 16.91997,
    "latitude": 52.461269,
    "popupLines": [
      "mBank S.A.",
      "po-so: 06:00-24:00, nd: 06:00-24:00"
    ]
  },
  {
    "id": "64451",
    "label": "13 Oddział w Poznaniu",
    "address": "ul. Opieńskiego 1",
    "city": "Poznań",
    "longitude": 16.920577,
    "latitude": 52.461272,
    "popupLines": [
      "Santander Bank Polska",
      "pn-so: 06:00-24:00, nd: 06:00-23:00"
    ]
  },
  {
    "id": "70073",
    "label": "inne",
    "address": "Os. Stefana Batorego 17",
    "city": "Poznań",
    "longitude": 16.92439651,
    "latitude": 52.46262741,
    "popupLines": [
      "Open 24/7",
      "PKO BP",
      "PKO Bank Polski S.A."
    ]
  },
  {
    "id": "70222",
    "label": "sklep",
    "address": "ul. Stróżyńskiego 29",
    "city": "Poznań",
    "longitude": 16.90315819,
    "latitude": 52.46320343,
    "popupLines": [
      "Open 24/7",
      "PKO BP",
      "PKO Bank Polski S.A."
    ]
  },
  {
    "id": "70521",
    "label": "oddział Banku",
    "address": "Os. Stefana Batorego 79",
    "city": "Poznań",
    "longitude": 16.91835213,
    "latitude": 52.46333694,
    "popupLines": [
      "Open 24/7",
      "PKO BP",
      "PKO Bank Polski S.A."
    ]
  },
  {
    "id": "75881,PNET2496",
    "label": "Biedronka",
    "address": "Os. Sobieskiego 103",
    "city": "Poznań",
    "longitude": 16.906739,
    "latitude": 52.463494,
    "popupLines": [
      "po-so: 07:00-21:00, nd: 09:00-20:00"
    ]
  },
  {
    "id": "64449,65201",
    "label": "1 Oddział w Tarnowie Podgórnym",
    "address": "ul. Poznańska 74",
    "city": "Tarnowo Podgórne",
    "longitude": 16.666077,
    "latitude": 52.464133,
    "popupLines": [
      "Open 24/7",
      "Santander Bank Polska"
    ]
  },
  {
    "id": "70229",
    "label": "uczelnia wyższa",
    "address": "ul. Krygowskiego 10",
    "city": "Poznań",
    "longitude": 16.94186783,
    "latitude": 52.46430969,
    "popupLines": [
      "Open 24/7",
      "PKO BP",
      "PKO Bank Polski S.A."
    ]
  },
  {
    "id": "67553",
    "label": "IV Oddział w Poznaniu, Filia 1 w Tarnowie Podgórnym",
    "address": "ul. Poznańska 80",
    "city": "Tarnowo Podgórne",
    "longitude": 16.664089,
    "latitude": 52.464435,
    "popupLines": [
      "Bank Pekao S.A.",
      "Open 24/7",
      "Pekao S.A."
    ]
  },
  {
    "id": "68469",
    "label": "oddział Banku",
    "address": "ul. Poznańska 105",
    "city": "Tarnowo Podgórne",
    "longitude": 16.66448021,
    "latitude": 52.46450043,
    "popupLines": [
      "Open 24/7",
      "PKO BP",
      "PKO Bank Polski S.A."
    ]
  },
  {
    "id": "73361,RNET7336,RNET7337",
    "label": "Oddział ING",
    "address": "Poznańska 84, ul. Poznańska 84",
    "city": "Tarnowo Podgórne",
    "longitude": 16.663588,
    "latitude": 52.464698,
    "popupLines": [
      "ING Bank Śląski S.A.",
      "pn-so: 00:00-24:00, nd: 00:00-24:00"
    ]
  },
  {
    "id": "65065",
    "label": "UAM Morasko",
    "address": "ul. Umultowska 89a",
    "city": "Poznań",
    "longitude": 16.925056,
    "latitude": 52.465959,
    "popupLines": [
      "Open 24/7",
      "Santander Bank Polska"
    ]
  },
  {
    "id": "75275",
    "label": "jednostka Banku",
    "address": "ul. Mieszka I 8",
    "city": "Biskupice Wlkp.",
    "longitude": 17.171875,
    "latitude": 52.467957,
    "popupLines": [
      "bd."
    ]
  },
  {
    "id": "68980",
    "label": "urząd",
    "address": "ul. Żródlana 39",
    "city": "Czerwonak",
    "longitude": 16.98852921,
    "latitude": 52.47205353,
    "popupLines": [
      "Open 24/7",
      "PKO BP",
      "PKO Bank Polski S.A."
    ]
  },
  {
    "id": "75278",
    "label": "Bank",
    "address": "ul. Szkolna 16",
    "city": "Suchy Las",
    "longitude": 16.8752,
    "latitude": 52.4735,
    "popupLines": [
      "bd."
    ]
  },
  {
    "id": "57394",
    "label": "Oddział banku",
    "address": "ul. Obornicka 85",
    "city": "Suchy Las",
    "longitude": 16.876037,
    "latitude": 52.473528,
    "popupLines": [
      "Credit Agricole Bank Polska S.A.",
      "Euronet",
      "Open 24/7"
    ]
  },
  {
    "id": "64489,65257",
    "label": "1 Oddział w Suchym Lesie",
    "address": "ul. Szkolna 20",
    "city": "Suchy Las",
    "longitude": 16.87314525529473,
    "latitude": 52.474557024332874,
    "popupLines": [
      "Open 24/7",
      "Santander Bank Polska"
    ]
  },
  {
    "id": "68515",
    "label": "oddział Banku",
    "address": "Pl. Nowy Rynek 7",
    "city": "Suchy Las",
    "longitude": 16.88021088,
    "latitude": 52.47462082,
    "popupLines": [
      "Open 24/7",
      "PKO BP",
      "PKO Bank Polski S.A."
    ]
  },
  {
    "id": "76872",
    "label": "Oddział 112",
    "address": "ul. Nowy Rynek 6",
    "city": "Suchy Las",
    "longitude": 16.875612,
    "latitude": 52.474859,
    "popupLines": [
      "Bank Millennium",
      "Bank Millennium S.A.",
      "Open 24/7"
    ]
  },
  {
    "id": "64905",
    "label": "Budynek Handlowo  Usługowy",
    "address": "ul. Chojnicka 58",
    "city": "Kiekrz",
    "longitude": 16.784703,
    "latitude": 52.47752,
    "popupLines": [
      "Open 24/7",
      "Santander Bank Polska"
    ]
  },
  {
    "id": "75277",
    "label": "Bank",
    "address": "ul. Chojnicka 53",
    "city": "Poznań",
    "longitude": 16.781524,
    "latitude": 52.477849,
    "popupLines": [
      "bd."
    ]
  },
  {
    "id": "74806,PNET8224",
    "label": "Biedronka",
    "address": "Chojnicka 72/74, ul. Chojnicka 72/74",
    "city": "Poznań",
    "longitude": 16.7823349,
    "latitude": 52.4779648,
    "popupLines": [
      "pn-so: 07:00-21:00, nd: 09:00-19:00"
    ]
  }
]