[
  {
    "id": "100",
    "label": "osiedle Czecha 73",
    "address": "osiedle Czecha 73",
    "city": "Poznań",
    "longitude": 16.977333,
    "latitude": 52.385799,
    "popupLines": [
      "Poniedziałek: 06:00-23:30",
      "Wtorek: 06:00-23:30",
      "Środa: 06:00-02:00",
      "Czwartek: 06:00-02:00",
      "Piątek: 06:00-02:00",
      "Sobota: 06:00-23:00",
      "Niedziela: Nieczynne"
    ]
  },
  {
    "id": "101",
    "label": "ul. Książęca 1",
    "address": "ul. Książęca 1",
    "city": "Poznań",
    "longitude": 16.931766,
    "latitude": 52.366346,
    "popupLines": [
      "Poniedziałek: 06:30-21:30",
      "Wtorek: 06:30-21:30",
      "Środa: 06:30-21:30",
      "Czwartek: 06:30-21:30",
      "Piątek: 06:30-21:30",
      "Sobota: 06:30-23:00",
      "Niedziela: Nieczynne"
    ]
  },
  {
    "id": "1018",
    "label": "Polanka 22",
    "address": "Polanka 22",
    "city": "Poznań",
    "longitude": 16.960846,
    "latitude": 52.399002,
    "popupLines": [
      "Poniedziałek: 06:00-23:30",
      "Wtorek: 06:00-23:30",
      "Środa: 06:00-23:30",
      "Czwartek: 06:00-23:30",
      "Piątek: 06:00-23:30",
      "Sobota: 06:00-23:00",
      "Niedziela: Nieczynne"
    ]
  },
  {
    "id": "102",
    "label": "Starołęcka 1",
    "address": "Starołęcka 1",
    "city": "Poznań",
    "longitude": 16.943854,
    "latitude": 52.378503,
    "popupLines": [
      "Poniedziałek: 06:00-23:30",
      "Wtorek: 06:00-23:30",
      "Środa: 06:00-23:30",
      "Czwartek: 06:00-23:30",
      "Piątek: 06:00-23:30",
      "Sobota: 06:00-23:00",
      "Niedziela: Nieczynne"
    ]
  },
  {
    "id": "1020",
    "label": "Czechosłowacka 104",
    "address": "Czechosłowacka 104",
    "city": "Poznań",
    "longitude": 16.893918,
    "latitude": 52.375603,
    "popupLines": [
      "Poniedziałek: 06:00-23:30",
      "Wtorek: 06:00-23:30",
      "Środa: 06:00-02:00",
      "Czwartek: 06:00-02:00",
      "Piątek: 06:00-02:00",
      "Sobota: 06:00-23:00",
      "Niedziela: Nieczynne"
    ]
  },
  {
    "id": "1058",
    "label": "Stare Żegrze 15",
    "address": "Stare Żegrze 15",
    "city": "Poznań",
    "longitude": 16.963112,
    "latitude": 52.381833,
    "popupLines": [
      "Poniedziałek: 06:00-23:30",
      "Wtorek: 06:00-23:30",
      "Środa: 06:00-23:30",
      "Czwartek: 06:00-23:30",
      "Piątek: 06:00-23:30",
      "Sobota: 06:00-23:00",
      "Niedziela: Nieczynne"
    ]
  },
  {
    "id": "1090",
    "label": "ul. Chojnicka 72/74",
    "address": "ul. Chojnicka 72/74",
    "city": "Poznań",
    "longitude": 16.92993,
    "latitude": 52.40692,
    "popupLines": [
      "Poniedziałek: 06:00-23:30",
      "Wtorek: 06:00-23:30",
      "Środa: 06:00-02:00",
      "Czwartek: 06:00-02:00",
      "Piątek: 06:00-02:00",
      "Sobota: 06:00-23:00",
      "Niedziela: Nieczynne"
    ]
  },
  {
    "id": "111",
    "label": "osiedle Zwycięstwa 110",
    "address": "osiedle Zwycięstwa 110",
    "city": "Poznań",
    "longitude": 16.922273,
    "latitude": 52.438138,
    "popupLines": [
      "Poniedziałek: 06:00-23:30",
      "Wtorek: 06:00-23:30",
      "Środa: 06:00-02:00",
      "Czwartek: 06:00-02:00",
      "Piątek: 06:00-02:00",
      "Sobota: 06:00-23:00",
      "Niedziela: Nieczynne"
    ]
  },
  {
    "id": "112",
    "label": "osiedle Bolesława Chrobrego 110",
    "address": "osiedle Bolesława Chrobrego 110",
    "city": "Poznań",
    "longitude": 16.914707,
    "latitude": 52.45237,
    "popupLines": [
      "Poniedziałek: 06:30-23:30",
      "Wtorek: 06:30-23:30",
      "Środa: 06:30-23:30",
      "Czwartek: 06:30-23:30",
      "Piątek: 06:30-23:30",
      "Sobota: 06:30-23:00",
      "Niedziela: Nieczynne"
    ]
  },
  {
    "id": "1126",
    "label": "Dolna Wilda 104/106",
    "address": "Dolna Wilda 104/106",
    "city": "Poznań",
    "longitude": 16.921806,
    "latitude": 52.384092,
    "popupLines": [
      "Poniedziałek: 06:00-23:30",
      "Wtorek: 06:00-23:30",
      "Środa: 06:00-02:00",
      "Czwartek: 06:00-02:00",
      "Piątek: 06:00-02:00",
      "Sobota: 06:00-23:00",
      "Niedziela: Nieczynne"
    ]
  },
  {
    "id": "113",
    "label": "Święty Marcin 66/72",
    "address": "Święty Marcin 66/72",
    "city": "Poznań",
    "longitude": 16.921824,
    "latitude": 52.407276,
    "popupLines": [
      "Poniedziałek: 06:00-23:30",
      "Wtorek: 06:00-23:30",
      "Środa: 06:00-02:00",
      "Czwartek: 06:00-02:00",
      "Piątek: 06:00-02:00",
      "Sobota: 06:00-23:00",
      "Niedziela: Nieczynne"
    ]
  },
  {
    "id": "1133",
    "label": "osiedle Bolesława Śmiałego 109",
    "address": "osiedle Bolesława Śmiałego 109",
    "city": "Poznań",
    "longitude": 16.92275,
    "latitude": 52.45181,
    "popupLines": [
      "Poniedziałek: 06:30-23:30",
      "Wtorek: 06:30-23:30",
      "Środa: 06:30-02:00",
      "Czwartek: 06:30-02:00",
      "Piątek: 06:30-02:00",
      "Sobota: 06:30-23:00",
      "Niedziela: Nieczynne"
    ]
  },
  {
    "id": "114",
    "label": "Stróżyńskiego 21A",
    "address": "Stróżyńskiego 21A",
    "city": "Poznań",
    "longitude": 16.903869,
    "latitude": 52.4577,
    "popupLines": [
      "Poniedziałek: 06:30-23:30",
      "Wtorek: 06:30-23:30",
      "Środa: 06:30-02:00",
      "Czwartek: 06:30-02:00",
      "Piątek: 06:30-02:00",
      "Sobota: 06:30-23:00",
      "Niedziela: Nieczynne"
    ]
  },
  {
    "id": "1149",
    "label": "Obornicka 334",
    "address": "Obornicka 334",
    "city": "Poznań",
    "longitude": 16.89555,
    "latitude": 52.459158,
    "popupLines": [
      "Poniedziałek: 06:00-23:30",
      "Wtorek: 06:00-23:30",
      "Środa: 06:00-02:00",
      "Czwartek: 06:00-02:00",
      "Piątek: 06:00-02:00",
      "Sobota: 06:00-23:00",
      "Niedziela: Nieczynne"
    ]
  },
  {
    "id": "1161",
    "label": "Kazimierza Wielkiego 1/3",
    "address": "Kazimierza Wielkiego 1/3",
    "city": "Poznań",
    "longitude": 16.938359,
    "latitude": 52.401495,
    "popupLines": [
      "Poniedziałek: 06:00-23:30",
      "Wtorek: 06:00-23:30",
      "Środa: 06:00-02:00",
      "Czwartek: 06:00-02:00",
      "Piątek: 06:00-02:00",
      "Sobota: 06:00-23:00",
      "Niedziela: Nieczynne"
    ]
  },
  {
    "id": "1223",
    "label": "Piątkowska 78",
    "address": "Piątkowska 78",
    "city": "Poznań",
    "longitude": 16.917857,
    "latitude": 52.428098,
    "popupLines": [
      "Poniedziałek: 06:00-23:30",
      "Wtorek: 06:00-23:30",
      "Środa: 06:00-02:00",
      "Czwartek: 06:00-02:00",
      "Piątek: 06:00-02:00",
      "Sobota: 06:00-23:00",
      "Niedziela: Nieczynne"
    ]
  },
  {
    "id": "123",
    "label": "Jesionowa 16",
    "address": "Jesionowa 16",
    "city": "Poznań",
    "longitude": 16.895353,
    "latitude": 52.367135,
    "popupLines": [
      "Poniedziałek: 06:00-23:30",
      "Wtorek: 06:00-23:30",
      "Środa: 06:00-02:00",
      "Czwartek: 06:00-02:00",
      "Piątek: 06:00-02:00",
      "Sobota: 06:00-23:00",
      "Niedziela: Nieczynne"
    ]
  },
  {
    "id": "124",
    "label": "Czarnieckiego 12",
    "address": "Czarnieckiego 12",
    "city": "Poznań",
    "longitude": 16.916745,
    "latitude": 52.392684,
    "popupLines": [
      "Poniedziałek: 06:00-23:30",
      "Wtorek: 06:00-23:30",
      "Środa: 06:00-02:00",
      "Czwartek: 06:00-02:00",
      "Piątek: 06:00-02:00",
      "Sobota: 06:00-23:00",
      "Niedziela: Nieczynne"
    ]
  },
  {
    "id": "1269",
    "label": "Ściegiennego 64",
    "address": "Ściegiennego 64",
    "city": "Poznań",
    "longitude": 16.873227,
    "latitude": 52.390959,
    "popupLines": [
      "Poniedziałek: 06:00-23:30",
      "Wtorek: 06:00-23:30",
      "Środa: 06:00-02:00",
      "Czwartek: 06:00-02:00",
      "Piątek: 06:00-02:00",
      "Sobota: 06:00-23:00",
      "Niedziela: Nieczynne"
    ]
  },
  {
    "id": "1270",
    "label": "Łukaszewicza 43",
    "address": "Łukaszewicza 43",
    "city": "Poznań",
    "longitude": 16.902787,
    "latitude": 52.390296,
    "popupLines": [
      "Poniedziałek: 06:00-23:30",
      "Wtorek: 06:00-23:30",
      "Środa: 06:00-02:00",
      "Czwartek: 06:00-02:00",
      "Piątek: 06:00-02:00",
      "Sobota: 06:00-23:00",
      "Niedziela: Nieczynne"
    ]
  },
  {
    "id": "1271",
    "label": "Wojskowa 3",
    "address": "Wojskowa 3",
    "city": "Poznań",
    "longitude": 16.892645,
    "latitude": 52.400578,
    "popupLines": [
      "Poniedziałek: 06:00-23:30",
      "Wtorek: 06:00-23:30",
      "Środa: 06:00-02:00",
      "Czwartek: 06:00-02:00",
      "Piątek: 06:00-02:00",
      "Sobota: 06:00-23:00",
      "Niedziela: Nieczynne"
    ]
  },
  {
    "id": "1272",
    "label": "Strzeszyńska 33",
    "address": "Strzeszyńska 33",
    "city": "Poznań",
    "longitude": 16.896843,
    "latitude": 52.44742,
    "popupLines": [
      "Poniedziałek: 06:30-23:30",
      "Wtorek: 06:30-23:30",
      "Środa: 06:30-23:30",
      "Czwartek: 06:30-23:30",
      "Piątek: 06:30-23:30",
      "Sobota: 06:30-23:00",
      "Niedziela: Nieczynne"
    ]
  },
  {
    "id": "1282",
    "label": "osiedle Rzeczypospolitej 42",
    "address": "osiedle Rzeczypospolitej 42",
    "city": "Poznań",
    "longitude": 16.946731,
    "latitude": 52.386439,
    "popupLines": [
      "Poniedziałek: 06:00-23:30",
      "Wtorek: 06:00-23:30",
      "Środa: 06:00-23:30",
      "Czwartek: 06:00-23:30",
      "Piątek: 06:00-23:30",
      "Sobota: 06:00-23:00",
      "Niedziela: Nieczynne"
    ]
  },
  {
    "id": "1283",
    "label": "Małachowskiego 14",
    "address": "Małachowskiego 14",
    "city": "Poznań",
    "longitude": 16.959435,
    "latitude": 52.413573,
    "popupLines": [
      "Poniedziałek: 06:00-23:30",
      "Wtorek: 06:00-23:30",
      "Środa: 06:00-02:00",
      "Czwartek: 06:00-02:00",
      "Piątek: 06:00-02:00",
      "Sobota: 06:00-23:00",
      "Niedziela: Nieczynne"
    ]
  },
  {
    "id": "1284",
    "label": "osiedle Armii Krajowej 101",
    "address": "osiedle Armii Krajowej 101",
    "city": "Poznań",
    "longitude": 16.95116,
    "latitude": 52.379864,
    "popupLines": [
      "Poniedziałek: 07:00-21:00",
      "Wtorek: 07:00-21:00",
      "Środa: 07:00-21:00",
      "Czwartek: 07:00-21:00",
      "Piątek: 07:00-21:00",
      "Sobota: 07:00-23:00",
      "Niedziela: Nieczynne"
    ]
  },
  {
    "id": "1285",
    "label": "Bobrzańska 13",
    "address": "Bobrzańska 13",
    "city": "Poznań",
    "longitude": 16.969027,
    "latitude": 52.386038,
    "popupLines": [
      "Poniedziałek: 06:00-23:30",
      "Wtorek: 06:00-23:30",
      "Środa: 06:00-02:00",
      "Czwartek: 06:00-02:00",
      "Piątek: 06:00-02:00",
      "Sobota: 06:00-23:00",
      "Niedziela: Nieczynne"
    ]
  },
  {
    "id": "1295",
    "label": "Naramowicka 219",
    "address": "Naramowicka 219",
    "city": "Poznań",
    "longitude": 16.946653,
    "latitude": 52.453174,
    "popupLines": [
      "Poniedziałek: 06:00-23:30",
      "Wtorek: 06:00-23:30",
      "Środa: 06:00-02:00",
      "Czwartek: 06:00-02:00",
      "Piątek: 06:00-02:00",
      "Sobota: 06:00-23:00",
      "Niedziela: Nieczynne"
    ]
  },
  {
    "id": "1296",
    "label": "Osiedle Jana III Sobieskiego 103",
    "address": "Osiedle Jana III Sobieskiego 103",
    "city": "Poznań",
    "longitude": 16.90706,
    "latitude": 52.463362,
    "popupLines": [
      "Poniedziałek: 06:30-23:30",
      "Wtorek: 06:30-23:30",
      "Środa: 06:30-02:00",
      "Czwartek: 06:30-02:00",
      "Piątek: 06:30-02:00",
      "Sobota: 06:30-23:00",
      "Niedziela: Nieczynne"
    ]
  },
  {
    "id": "1306",
    "label": "Żurawinowa 2",
    "address": "Żurawinowa 2",
    "city": "Poznań",
    "longitude": 16.904454,
    "latitude": 52.367452,
    "popupLines": [
      "Poniedziałek: 06:00-23:30",
      "Wtorek: 06:00-23:30",
      "Środa: 06:00-02:00",
      "Czwartek: 06:00-02:00",
      "Piątek: 06:00-02:00",
      "Sobota: 06:00-23:00",
      "Niedziela: Nieczynne"
    ]
  },
  {
    "id": "1307",
    "label": "Wierzbięcice 36",
    "address": "Wierzbięcice 36",
    "city": "Poznań",
    "longitude": 16.921997,
    "latitude": 52.394851,
    "popupLines": [
      "Poniedziałek: 06:00-23:30",
      "Wtorek: 06:00-23:30",
      "Środa: 06:00-02:00",
      "Czwartek: 06:00-02:00",
      "Piątek: 06:00-02:00",
      "Sobota: 06:00-23:00",
      "Niedziela: Nieczynne"
    ]
  },
  {
    "id": "2080",
    "label": "os. Czecha 111",
    "address": "os. Czecha 111",
    "city": "Poznań",
    "longitude": 16.982997,
    "latitude": 52.386802,
    "popupLines": [
      "Poniedziałek: 06:00-23:30",
      "Wtorek: 06:00-23:30",
      "Środa: 06:00-02:00",
      "Czwartek: 06:00-02:00",
      "Piątek: 06:00-02:00",
      "Sobota: 06:00-23:00",
      "Niedziela: Nieczynne"
    ]
  },
  {
    "id": "2248",
    "label": "Józefa Strusia 12",
    "address": "Józefa Strusia 12",
    "city": "Poznań",
    "longitude": 16.902506,
    "latitude": 52.397007,
    "popupLines": [
      "Poniedziałek: 06:00-23:00",
      "Wtorek: 06:00-23:00",
      "Środa: 06:00-23:00",
      "Czwartek: 06:00-23:00",
      "Piątek: 06:00-23:00",
      "Sobota: 06:30-23:00",
      "Niedziela: Nieczynne"
    ]
  },
  {
    "id": "2250",
    "label": "Polna 41",
    "address": "Polna 41",
    "city": "Poznań",
    "longitude": 16.893702,
    "latitude": 52.405444,
    "popupLines": [
      "Poniedziałek: 06:00-23:30",
      "Wtorek: 06:00-23:30",
      "Środa: 06:00-02:00",
      "Czwartek: 06:00-02:00",
      "Piątek: 06:00-02:00",
      "Sobota: 06:00-23:00",
      "Niedziela: Nieczynne"
    ]
  },
  {
    "id": "2308",
    "label": "ul. Gronowa 26",
    "address": "ul. Gronowa 26",
    "city": "Poznań",
    "longitude": 16.934089,
    "latitude": 52.430304,
    "popupLines": [
      "Poniedziałek: 06:00-23:30",
      "Wtorek: 06:00-23:30",
      "Środa: 06:00-02:00",
      "Czwartek: 06:00-02:00",
      "Piątek: 06:00-02:00",
      "Sobota: 06:00-23:00",
      "Niedziela: Nieczynne"
    ]
  },
  {
    "id": "2331",
    "label": "Sycowska 18",
    "address": "Sycowska 18",
    "city": "Poznań",
    "longitude": 16.840672,
    "latitude": 52.367109,
    "popupLines": [
      "Poniedziałek: 06:00-23:30",
      "Wtorek: 06:00-23:30",
      "Środa: 06:00-02:00",
      "Czwartek: 06:00-02:00",
      "Piątek: 06:00-02:00",
      "Sobota: 06:00-23:00",
      "Niedziela: Nieczynne"
    ]
  },
  {
    "id": "2361",
    "label": "Osiedle Orła Białego 5",
    "address": "Osiedle Orła Białego 5",
    "city": "Poznań",
    "longitude": 16.960295,
    "latitude": 52.377712,
    "popupLines": [
      "Poniedziałek: 06:00-23:30",
      "Wtorek: 06:00-23:30",
      "Środa: 06:00-02:00",
      "Czwartek: 06:00-02:00",
      "Piątek: 06:00-02:00",
      "Sobota: 06:00-23:00",
      "Niedziela: Nieczynne"
    ]
  },
  {
    "id": "2413",
    "label": "Hallera 2a",
    "address": "Hallera 2a",
    "city": "Poznań",
    "longitude": 16.872023,
    "latitude": 52.377548,
    "popupLines": [
      "Poniedziałek: 06:00-23:30",
      "Wtorek: 06:00-23:30",
      "Środa: 06:00-02:00",
      "Czwartek: 06:00-02:00",
      "Piątek: 06:00-02:00",
      "Sobota: 06:00-23:00",
      "Niedziela: Nieczynne"
    ]
  },
  {
    "id": "2414",
    "label": "Lechicka 59",
    "address": "Lechicka 59",
    "city": "Poznań",
    "longitude": 16.916154,
    "latitude": 52.443719,
    "popupLines": [
      "Poniedziałek: 06:00-23:30",
      "Wtorek: 06:00-23:30",
      "Środa: 06:00-02:00",
      "Czwartek: 06:00-02:00",
      "Piątek: 06:00-02:00",
      "Sobota: 06:00-23:00",
      "Niedziela: Nieczynne"
    ]
  },
  {
    "id": "2427",
    "label": "Grunwaldzka 216",
    "address": "Grunwaldzka 216",
    "city": "Poznań",
    "longitude": 16.853812,
    "latitude": 52.389611,
    "popupLines": [
      "Poniedziałek: 06:00-23:30",
      "Wtorek: 06:00-23:30",
      "Środa: 06:00-23:30",
      "Czwartek: 06:00-23:30",
      "Piątek: 06:00-23:30",
      "Sobota: 06:00-23:00",
      "Niedziela: Nieczynne"
    ]
  },
  {
    "id": "2463",
    "label": "ul. Gwiaździsta 30",
    "address": "ul. Gwiaździsta 30",
    "city": "Poznań",
    "longitude": 16.92993,
    "latitude": 52.40692,
    "popupLines": [
      "Poniedziałek: 07:00-21:00",
      "Wtorek: 07:00-21:00",
      "Środa: 07:00-21:00",
      "Czwartek: 07:00-21:00",
      "Piątek: 07:00-21:00",
      "Sobota: 07:00-23:00",
      "Niedziela: Nieczynne"
    ]
  },
  {
    "id": "2500",
    "label": "Libelta 5",
    "address": "Libelta 5",
    "city": "Poznań",
    "longitude": 16.920412,
    "latitude": 52.413241,
    "popupLines": [
      "Poniedziałek: 06:00-23:30",
      "Wtorek: 06:00-23:30",
      "Środa: 06:00-02:00",
      "Czwartek: 06:00-02:00",
      "Piątek: 06:00-02:00",
      "Sobota: 06:00-23:00",
      "Niedziela: Nieczynne"
    ]
  },
  {
    "id": "2503",
    "label": "Święty Marcin 32",
    "address": "Święty Marcin 32",
    "city": "Poznań",
    "longitude": 16.926218,
    "latitude": 52.406352,
    "popupLines": [
      "Poniedziałek: 06:00-23:30",
      "Wtorek: 06:00-23:30",
      "Środa: 06:00-02:00",
      "Czwartek: 06:00-02:00",
      "Piątek: 06:00-02:00",
      "Sobota: 06:00-23:00",
      "Niedziela: Nieczynne"
    ]
  },
  {
    "id": "2517",
    "label": "Sielska 43",
    "address": "Sielska 43",
    "city": "Poznań",
    "longitude": 16.883107,
    "latitude": 52.386145,
    "popupLines": [
      "Poniedziałek: 06:00-23:30",
      "Wtorek: 06:00-23:30",
      "Środa: 06:00-02:00",
      "Czwartek: 06:00-02:00",
      "Piątek: 06:00-02:00",
      "Sobota: 06:00-23:00",
      "Niedziela: Nieczynne"
    ]
  },
  {
    "id": "2557",
    "label": "28 Czerwca 1956r. 384",
    "address": "28 Czerwca 1956r. 384",
    "city": "Poznań",
    "longitude": 16.92993,
    "latitude": 52.40692,
    "popupLines": [
      "Poniedziałek: 06:30-22:00",
      "Wtorek: 06:30-22:00",
      "Środa: 06:30-22:00",
      "Czwartek: 06:30-22:00",
      "Piątek: 06:30-22:00",
      "Sobota: 06:30-23:00",
      "Niedziela: Nieczynne"
    ]
  },
  {
    "id": "2573",
    "label": "Połabska 1",
    "address": "Połabska 1",
    "city": "Poznań",
    "longitude": 16.929796,
    "latitude": 52.4425,
    "popupLines": [
      "Poniedziałek: 06:00-23:30",
      "Wtorek: 06:00-23:30",
      "Środa: 06:00-02:00",
      "Czwartek: 06:00-02:00",
      "Piątek: 06:00-02:00",
      "Sobota: 06:00-23:00",
      "Niedziela: Nieczynne"
    ]
  },
  {
    "id": "2574",
    "label": "Kraszewskiego 30",
    "address": "Kraszewskiego 30",
    "city": "Poznań",
    "longitude": 16.901819,
    "latitude": 52.408553,
    "popupLines": [
      "Poniedziałek: 06:00-23:30",
      "Wtorek: 06:00-23:30",
      "Środa: 06:00-02:00",
      "Czwartek: 06:00-02:00",
      "Piątek: 06:00-02:00",
      "Sobota: 06:00-23:00",
      "Niedziela: Nieczynne"
    ]
  },
  {
    "id": "2617",
    "label": "Ulica Naramowicka 104",
    "address": "Ulica Naramowicka 104",
    "city": "Poznań",
    "longitude": 16.948748,
    "latitude": 52.43916,
    "popupLines": [
      "Poniedziałek: 06:00-23:30",
      "Wtorek: 06:00-23:30",
      "Środa: 06:00-02:00",
      "Czwartek: 06:00-02:00",
      "Piątek: 06:00-02:00",
      "Sobota: 06:00-23:00",
      "Niedziela: Nieczynne"
    ]
  },
  {
    "id": "2641",
    "label": "Dąbrowskiego 81/85",
    "address": "Dąbrowskiego 81/85",
    "city": "Poznań",
    "longitude": 16.898221,
    "latitude": 52.414173,
    "popupLines": [
      "Poniedziałek: 06:00-23:00",
      "Wtorek: 06:00-23:00",
      "Środa: 06:00-23:00",
      "Czwartek: 06:00-23:00",
      "Piątek: 06:00-23:00",
      "Sobota: 06:00-23:00",
      "Niedziela: Nieczynne"
    ]
  },
  {
    "id": "2729",
    "label": "Półwiejska 47",
    "address": "Półwiejska 47",
    "city": "Poznań",
    "longitude": 16.927876,
    "latitude": 52.4002,
    "popupLines": [
      "Poniedziałek: 06:00-23:30",
      "Wtorek: 06:00-23:30",
      "Środa: 06:00-02:00",
      "Czwartek: 06:00-02:00",
      "Piątek: 06:00-02:00",
      "Sobota: 06:00-23:00",
      "Niedziela: Nieczynne"
    ]
  },
  {
    "id": "2817",
    "label": "Poznań Główny Dworcowa 2",
    "address": "Poznań Główny Dworcowa 2",
    "city": "Poznań",
    "longitude": 16.911579,
    "latitude": 52.401627,
    "popupLines": [
      "Poniedziałek: 06:00-23:30",
      "Wtorek: 06:00-23:30",
      "Środa: 06:00-02:00",
      "Czwartek: 06:00-02:00",
      "Piątek: 06:00-02:00",
      "Sobota: 06:00-23:00",
      "Niedziela: Nieczynne"
    ]
  },
  {
    "id": "3094",
    "label": "Poszwińskiego 2",
    "address": "Poszwińskiego 2",
    "city": "Poznań",
    "longitude": 16.867536,
    "latitude": 52.441414,
    "popupLines": [
      "Poniedziałek: 06:30-21:30",
      "Wtorek: 06:30-21:30",
      "Środa: 06:30-21:30",
      "Czwartek: 06:30-21:30",
      "Piątek: 06:30-21:30",
      "Sobota: 06:30-23:00",
      "Niedziela: Nieczynne"
    ]
  },
  {
    "id": "3107",
    "label": "Szwedzka 6a",
    "address": "Szwedzka 6a",
    "city": "Poznań",
    "longitude": 16.984935,
    "latitude": 52.381342,
    "popupLines": [
      "Poniedziałek: 06:00-23:30",
      "Wtorek: 06:00-23:30",
      "Środa: 06:00-02:00",
      "Czwartek: 06:00-02:00",
      "Piątek: 06:00-02:00",
      "Sobota: 06:00-23:00",
      "Niedziela: Nieczynne"
    ]
  },
  {
    "id": "3398",
    "label": "osiedle Przyjaźni 141",
    "address": "osiedle Przyjaźni 141",
    "city": "Poznań",
    "longitude": 16.921123,
    "latitude": 52.430076,
    "popupLines": [
      "Poniedziałek: 06:00-23:30",
      "Wtorek: 06:00-23:30",
      "Środa: 06:00-02:00",
      "Czwartek: 06:00-02:00",
      "Piątek: 06:00-02:00",
      "Sobota: 06:00-23:00",
      "Niedziela: Nieczynne"
    ]
  },
  {
    "id": "3600",
    "label": "ul. Serbska 15",
    "address": "ul. Serbska 15",
    "city": "Poznań",
    "longitude": 16.92993,
    "latitude": 52.40692,
    "popupLines": [
      "Poniedziałek: 06:00-23:30",
      "Wtorek: 06:00-23:30",
      "Środa: 06:00-02:00",
      "Czwartek: 06:00-02:00",
      "Piątek: 06:00-02:00",
      "Sobota: 06:00-23:00",
      "Niedziela: Nieczynne"
    ]
  },
  {
    "id": "39",
    "label": "Bułgarska 121/123",
    "address": "Bułgarska 121/123",
    "city": "Poznań",
    "longitude": 16.868523,
    "latitude": 52.411281,
    "popupLines": [
      "Poniedziałek: 06:00-23:30",
      "Wtorek: 06:00-23:30",
      "Środa: 06:00-02:00",
      "Czwartek: 06:00-02:00",
      "Piątek: 06:00-02:00",
      "Sobota: 06:00-23:00",
      "Niedziela: Nieczynne"
    ]
  },
  {
    "id": "65",
    "label": "Dąbrowskiego 399",
    "address": "Dąbrowskiego 399",
    "city": "Poznań",
    "longitude": 16.832789,
    "latitude": 52.432562,
    "popupLines": [
      "Poniedziałek: 06:00-23:30",
      "Wtorek: 06:00-23:30",
      "Środa: 06:00-02:00",
      "Czwartek: 06:00-02:00",
      "Piątek: 06:00-02:00",
      "Sobota: 06:00-23:00",
      "Niedziela: Nieczynne"
    ]
  },
  {
    "id": "85",
    "label": "Marcelińska 77",
    "address": "Marcelińska 77",
    "city": "Poznań",
    "longitude": 16.874044,
    "latitude": 52.404605,
    "popupLines": [
      "Poniedziałek: 06:00-23:30",
      "Wtorek: 06:00-23:30",
      "Środa: 06:00-02:00",
      "Czwartek: 06:00-02:00",
      "Piątek: 06:00-02:00",
      "Sobota: 06:00-23:00",
      "Niedziela: Nieczynne"
    ]
  },
  {
    "id": "86",
    "label": "Matejki 62",
    "address": "Matejki 62",
    "city": "Poznań",
    "longitude": 16.899364,
    "latitude": 52.405222,
    "popupLines": [
      "Poniedziałek: 06:00-23:30",
      "Wtorek: 06:00-23:30",
      "Środa: 06:00-23:30",
      "Czwartek: 06:00-23:30",
      "Piątek: 06:00-23:30",
      "Sobota: 06:00-23:00",
      "Niedziela: Nieczynne"
    ]
  },
  {
    "id": "87",
    "label": "Szadecka 2",
    "address": "Szadecka 2",
    "city": "Poznań",
    "longitude": 16.852988,
    "latitude": 52.386265,
    "popupLines": [
      "Poniedziałek: 06:00-23:30",
      "Wtorek: 06:00-23:30",
      "Środa: 06:00-23:30",
      "Czwartek: 06:00-23:30",
      "Piątek: 06:00-23:30",
      "Sobota: 06:00-23:00",
      "Niedziela: Nieczynne"
    ]
  },
  {
    "id": "88",
    "label": "Sokoła 26",
    "address": "Sokoła 26",
    "city": "Poznań",
    "longitude": 16.91177,
    "latitude": 52.426328,
    "popupLines": [
      "Poniedziałek: 06:00-23:30",
      "Wtorek: 06:00-23:30",
      "Środa: 06:00-02:00",
      "Czwartek: 06:00-02:00",
      "Piątek: 06:00-02:00",
      "Sobota: 06:00-23:00",
      "Niedziela: Nieczynne"
    ]
  },
  {
    "id": "898",
    "label": "ul. Kościelna 30",
    "address": "ul. Kościelna 30",
    "city": "Poznań",
    "longitude": 16.92993,
    "latitude": 52.40692,
    "popupLines": [
      "Poniedziałek: 06:00-23:30",
      "Wtorek: 06:00-23:30",
      "Środa: 06:00-02:00",
      "Czwartek: 06:00-02:00",
      "Piątek: 06:00-02:00",
      "Sobota: 06:00-23:00",
      "Niedziela: Nieczynne"
    ]
  },
  {
    "id": "98",
    "label": "osiedle Piastowskie 22",
    "address": "osiedle Piastowskie 22",
    "city": "Poznań",
    "longitude": 16.945055,
    "latitude": 52.394836,
    "popupLines": [
      "Poniedziałek: 06:00-22:00",
      "Wtorek: 06:00-22:00",
      "Środa: 06:00-22:00",
      "Czwartek: 06:00-22:00",
      "Piątek: 06:00-22:00",
      "Sobota: 06:00-22:30",
      "Niedziela: Nieczynne"
    ]
  },
  {
    "id": "99",
    "label": "osiedle Jagiellońskie 14",
    "address": "osiedle Jagiellońskie 14",
    "city": "Poznań",
    "longitude": 16.951013,
    "latitude": 52.392879,
    "popupLines": [
      "Poniedziałek: 06:30-22:00",
      "Wtorek: 06:30-22:00",
      "Środa: 06:30-22:00",
      "Czwartek: 06:30-22:00",
      "Piątek: 06:30-22:00",
      "Sobota: 06:30-23:00",
      "Niedziela: Nieczynne"
    ]
  },
  {
    "id": "996",
    "label": "Plac Wiosny Ludów 2",
    "address": "Plac Wiosny Ludów 2",
    "city": "Poznań",
    "longitude": 16.932532,
    "latitude": 52.405178,
    "popupLines": [
      "Poniedziałek: 06:00-23:30",
      "Wtorek: 06:00-23:30",
      "Środa: 06:00-02:00",
      "Czwartek: 06:00-02:00",
      "Piątek: 06:00-02:00",
      "Sobota: 06:00-23:00",
      "Niedziela: Nieczynne"
    ]
  },
  {
    "id": "998",
    "label": "Dąbrowskiego 29",
    "address": "Dąbrowskiego 29",
    "city": "Poznań",
    "longitude": 16.908382,
    "latitude": 52.411881,
    "popupLines": [
      "Poniedziałek: 06:00-23:30",
      "Wtorek: 06:00-23:30",
      "Środa: 06:00-02:00",
      "Czwartek: 06:00-02:00",
      "Piątek: 06:00-02:00",
      "Sobota: 06:00-23:00",
      "Niedziela: Nieczynne"
    ]
  }
]
