[{"id":2,"label":"Chata Polska","address":"ZJEDNOCZENIA 12","city":"62-003 BIEDRUSKO","longitude":16.946946,"latitude":52.541576,"popupLines":[]},{"id":6,"label":"Sklep Partnerski","address":"POZNAŃSKA 34","city":"62-023 BORÓWIEC","longitude":17.045375,"latitude":52.289105,"popupLines":[]},{"id":17,"label":"Chata Polska","address":"GDYŃSKA 120","city":"62-004 CZERWONAK","longitude":17.026337,"latitude":52.476835,"popupLines":[]},{"id":18,"label":"Chata Polska","address":"SZAFIROWA 1 A","city":"62-069 DĄBROWA","longitude":16.756689,"latitude":52.396986,"popupLines":[]},{"id":22,"label":"Chata Polska","address":"MŁYŃSKA 9","city":"62-070 DOPIEWO","longitude":16.67284,"latitude":52.3696,"popupLines":[]},{"id":33,"label":"Chata Polska","address":"SIEKIERECKA 24B/1","city":"63-004 GOWARZEWO","longitude":17.141098,"latitude":52.366122,"popupLines":[]},{"id":47,"label":"Chata Polska","address":"POZNAŃSKA 37","city":"62-025 KOSTRZYN","longitude":17.219438,"latitude":52.397605,"popupLines":[]},{"id":48,"label":"Chata Polska","address":"POZNAŃSKA 15C","city":"62-028 KOZIEGŁOWY","longitude":16.989578,"latitude":52.442436,"popupLines":[]},{"id":49,"label":"Chata Polska","address":"OSIEDLE LEŚNE 21 A","city":"62-028 KOZIEGŁOWY","longitude":16.993447,"latitude":52.448783,"popupLines":[]},{"id":61,"label":"Sklep Partnerski","address":"3 MAJA 14","city":"62-030 LUBOŃ","longitude":16.900804,"latitude":52.348626,"popupLines":[]},{"id":62,"label":"Chata Polska","address":"11 LISTOPADA 51","city":"62-030 LUBOŃ","longitude":16.867763,"latitude":52.345112,"popupLines":[]},{"id":82,"label":"Chata Polska","address":"PLAC PRZEMYSŁAWA 1C","city":"62-005 OWIŃSKA","longitude":16.97326,"latitude":52.514055,"popupLines":[]},{"id":90,"label":"Chata Polska","address":"SZARYCH SZEREGÓW 12","city":"60-462 POZNAŃ","longitude":16.879668,"latitude":52.461075,"popupLines":[]},{"id":91,"label":"Chata Polska","address":"JANA KEPLERA 1/2A","city":"60-158 POZNAŃ","longitude":16.864198,"latitude":52.390536,"popupLines":[]},{"id":92,"label":"Sklep Partnerski","address":"GŁUSZYNA 273","city":"61-329 POZNAŃ","longitude":16.967187,"latitude":52.31364,"popupLines":[]},{"id":93,"label":"Chata Polska","address":"LESZCZYŃSKA 3/5","city":"60-115 POZNAŃ","longitude":16.880871,"latitude":52.377475,"popupLines":[]},{"id":94,"label":"Chata Polska","address":"STRZESZYŃSKA 63","city":"60-479 POZNAŃ","longitude":16.894461,"latitude":52.449047,"popupLines":[]},{"id":95,"label":"Chata Polska","address":"WOJSKA POLSKIEGO 6/8","city":"60-637 POZNAŃ","longitude":16.908533,"latitude":52.424789,"popupLines":[]},{"id":96,"label":"Chata Polska","address":"JANA KEPLERA 1","city":"60-158 POZNAŃ","longitude":16.86438,"latitude":52.390719,"popupLines":[]},{"id":97,"label":"Sklep Partnerski","address":"OS. LECHA 43","city":"61-294 POZNAŃ","longitude":16.975096,"latitude":52.390565,"popupLines":[]},{"id":98,"label":"Chata Polska","address":"DĄBRÓWKI 1","city":"61-501 POZNAŃ","longitude":16.920321,"latitude":52.387665,"popupLines":[]},{"id":99,"label":"Chata Polska","address":"ul. Pokrzywno 26B","city":"61-316 POZNAŃ","longitude":16.981059,"latitude":52.352157,"popupLines":[]},{"id":100,"label":"Chata Polska","address":"OS. JANA III SOBIESKIEGO 52/110","city":"61-688 POZNAŃ","longitude":16.911916,"latitude":52.462344,"popupLines":[]},{"id":101,"label":"Chata Polska","address":"OS. PIASTOWSKIE 78","city":"61-156 POZNAŃ","longitude":16.944564,"latitude":52.390115,"popupLines":[]},{"id":102,"label":"Chata Polska","address":"OS BOLESŁAWA ŚMIAŁEGO 1","city":"60-682 POZNAŃ","longitude":16.921692,"latitude":52.451487,"popupLines":[]},{"id":103,"label":"Chata Polska","address":"OS.POWST.NARODOWYCH 33","city":"61-215 POZNAŃ","longitude":16.954229,"latitude":52.388173,"popupLines":[]},{"id":104,"label":"Chata Polska","address":"WARSZAWSKA 93","city":"61-031 POZNAŃ","longitude":16.970307,"latitude":52.409504,"popupLines":[]},{"id":105,"label":"Chata Polska","address":"LITERACKA 34","city":"60-641 POZNAŃ","longitude":16.874814,"latitude":52.446378,"popupLines":[]},{"id":106,"label":"Chata Polska","address":"KRASZEWSKIEGO 5","city":"60-501 POZNAŃ","longitude":16.903625,"latitude":52.411936,"popupLines":[]},{"id":107,"label":"Chata Polska","address":"ZŁOTOWSKA 45","city":"60-189 POZNAŃ","longitude":16.82429,"latitude":52.409977,"popupLines":[]},{"id":108,"label":"Chata Polska","address":"OS. POD LIPAMI 104","city":"61-638 POZNAŃ","longitude":16.941566,"latitude":52.429731,"popupLines":[]},{"id":109,"label":"Chata Polska","address":"GARBARY 57","city":"61-249 POZNAŃ","longitude":16.937618,"latitude":52.407384,"popupLines":[]},{"id":110,"label":"Chata Polska","address":"OS. BOLESŁAWA CHROBREGO 119","city":"60-681 POZNAŃ","longitude":16.914542,"latitude":52.45009,"popupLines":[]},{"id":111,"label":"Chata Polska","address":"OS PRZYJAŹNI 132A","city":"61-690 POZNAŃ","longitude":16.925682,"latitude":52.429165,"popupLines":[]},{"id":112,"label":"Chata Polska","address":"STRÓŻYŃSKIEGO 29","city":"60-688 POZNAŃ","longitude":16.903433,"latitude":52.463242,"popupLines":[]},{"id":113,"label":"Chata Polska","address":"NARAMOWICKA 232/BOŻYDARA","city":"61-611 POZNAŃ","longitude":16.956247,"latitude":52.460094,"popupLines":[]},{"id":114,"label":"Chata Polska","address":"NARAMOWICKA 170","city":"61-611 POZNAŃ","longitude":16.948544,"latitude":52.450967,"popupLines":[]},{"id":115,"label":"Chata Polska","address":"MUSZKOWSKA 2","city":"60-443 POZNAŃ","longitude":16.827157,"latitude":52.434662,"popupLines":[]},{"id":116,"label":"Chata Polska","address":"os. Wichrowe Wzgórze 101","city":"60-101 POZNAŃ","longitude":16.93767,"latitude":52.436211,"popupLines":[]},{"id":117,"label":"Chata Polska","address":"BONIN 8","city":"60-658 POZNAŃ","longitude":16.909029,"latitude":52.430267,"popupLines":[]},{"id":118,"label":"Chata Polska","address":"BŁĘKITNA 1/7","city":"60-462 POZNAŃ","longitude":16.903783,"latitude":52.430214,"popupLines":[]},{"id":121,"label":"Chata Polska","address":"RYNKOWA 142/144","city":"62-081 PRZEŹMIEROWO","longitude":16.787016,"latitude":52.421653,"popupLines":[]},{"id":122,"label":"Chata Polska","address":"RYNKOWA 75 C","city":"62-081 PRZEŹMIEROWO","longitude":16.783653,"latitude":52.426311,"popupLines":[]},{"id":128,"label":"Chata Polska","address":"OS. TYGRYSIE 26A","city":"ROBAKOWO","longitude":17.066978,"latitude":52.295833,"popupLines":[]},{"id":133,"label":"Chata Polska","address":"ul. Trakt Napoleoński 11","city":"62-090 ROKIETNICA","longitude":16.737121,"latitude":52.508528,"popupLines":[]},{"id":138,"label":"Chata Polska","address":"POZNAŃSKA 74","city":"60-185 SKÓRZEWO","longitude":16.791681,"latitude":52.391666,"popupLines":[]},{"id":139,"label":"Chata Polska","address":"BRATNIA 1","city":"60-185 SKÓRZEWO","longitude":16.782492,"latitude":52.38931,"popupLines":[]},{"id":146,"label":"Chata Polska","address":"BOGUSŁAWSKIEGO 16","city":"62-002 SUCHY LAS","longitude":16.879116,"latitude":52.474334,"popupLines":[]},{"id":147,"label":"Sklep Partnerski","address":"PLAC HANDLOWY 1","city":"62-020 SWARZĘDZ","longitude":17.051394,"latitude":52.397467,"popupLines":[]},{"id":148,"label":"Chata Polska","address":"OS. CEGIELSKIEGO 31","city":"62-020 SWARZĘDZ","longitude":17.063593,"latitude":52.400142,"popupLines":[]},{"id":149,"label":"Chata Polska","address":"Cieszkowskiego 9-11","city":"62-020 SWARZĘDZ","longitude":17.08449,"latitude":52.41128,"popupLines":[]},{"id":160,"label":"Chata Polska","address":"23-GO PAŹDZIERNIKA 32","city":"62-080 TARNOWO PODGÓRNE","longitude":16.673416,"latitude":52.462644,"popupLines":[]},{"id":161,"label":"Chata Polska","address":"RABOWICKA 1, GOWARZEWO","city":"63-004 TULCE","longitude":17.125023,"latitude":52.367027,"popupLines":[]}]