[{"id":"BID01A","label":"Przy sklepie Chata Polska","address":"Zjednoczenia 12","city":"Biedrusko","longitude":16.94583,"latitude":52.54546,"popupLines":["24/7"]},{"id":"BKP01M","label":"Przy Polskim Sklepie","address":"Mieszka I 2","city":"Biskupice","longitude":17.17082,"latitude":52.46772,"popupLines":["24/7"]},{"id":"BKP02M","label":"Przed sklepem spożywczym","address":"Główna 50","city":"Biskupice","longitude":17.17219,"latitude":52.46127,"popupLines":["24/7"]},{"id":"BOU01M","label":"Prywatna posesja","address":"Wrzosowa 104","city":"Bogucin","longitude":17.03089,"latitude":52.4306,"popupLines":["24/7"]},{"id":"BOW01G","label":"Na stacji Shell","address":"Poznańska 3","city":"Bolechowo","longitude":16.98219,"latitude":52.53769,"popupLines":["24/7"]},{"id":"BOW01N","label":"Przy parkingu Biedronki","address":"Główna 2A","city":"Borówiec","longitude":17.04049,"latitude":52.28036,"popupLines":["24/7"]},{"id":"BOW02N","label":"Parking przed Sklepem Familijnym","address":"Główna 28C","city":"Borówiec","longitude":17.02356,"latitude":52.28094,"popupLines":["24/7"]},{"id":"BWO01M","label":"Na terenie Parku Handlowego","address":"Szamotulska 26","city":"Baranowo","longitude":16.78706,"latitude":52.44631,"popupLines":["24/7"]},{"id":"BWO02M","label":"Na parkingu sklepu Hebo","address":"Rzemieślnicza 91","city":"Baranowo","longitude":16.79914,"latitude":52.42858,"popupLines":["24/7"]},{"id":"CCQ01M","label":"Przy Koźlaku","address":"Poznańska 65-67","city":"Chomęcice","longitude":16.75108,"latitude":52.33194,"popupLines":["24/7"]},{"id":"CDO01E","label":"Na terenie myjni","address":"Golęczewska 14B","city":"Chludowo","longitude":16.8385,"latitude":52.55353,"popupLines":["24/7"]},{"id":"CDO01M","label":"przy Restauracji Ogród Przysmaków","address":"Dworcowa nr działki 396","city":"Chludowo","longitude":16.84185,"latitude":52.55852,"popupLines":["24/7"]},{"id":"CHB01M","label":"Przy Myjni","address":"Szamotulska 40","city":"Chyby","longitude":16.76332,"latitude":52.45962,"popupLines":["24/7"]},{"id":"CPR01M","label":"Narożnik niezabudowanej działki od ul. Poznańskiej","address":"Poznańska 79","city":"Czapury","longitude":16.914,"latitude":52.32123,"popupLines":["24/7"]},{"id":"CPR02M","label":"Market Dino","address":"Poznańska 43 A","city":"Czapury","longitude":16.91097,"latitude":52.32724,"popupLines":["24/7"]},{"id":"CZK01A","label":"Parking Czerwona Torebka","address":"Leśna 1","city":"Czerwonak","longitude":16.98174,"latitude":52.465,"popupLines":["24/7"]},{"id":"CZK01M","label":"Przy sklepie spożywczym JANKES","address":"Os. Przylesie 9","city":"Czerwonak","longitude":16.98108,"latitude":52.48104,"popupLines":["24/7"]},{"id":"CZK01N","label":"Przy sklepie Żabka","address":"Krótka 1","city":"Czerwonak","longitude":16.97934,"latitude":52.47724,"popupLines":["24/7"]},{"id":"CZK02M","label":"Przy sklepie spożywczym Tęcza","address":"Zdroje 28","city":"Czerwonak","longitude":17.00035,"latitude":52.4704,"popupLines":["24/7"]},{"id":"DAB01L","label":"Przy prywatnej posesji","address":"Lipowa 20","city":"Dąbrówka","longitude":16.74423,"latitude":52.38276,"popupLines":["24/7"]},{"id":"DAB01M","label":"Naprzeciwko wjazdu na parking P+R przy dworcu PKP Palędzie","address":"Kolejowa 3","city":"Dąbrówka","longitude":16.74201,"latitude":52.37487,"popupLines":["24/7"]},{"id":"DAB01N","label":"Przy sklepie Freshmarket","address":"Kolejowa 67","city":"Dąbrówka","longitude":16.74479,"latitude":52.37888,"popupLines":["24/7"]},{"id":"DAB02M","label":"Przy Galerii Handlowej","address":"Poznańska 31","city":"Dąbrówka","longitude":16.74488,"latitude":52.38106,"popupLines":["24/7"]},{"id":"DAB03M","label":"Przy Lidlu","address":"Poznańska 100","city":"Dąbrówka","longitude":16.74225,"latitude":52.3764,"popupLines":["24/7"]},{"id":"DAH01M","label":"Przy sklepie ABC","address":"Poznańska 21","city":"Dachowa","longitude":17.08759,"latitude":52.30084,"popupLines":["24/7"]},{"id":"DIN01M","label":"Przy budynku handlowym","address":"Generała Sikorskiego 78A","city":"Dębienko","longitude":16.72494,"latitude":52.28965,"popupLines":["24/7"]},{"id":"DOP01A","label":"Przy sklepie budowlanym Modernika","address":"Stawna 17","city":"Dopiewo","longitude":16.67328,"latitude":52.36234,"popupLines":["24/7"]},{"id":"DOP01M","label":"Na działce","address":"Więckowska 30","city":"Dopiewo","longitude":16.67008,"latitude":52.36541,"popupLines":["24/7"]},{"id":"DOP01N","label":"Przy sklepie Lewiatan","address":"Poznańska 13","city":"Dopiewo","longitude":16.67622,"latitude":52.35812,"popupLines":["24/7"]},{"id":"DOP02M","label":"Market Dino","address":"Bukowska 9","city":"Dopiewo","longitude":16.67428,"latitude":52.35647,"popupLines":["24/7"]},{"id":"DPC01M","label":"Przy sklepie spożywczym","address":"Szkolna 13","city":"Dopiewiec","longitude":16.70792,"latitude":52.35999,"popupLines":["24/7"]},{"id":"DPC02M","label":"Przy sklepie spożywczym","address":"Leśna 1","city":"Dopiewiec","longitude":16.71027,"latitude":52.35983,"popupLines":["24/7"]},{"id":"DPC03M","label":"Przy Sklepie","address":"Polarna 1","city":"Dopiewiec","longitude":16.71307,"latitude":52.37238,"popupLines":["24/7"]},{"id":"DQX01M","label":"przy sklepie spożywczym","address":"Poznańska 5","city":"Daszewice","longitude":16.95483,"latitude":52.30472,"popupLines":["24/7"]},{"id":"DWA01M","label":"Po prawej stronie parkingu","address":"Szafirowa 1A","city":"Dąbrowa","longitude":16.7567,"latitude":52.3969,"popupLines":["24/7"]},{"id":"GDI01M","label":"Przy sklepie spożywczym","address":"Zbożowa 1","city":"Gądki","longitude":17.0534,"latitude":52.30834,"popupLines":["24/7"]},{"id":"GHO01M","label":"Przy sklepie","address":"Komornicka 18","city":"Głuchowo","longitude":16.77062,"latitude":52.34594,"popupLines":["24/7"]},{"id":"GLZ01M","label":"Na terenie prywatnej posesji partnera","address":"Tysiąclecia 2","city":"Golęczewo","longitude":16.81904,"latitude":52.53649,"popupLines":["24/7"]},{"id":"GRT01N","label":"Prywatna posesja","address":"Fabryczna 1","city":"Gortatowo","longitude":17.1044,"latitude":52.42687,"popupLines":["24/7"]},{"id":"GWW01A","label":"Przy sklepie Chata Polska","address":"Rabowicka 1","city":"Gowarzewo","longitude":17.12501,"latitude":52.3645,"popupLines":["24/7"]},{"id":"GWW01M","label":"Market Dino","address":"Kleszczewska 1","city":"Gowarzewo","longitude":17.13325,"latitude":52.35992,"popupLines":["24/7"]},{"id":"GWW02M","label":"Ściana boczna budynku od ulicy","address":"Siekierecka 24a","city":"Gowarzewo","longitude":17.1417,"latitude":52.36656,"popupLines":["24/7"]},{"id":"JEK01A","label":"Przy sklepie Groszek","address":"pl. Piastowski 25","city":"Jerzykowo","longitude":17.17167,"latitude":52.46952,"popupLines":["24/7"]},{"id":"JEL01M","label":"Przy firmie JELIMEX - wjazd od ulicy Czołgowej","address":"Obornicka 10","city":"Jelonek","longitude":16.85644,"latitude":52.48654,"popupLines":["24/7"]},{"id":"KCA01M","label":"Parking przy aptece","address":"Poznańska 113","city":"Kobylnica","longitude":17.07994,"latitude":52.44723,"popupLines":["24/7"]},{"id":"KCA02M","label":"Przy Pawilonie Handlowym.","address":"Swarzędzka 2","city":"Kobylnica","longitude":17.07611,"latitude":52.44534,"popupLines":["24/7"]},{"id":"KCI01M","label":"Na Parkingu obiektu Noclegi pod Orzechem","address":"Poznańska 8","city":"Kicin","longitude":17.01453,"latitude":52.45586,"popupLines":["24/7"]},{"id":"KCI02M","label":"Przy głównej ulicy Nowe Osiedle","address":"Nowe Osiedle 53","city":"Kicin","longitude":17.01296,"latitude":52.467,"popupLines":["24/7"]},{"id":"KCO01G","label":"Parking przy sklepie spożywczym","address":"Poznańska 33","city":"Kleszczewo","longitude":17.17075,"latitude":52.33395,"popupLines":["24/7"]},{"id":"KCO01M","label":"Obok sklepu","address":"Poznańska 8","city":"Kleszczewo","longitude":17.16866,"latitude":52.33425,"popupLines":["24/7"]},{"id":"KIR01M","label":"Market Dino","address":"Kierska 2G","city":"Kiekrz","longitude":16.77956,"latitude":52.48476,"popupLines":["24/7"]},{"id":"KIR02M","label":"Na parkingu Pizza Capri","address":"Starzyńska 41","city":"Kiekrz","longitude":16.76878,"latitude":52.49723,"popupLines":["24/7"]},{"id":"KMN01M","label":"Posesja na ul. Kamiennej 10","address":"Kamienna 10","city":"Kamionki","longitude":17.00964,"latitude":52.28196,"popupLines":["24/7"]},{"id":"KMN02M","label":"Parking Maryland Kraina Języków","address":"Porannej Rosy 31A","city":"Kamionki","longitude":16.98687,"latitude":52.27845,"popupLines":["24/7"]},{"id":"KMN02N","label":"Przy sklepie Delikatesy Centrum","address":"Mostowa 12","city":"Kamionki","longitude":16.99838,"latitude":52.2873,"popupLines":["24/7"]},{"id":"KMN03M","label":"parking Parku Handlowego Eko-Kamionki","address":"Poznańska 117","city":"Kamionki","longitude":16.9841,"latitude":52.28751,"popupLines":["24/7"]},{"id":"KMN03N","label":"Obok fryzjera","address":"Jaśminowa 18","city":"Kamionki","longitude":16.97995,"latitude":52.29118,"popupLines":["24/7"]},{"id":"KOG01A","label":"Na tylnej ścianie (południowej) sklepu &quot;Pepco&quot;","address":"Piasko 19","city":"Koziegłowy","longitude":16.98961,"latitude":52.44552,"popupLines":["24/7"]},{"id":"KOG02M","label":"Na parkingu sklepu Lidl","address":"Gdyńska 66","city":"Koziegłowy","longitude":16.98537,"latitude":52.453,"popupLines":["24/7"]},{"id":"KOG03M","label":"Przy sklepie Spec-Market.","address":"Krótka 1A","city":"Koziegłowy","longitude":16.9967,"latitude":52.44718,"popupLines":["24/7"]},{"id":"KOG04M","label":"Market ALDI","address":"Gdyńska 30","city":"Koziegłowy","longitude":16.98477,"latitude":52.44827,"popupLines":["24/7"]},{"id":"KOM01A","label":"Przy pasażu Czerwona Torebka","address":"Malinowskiego 9","city":"Komorniki","longitude":16.80025,"latitude":52.33999,"popupLines":["24/7"]},{"id":"KOM01M","label":"przy sklepie Netto","address":"Młyńska 4","city":"Komorniki","longitude":16.80653,"latitude":52.33444,"popupLines":["24/7"]},{"id":"KOM01N","label":"Przy sklepie Netto","address":"Nizinna 10","city":"Komorniki","longitude":16.81507,"latitude":52.33819,"popupLines":["24/7"]},{"id":"KOM02M","label":"Przy wjeździe na parking sklepu Lidl","address":"Nowa 2","city":"Komorniki","longitude":16.81429,"latitude":52.3403,"popupLines":["24/7"]},{"id":"KOM03M","label":"Na działce przy skrzyżowaniu ulic Św. Rocha i Rosnowskiej","address":"Świętego Rocha 1","city":"Komorniki","longitude":16.79606,"latitude":52.33584,"popupLines":["24/7"]},{"id":"KOM04M","label":"Market Dino","address":"Żabikowska 37","city":"Komorniki","longitude":16.8332,"latitude":52.33898,"popupLines":["24/7"]},{"id":"KOM05M","label":"Parking przy myjni bezdotykowej","address":"Wiśniowa 12","city":"Komorniki","longitude":16.81819,"latitude":52.34944,"popupLines":["24/7"]},{"id":"KOM06M","label":"Przy wjeździe na posesję","address":"Komornicka 106","city":"Komorniki","longitude":16.83044,"latitude":52.33368,"popupLines":["24/7"]},{"id":"KOR02N","label":"Przy markecie Netto","address":"Poznańska 87","city":"Kórnik","longitude":17.07737,"latitude":52.2559,"popupLines":["24/7"]},{"id":"KOR03N","label":"Na parkingu Max Market Chiński","address":"Woźniaka 5","city":"Kórnik","longitude":17.07773,"latitude":52.25388,"popupLines":["24/7"]},{"id":"KST02M","label":"Przy sklepie ABC","address":"Wyszyńskiego 3","city":"Kostrzyn","longitude":17.22343,"latitude":52.39115,"popupLines":["24/7"]},{"id":"KST02N","label":"Przy sklepie Pepco","address":"Warszawska 13","city":"Kostrzyn","longitude":17.2243,"latitude":52.39382,"popupLines":["24/7"]},{"id":"KST03M","label":"Przy sklepie Netto","address":"Dworcowa 31","city":"Kostrzyn","longitude":17.22432,"latitude":52.39409,"popupLines":["24/7"]},{"id":"KST03N","label":"Przy supermarkecie Chata Polska","address":"Poznańska 37","city":"Kostrzyn","longitude":17.21959,"latitude":52.39776,"popupLines":["24/7"]},{"id":"KST07M","label":"Market Dino","address":"Kórnicka 4M","city":"Kostrzyn","longitude":17.21631,"latitude":52.39005,"popupLines":["24/7"]},{"id":"KST08M","label":"Przy sklepie Netto","address":"Poznańska 118","city":"Kostrzyn","longitude":17.20886,"latitude":52.39809,"popupLines":["24/7"]},{"id":"LBO01A","label":"Przy Centrum Handlowym Factory Outlet","address":"Dębiecka 1","city":"Luboń","longitude":16.88731,"latitude":52.35371,"popupLines":["24/7"]},{"id":"LBO01M","label":"Przy sklepie Społem","address":"Kościuszki 47","city":"Luboń","longitude":16.87095,"latitude":52.35009,"popupLines":["24/7"]},{"id":"LBO01N","label":"Przy sklepie ogrodniczym","address":"Wojska Polskiego 7","city":"Luboń","longitude":16.87195,"latitude":52.34286,"popupLines":["24/7"]},{"id":"LBO02A","label":"Przy sklepie warzywnym","address":"Jana III Sobieskiego 53","city":"Luboń","longitude":16.87584,"latitude":52.33476,"popupLines":["24/7"]},{"id":"LBO02B","label":"na parkingu Centrum Handlowego Pajo","address":"Żabikowska 66","city":"Luboń","longitude":16.879,"latitude":52.35076,"popupLines":["24/7"]},{"id":"LBO02M","label":"Przy prywatnej posesji","address":"11 Listopada 30","city":"Luboń","longitude":16.87191,"latitude":52.34568,"popupLines":["24/7"]},{"id":"LBO03A","label":"Przy sklepie Intermarche","address":"Żabikowska 53B","city":"Luboń","longitude":16.88208,"latitude":52.34903,"popupLines":["24/7"]},{"id":"LBO03M","label":"Przy parkingu sklepu Lewiatan","address":"Polna 42","city":"Luboń","longitude":16.87235,"latitude":52.32574,"popupLines":["24/7"]},{"id":"LBO04M","label":"Przy sklepie Skrzat.","address":"Żabikowska 45","city":"Luboń","longitude":16.88022,"latitude":52.34695,"popupLines":["24/7"]},{"id":"LBO05A","label":"Przy myjni bezdotykowej","address":"Armii Poznań 51B","city":"Luboń","longitude":16.8899,"latitude":52.3337,"popupLines":["24/7"]},{"id":"LBO05M","label":"Przy myjni bezdotykowej.","address":"Poniatowskiego 66","city":"Luboń","longitude":16.85518,"latitude":52.34547,"popupLines":["24/7"]},{"id":"LBO06M","label":"Przy stacji Lotos.","address":"Armii Poznań 58","city":"Luboń","longitude":16.89496,"latitude":52.34686,"popupLines":["24/7"]},{"id":"LBO07M","label":"Przy sklepie wędkarskim","address":"Armii Poznań 103","city":"Luboń","longitude":16.8878,"latitude":52.32504,"popupLines":["24/7"]},{"id":"LBO08M","label":"Parking przy Pawilonie Handlowym","address":"Sobieskiego 88c","city":"Luboń","longitude":16.87721,"latitude":52.32903,"popupLines":["24/7"]},{"id":"LBO094","label":"Przy sklepie Społem","address":"11 Listopada 141","city":"Luboń","longitude":16.84979,"latitude":52.34452,"popupLines":["24/7"]},{"id":"LBO10M","label":"Przy stacji Shell.","address":"Żabikowska 68","city":"Luboń","longitude":16.88134,"latitude":52.35057,"popupLines":["24/7"]},{"id":"LBO11M","label":"Na parkingu Pączek w Maśle","address":"Dożynkowa 1","city":"Luboń","longitude":16.89786,"latitude":52.35017,"popupLines":["24/7"]},{"id":"LBO12M","label":"na parkingu Netto","address":"Żabikowska 34","city":"Luboń","longitude":16.8775,"latitude":52.34518,"popupLines":["24/7"]},{"id":"LBO13M","label":"Przy sklepie Żabka.","address":"Kościuszki 30","city":"Luboń","longitude":16.87445,"latitude":52.34765,"popupLines":["24/7"]},{"id":"LBO14M","label":"Przy Pizza Peron","address":"Dworcowa 8a","city":"Luboń","longitude":16.89092,"latitude":52.34088,"popupLines":["24/7"]},{"id":"LBO249","label":"Przy sklepie Żabka","address":"Kościuszki 102","city":"Luboń","longitude":16.86587,"latitude":52.3522,"popupLines":["24/7"]},{"id":"LCC01M","label":"boczna (lewa) ściana Lidla","address":"Poznańska 29","city":"Łęczyca","longitude":16.87851,"latitude":52.31146,"popupLines":["24/7"]},{"id":"LOK01M","label":"Na parkingu Apteki Morskiej w Lusówku","address":"Tarnowska 33","city":"Lusówko","longitude":16.64471,"latitude":52.43319,"popupLines":["24/7"]},{"id":"LUW01M","label":"Market Dino","address":"Poznańska 5","city":"Lusowo","longitude":16.70171,"latitude":52.43484,"popupLines":["24/7"]},{"id":"MOS01A","label":"Przy sklepie Żabka","address":"Sowiniecka 9B","city":"Mosina","longitude":16.8573,"latitude":52.24183,"popupLines":["24/7"]},{"id":"MOS01M","label":"boczna, prawa ściana Lidla","address":"Harcerska 3-5","city":"Mosina","longitude":16.84361,"latitude":52.24429,"popupLines":["24/7"]},{"id":"MOS01ML","label":"Market Dino","address":"Poniatowskiego 1B","city":"Mosina","longitude":16.8497,"latitude":52.2503,"popupLines":["24/7"]},{"id":"MOS01N","label":"Przy markecie Netto","address":"Konopnickiej 33","city":"Mosina","longitude":16.84259,"latitude":52.24494,"popupLines":["24/7"]},{"id":"MOS02N","label":"Przy aptece Mosińskie Centrum Zdrowia","address":"Farbiarska 30","city":"Mosina","longitude":16.85455,"latitude":52.24544,"popupLines":["24/7"]},{"id":"MOS04M","label":"Przy budynku MOSINOVA","address":"Niezłomnych 3","city":"Mosina","longitude":16.85007,"latitude":52.24389,"popupLines":["24/7"]},{"id":"MOS05M","label":"Parking przy Netto","address":"Kolejowa 33","city":"Mosina","longitude":16.85341,"latitude":52.24304,"popupLines":["24/7"]},{"id":"MOS06M","label":"Przy sklepie spożywczym","address":"Leśna 21","city":"Mosina","longitude":16.85278,"latitude":52.25958,"popupLines":["24/7"]},{"id":"MUG01M","label":"przy księgarni Grześ","address":"Poznańska 10B","city":"Murowana Goślina","longitude":17.00901,"latitude":52.57411,"popupLines":["24/7"]},{"id":"MUG01N","label":"Przy Urzędzie Gminy","address":"Poznańska 16","city":"Murowana Goślina","longitude":17.00814,"latitude":52.57372,"popupLines":["24/7"]},{"id":"MUG02M","label":"Przy piekarni","address":"Długa 7","city":"Murowana Goślina","longitude":17.00024,"latitude":52.56676,"popupLines":["24/7"]},{"id":"MUG02N","label":"Przy sklepie spożywczym","address":"Akacjowa 17","city":"Murowana Goślina","longitude":16.99978,"latitude":52.56538,"popupLines":["24/7"]},{"id":"MUG03M","label":"Za sklepem spożywczym/apteką","address":"Graszyńskiego 1","city":"Murowana Goślina","longitude":17.01443,"latitude":52.57473,"popupLines":["24/7"]},{"id":"MUG04M","label":"Na prywatnej posesji przy ul. Jeziornej","address":"Jeziorna 1","city":"Murowana Goślina","longitude":16.99899,"latitude":52.57565,"popupLines":["24/7"]},{"id":"OWN01M","label":"Za sklepem Chata Polska","address":"Plac Przemysława 1C","city":"Owińska","longitude":16.97369,"latitude":52.51414,"popupLines":["24/7"]},{"id":"OWN01N","label":"Przy sklepie ABC","address":"Dworcowa 1","city":"Owińska","longitude":16.98697,"latitude":52.51162,"popupLines":["24/7"]},{"id":"OWN02M","label":"Przy sklepie Lewiatan","address":"Zielona 1A","city":"Owińska","longitude":16.98496,"latitude":52.51755,"popupLines":["24/7"]},{"id":"PAD01M","label":"Przy Warsztacie","address":"Nowa 3","city":"Palędzie","longitude":16.73927,"latitude":52.37236,"popupLines":["24/7"]},{"id":"PAD02M","label":"Na rogu ulic Nowej i Słonecznej","address":"Nowa 122","city":"Palędzie","longitude":16.74554,"latitude":52.36546,"popupLines":["24/7"]},{"id":"PKW01M","label":"przy sklepie ABC","address":"Zapłocie 6A","city":"Paczkowo","longitude":17.15904,"latitude":52.39917,"popupLines":["24/7"]},{"id":"PLW01A","label":"Przy budynku handlowo - usługowym","address":"Grunwaldzka 507","city":"Plewiska","longitude":16.81387,"latitude":52.36965,"popupLines":["24/7"]},{"id":"PLW01M","label":"Na Myjni","address":"Grunwaldzka 513","city":"Plewiska","longitude":16.81299,"latitude":52.36903,"popupLines":["24/7"]},{"id":"PLW01N","label":"Przy Netto","address":"Szarotkowa 21","city":"Poznań","longitude":16.82434,"latitude":52.37828,"popupLines":["24/7"]},{"id":"PLW02M","label":"W płocie od strony ulicy Porannej","address":"Poranna 6","city":"Plewiska","longitude":16.8163,"latitude":52.36019,"popupLines":["24/7"]},{"id":"PLW02N","label":"Przy sklepie Żabka","address":"Kolejowa 85","city":"Plewiska","longitude":16.81381,"latitude":52.36375,"popupLines":["24/7"]},{"id":"PLW03M","label":"Na parkingu żabki","address":"Grunwaldzka 610A","city":"Plewiska","longitude":16.80827,"latitude":52.36504,"popupLines":["24/7"]},{"id":"PLW04M","label":"Przy Stacji Moya","address":"Grunwaldzka 469B","city":"Plewiska","longitude":16.8187,"latitude":52.37318,"popupLines":["24/7"]},{"id":"POI01M","label":"Przy sklepie spożywczym |MILI|","address":"Północna 49","city":"Promnice","longitude":16.96265,"latitude":52.54749,"popupLines":["24/7"]},{"id":"POI02M","label":"Przy sklepie Żabka","address":"Północna 2E","city":"Promnice","longitude":16.96637,"latitude":52.54138,"popupLines":["24/7"]},{"id":"POP-BAR33","label":"AL. CAPONE SKLEP BARANOWO","address":"Szamotulska 26J","city":"Baranowo","longitude":16.78661,"latitude":52.446188,"popupLines":["PN-ND 06-00"]},{"id":"POP-BAR34","label":"AGENCJA POCZTOWA","address":"Szamotulska 26J","city":"Baranowo","longitude":16.786693,"latitude":52.446166,"popupLines":["PN-PT 09-18"]},{"id":"POP-BWK2","label":"MINI MARKET AGUSIA","address":"Lipowa 55","city":"Bolechówko","longitude":16.997042,"latitude":52.519547,"popupLines":["PN-PT 10-20 SB 10-14"]},{"id":"POP-DAB3","label":"PAKERSI DĄBRÓWKA","address":"Poznańska 31","city":"Dąbrówka","longitude":16.744809,"latitude":52.381389,"popupLines":["PN-PT 09-18"]},{"id":"POP-DAB4","label":"NETTO","address":"Malinowa 42","city":"Dąbrówka","longitude":16.737088,"latitude":52.375468,"popupLines":["PN-SB 06-22 ND 09-19"]},{"id":"POP-DAS1","label":"SKLEP OGÓLNOSPOŻYWCZY RABAT","address":"Poznańska 5","city":"Daszewice","longitude":16.955005,"latitude":52.3046,"popupLines":["PN-PT 06-20 SB 07-20"]},{"id":"POP-DOP2","label":"SKLEP PINEZKA","address":"Młyńska 4","city":"Dopiewo","longitude":16.674617,"latitude":52.35768,"popupLines":["PN-PT 08-20 SB 09-14"]},{"id":"POP-DOP3","label":"EPAKA DOPIEWO","address":"Wyzwolenia 3","city":"Dopiewo","longitude":16.676307,"latitude":52.356751,"popupLines":["PN-PT 09-17 SB 09-13"]},{"id":"POP-GRS1","label":"RABAT","address":"Swarzędzka 89","city":"Gruszczyn","longitude":17.074152,"latitude":52.42958,"popupLines":["PN-PT 05-19 SB 06-20 ND 10-15"]},{"id":"POP-KBL2","label":"SKLEP SŁONECZKO -RÓŻA","address":"Swarzędzka 2","city":"Kobylnica","longitude":17.07613,"latitude":52.445657,"popupLines":["PN-SB 06-22 ND 08-20"]},{"id":"POP-KMN3","label":"NETTO KAMIONKI","address":"Poznańska 150","city":"Kamionki","longitude":16.979362,"latitude":52.289869,"popupLines":["PN-SB 06-22 ND 09-19"]},{"id":"POP-KMR3","label":"NETTO","address":"Młyńska 684","city":"Komorniki","longitude":16.807067,"latitude":52.334462,"popupLines":["PN-SB 06-22"]},{"id":"POP-KMR4","label":"ANANAS FASHION","address":"Młyńska 31","city":"Komorniki","longitude":16.812476,"latitude":52.332812,"popupLines":["PN-PT 09-17 SB 09-13"]},{"id":"POP-KOG2","label":"DROGERIA STYL","address":"Os. Leśne 24","city":"Koziegłowy","longitude":16.996689,"latitude":52.448719,"popupLines":["PN-PT 09-19 SB 09-14"]},{"id":"POP-LBO1","label":"SKLEP ODZIEŻOWY","address":"Sikorskiego 8","city":"Luboń","longitude":16.874027,"latitude":52.348969,"popupLines":["PN-PT 09-20 SB 10-14"]},{"id":"POP-LBO4","label":"SKLEP MOTORYZACYJNY","address":"Armii Poznań 23B","city":"Luboń","longitude":16.897327,"latitude":52.348783,"popupLines":["PN-PT 09-17 SB 09-13"]},{"id":"POP-LBO5","label":"EXPRESS-PACZKA","address":"Wschodnia 21B/62","city":"Luboń","longitude":16.881303,"latitude":52.343305,"popupLines":["PN-PT 10-20 SB 10-14"]},{"id":"POP-LBO6","label":"SPAR","address":"Żabikowska 66","city":"Luboń","longitude":16.880945,"latitude":52.349968,"popupLines":["PN-SB 07-22"]},{"id":"POP-LSO2","label":"CENTRUM UBEZPIECZEŃ","address":"Tarnowska 45","city":"Lusówko","longitude":16.644785,"latitude":52.435513,"popupLines":["PN-PT 09-20 SB 09-14 ND 09-13"]},{"id":"POP-LUN1","label":"SKLEP METALOWY","address":"Armii Poznań 111A","city":"Luboń","longitude":16.88767,"latitude":52.32436,"popupLines":["PN-PT 07-17 SB 09-14"]},{"id":"POP-MAR23","label":"SPAR","address":"Marcelińska 23","city":"Poznań","longitude":16.890587,"latitude":52.405274,"popupLines":["PN-SB 07-22 ND 10-18"]},{"id":"POP-MAR25","label":"EUROSPAR ","address":"Tatrzańska 1","city":"Poznań","longitude":16.849356,"latitude":52.429695,"popupLines":["PN-SB 07-21 ND 10-18"]},{"id":"POP-MEN1","label":"ODIDO RÓŻA","address":"Poznańska 14","city":"Mielno","longitude":17.067445,"latitude":52.49196,"popupLines":["PN-SB 07-21 ND 10-20"]},{"id":"POP-MOS3","label":"TANI KURIER.INFO","address":"Leszczyńska 5","city":"Mosina","longitude":16.846166,"latitude":52.239727,"popupLines":["PN-PT 10-18"]},{"id":"POP-MOS5","label":"ALKOSHOP","address":"Pl. 20 października 17","city":"Mosina","longitude":16.84938,"latitude":52.244981,"popupLines":["PN-SB 08-22 ND 09-20"]},{"id":"POP-MOS7","label":"SKLEP PRZĄDKA","address":"Leśna 21","city":"Mosina","longitude":16.852655,"latitude":52.259594,"popupLines":["PN-SB 06-22 ND 09-20"]},{"id":"POP-MUG1","label":"SKLEP SPOŻYWCZO-PRZEMYSŁOWY","address":"Mściszewska 19","city":"Murowana Goślina","longitude":16.997273,"latitude":52.576185,"popupLines":["PN-PT 06-18 SB 07-14"]},{"id":"POP-MUG2","label":"UBEZPIECZENIA MARIETTA ŻUROWSKA","address":"Poznańska 34","city":"Murowana Goślina","longitude":17.007993,"latitude":52.571756,"popupLines":["PN-PT 09-17 SB 09-14"]},{"id":"POP-PCK1","label":"DELIKATESY ABC","address":"Zapłocie 6A","city":"Paczkowo","longitude":17.158963,"latitude":52.399164,"popupLines":["PN-PT 06-22 SB 06-19 ND 09-14"]},{"id":"POP-PLW3","label":"PAKERSI PLEWISKA","address":"Kolejowa 36/3","city":"Plewiska","longitude":16.807881,"latitude":52.367194,"popupLines":["PN-PT 09-20 SB 10-14"]},{"id":"POP-PLW4","label":"POCZTA PLEWISKA","address":"Grunwaldzka 515D","city":"Plewiska","longitude":16.811754,"latitude":52.368777,"popupLines":["PN-PT 09-20 SB 10-14"]},{"id":"POP-PLW5","label":"AGENCJA POCZTOWA","address":"Grunwaldzka 515D","city":"Plewiska","longitude":16.811754,"latitude":52.368777,"popupLines":["PN-PT 09-20 SB 10-14"]},{"id":"POP-POI4","label":"ABC SKLEP SPOŻYWCZY","address":"Północna 56","city":"Promnice","longitude":16.963144,"latitude":52.548679,"popupLines":["PN-SB 08-20 ND 08-18"]},{"id":"POP-POI5","label":"BTL PROMNICE","address":"Leśna 61","city":"Promnice","longitude":16.964255,"latitude":52.548499,"popupLines":["PN-PT 10-16"]},{"id":"POP-POR9","label":"SPAR","address":"Głogowska 440","city":"Poznań","longitude":16.840496,"latitude":52.35329,"popupLines":["PN-SB 08-22"]},{"id":"POP-POZ100","label":"HENTIA","address":"Bliźniąt 9","city":"Poznań","longitude":16.98363,"latitude":52.393473,"popupLines":["PN-SB 06-22 ND 09-21"]},{"id":"POP-POZ101","label":"SKLEP ABC","address":"os Jana III Sobieskiego 21H","city":"Poznań","longitude":16.909619,"latitude":52.464548,"popupLines":["PN-PT 08-20 SB 09-20 ND 10-17"]},{"id":"POP-POZ102","label":"OTOITO SALON AGD RTV AUDIO","address":"Kościelna 1","city":"Poznań","longitude":16.903882,"latitude":52.412982,"popupLines":["PN-PT 10-18"]},{"id":"POP-POZ103","label":"SKLEP INSTALACYJNY","address":"Os.Piastowskie 76","city":"Poznań","longitude":16.945677,"latitude":52.390747,"popupLines":["PN-PT 10-17"]},{"id":"POP-POZ104","label":"MECHANIKA POJAZDOWA","address":"Starołęcka 60A","city":"Poznań","longitude":16.929658,"latitude":52.366613,"popupLines":["PN-PT 08-17"]},{"id":"POP-POZ105","label":"PUNKT NADAWCZY","address":"Sarmacka 5A","city":"Poznań","longitude":16.943464,"latitude":52.445321,"popupLines":["PN-PT 09-18 SB 10-14"]},{"id":"POP-POZ106","label":"PAKERSI","address":"Słowiańska 104 LOK.21","city":"Poznań","longitude":16.941943,"latitude":52.429423,"popupLines":["PN-PT 10-20 SB 10-14"]},{"id":"POP-POZ107","label":"CATRIDGE LIBELTA","address":"Libelta 26","city":"Poznań","longitude":16.919606,"latitude":52.411887,"popupLines":["PN-PT 08-18 SB 10-14"]},{"id":"POP-POZ109","label":"SUPERKIOSK CZECHA","address":"Os.Czecha 73","city":"Poznań","longitude":16.976289,"latitude":52.385906,"popupLines":["PN-PT 07-20 SB 07-14"]},{"id":"POP-POZ111","label":"SUPERKIOSK WIELKA","address":"Wielka 22/2","city":"Poznań","longitude":16.936533,"latitude":52.409508,"popupLines":["PN-PT 07-19 SB 07-16"]},{"id":"POP-POZ112","label":"SUPERKIOSK ŁOKIETKA","address":"Os. Łokietka 102","city":"Poznań","longitude":16.941769,"latitude":52.449391,"popupLines":["PN-PT 07-21 SB 07-16"]},{"id":"POP-POZ113","label":"OPTYK MICHALAK","address":"Os. Bolesława Śmiałego 17","city":"Poznań","longitude":16.924484,"latitude":52.450413,"popupLines":["PN-PT 10-18"]},{"id":"POP-POZ114","label":"PRALNIA MAGIEL","address":"Os. Orła Białego 83","city":"Poznań","longitude":16.971916,"latitude":52.380991,"popupLines":["PN-PT 09-18"]},{"id":"POP-POZ115","label":"SUPERKIOSK1 ŚCIEGIENNEGO","address":"Ściegiennego 65","city":"Poznań","longitude":16.874879,"latitude":52.389921,"popupLines":["PN-PT 06-18 SB 06-16"]},{"id":"POP-POZ116","label":"SUPERKIOSK OGRODY","address":"Pl. Ludwika Waryńskiego PAW 2","city":"Poznań","longitude":16.882109,"latitude":52.416557,"popupLines":["PN-PT 06-21 SB 06-16 ND 09-15"]},{"id":"POP-POZ117","label":"SUPERMARKET EUROSPAR MALTA","address":"Maltańska 1","city":"Poznań","longitude":16.954729,"latitude":52.403245,"popupLines":["PN 09-22 WT 08-22 ŚR-SB 09-22 ND 10-18"]},{"id":"POP-POZ118","label":"SKLEP AGAT","address":"Mogileńska 22","city":"Poznań","longitude":16.991577,"latitude":52.410671,"popupLines":["PN-PT 07-20 SB 09-19"]},{"id":"POP-POZ119","label":"SALONIK PRASOWY","address":"Os. Armii Krajowej 98","city":"Poznań","longitude":16.951731,"latitude":52.379811,"popupLines":["PN-PT 07-18 SB 07-14"]},{"id":"POP-POZ120","label":"PALINKA","address":"Os.Orła Białego 77","city":"Poznań","longitude":16.970637,"latitude":52.38023,"popupLines":["PN-SB 06-22"]},{"id":"POP-POZ121","label":"CORIO HURTOWNIA KOSMETYCZNA","address":"Żmigrodzka 41","city":"Poznań","longitude":16.88959,"latitude":52.383322,"popupLines":["PN-PT 08-17 SB 08-16"]},{"id":"POP-POZ122","label":"DO RE MI FASOLA","address":"Bukowska 45","city":"Poznań","longitude":16.893293,"latitude":52.409249,"popupLines":["PN-PT 10-20 SB-ND 10-18"]},{"id":"POP-POZ123","label":"GREENLOFT ","address":"Cedrowa 12","city":"Poznań","longitude":16.90568,"latitude":52.365849,"popupLines":["PN-PT 10-17 SB 10-14"]},{"id":"POP-POZ124","label":"SKLEP RABAT","address":"Os.Rusa 125","city":"Poznań","longitude":16.990184,"latitude":52.387271,"popupLines":["PN-SB 06-20 ND 08-15"]},{"id":"POP-POZ125","label":"E=MASTERS","address":"Opolska 5 LOK. 9","city":"Poznań","longitude":16.90175,"latitude":52.37085,"popupLines":["PN-PT 10-17"]},{"id":"POP-POZ126","label":"BALONIK SHOP","address":"Traugutta 40B","city":"Poznań","longitude":16.9169,"latitude":52.384814,"popupLines":["PN-PT 10-18 SB 10-14"]},{"id":"POP-POZ127","label":"BIO SKLEP","address":"Promienista 100A","city":"Poznań","longitude":16.874373,"latitude":52.390683,"popupLines":["PN-PT 09-18 SB 09-14"]},{"id":"POP-POZ128","label":"SKLEP RABAT","address":"Wspólna 29","city":"Poznań","longitude":16.910215,"latitude":52.377124,"popupLines":["PN-PT 06-20 SB 06-18 ND 09-14"]},{"id":"POP-POZ129","label":"UBEZPIECZENIA PZU","address":"Os. Jana III Sobieskiego 29","city":"Poznań","longitude":16.913809,"latitude":52.462318,"popupLines":["PN-PT 09-17"]},{"id":"POP-POZ13","label":"PUNKT OPŁAT","address":"Os. Bolesława Chrobrego 117","city":"Poznań","longitude":16.91673,"latitude":52.44959,"popupLines":["PN-PT 09-17"]},{"id":"POP-POZ130","label":"KWIATY ZNICZE","address":"28 Czerwca 1956r. 265 SKLEP","city":"Poznań","longitude":16.907435,"latitude":52.376982,"popupLines":["PN-PT 10-17 SB 09-15 ND 09-14"]},{"id":"POP-POZ131","label":"PZU KRASZEWSKIEGO","address":"Kraszewskiego 12","city":"Poznań","longitude":16.903096,"latitude":52.410627,"popupLines":["PN-PT 09-17"]},{"id":"POP-POZ132","label":"ZOOARTYKULY.PL","address":"Piaskowa 3F","city":"Poznań","longitude":16.93982,"latitude":52.411225,"popupLines":["PN-PT 10-20 SB 09-21"]},{"id":"POP-POZ133","label":"TXM POZNAŃ ","address":"Głogowska 132","city":"Poznań","longitude":16.890914,"latitude":52.387932,"popupLines":["PN-PT 09-19 SB 09-18 ND 10-16"]},{"id":"POP-POZ134","label":"NETTO","address":"Polna 28","city":"Poznań","longitude":16.89545,"latitude":52.411676,"popupLines":["PN-SB 06-22 ND 09-19"]},{"id":"POP-POZ135","label":"NETTO","address":"Skibowa 16A","city":"Poznań","longitude":17.009662,"latitude":52.36355,"popupLines":["PN-SB 06-22 ND 09-19"]},{"id":"POP-POZ136","label":"NETTO","address":"Jana Brzechwy 56","city":"Poznań","longitude":16.832817,"latitude":52.411773,"popupLines":["PN-SB 06-22 ND 09-19"]},{"id":"POP-POZ137","label":"EUROSPAR","address":"Promienista 160","city":"Poznań","longitude":16.864471,"latitude":52.386714,"popupLines":["PN-SB 08-22 ND 09-20"]},{"id":"POP-POZ138","label":"EUROSPAR","address":"Druskienicka 12A","city":"Poznań","longitude":16.889836,"latitude":52.446344,"popupLines":["PN-SB 08-22 ND 10-18"]},{"id":"POP-POZ140","label":"AGENCJA POCZTOWA","address":"Swoboda 25","city":"Poznań","longitude":16.872153,"latitude":52.408656,"popupLines":["PN-PT 10-18 SB 09-13"]},{"id":"POP-POZ141","label":"AGENCJA POCZTOWA","address":"Pamiątkowa 10","city":"Poznań","longitude":16.915097,"latitude":52.386893,"popupLines":["PN-PT 09-18 SB 10-14"]},{"id":"POP-POZ142","label":"AGENCJA POCZTOWA","address":"Grunwaldzka 17","city":"Poznań","longitude":16.898354,"latitude":52.405473,"popupLines":["PN-PT 10-18"]},{"id":"POP-POZ143","label":"NETTO ","address":"Os.Przyjaźni 125A","city":"Poznań","longitude":16.929532,"latitude":52.431028,"popupLines":["PN-SB 06-22"]},{"id":"POP-POZ144","label":"NETTO ","address":"Solidarności 50","city":"Poznań","longitude":16.922587,"latitude":52.435232,"popupLines":["PN-SB 06-22 ND 09-19"]},{"id":"POP-POZ146","label":"NETTO ","address":"Poznańska 62","city":"Poznań","longitude":16.912885,"latitude":52.41402,"popupLines":["PN-SB 06-22 ND 09-19"]},{"id":"POP-POZ147","label":"NETTO  ","address":"Grunwaldzka 104A","city":"Poznań","longitude":16.869547,"latitude":52.396495,"popupLines":["PN-SB 06-22 ND 09-19"]},{"id":"POP-POZ149","label":"SKLEP RABAT","address":"os .Wichrowe Wzgórze PAW 104","city":"Poznań","longitude":16.940075,"latitude":52.439078,"popupLines":["PN-ND 08-20"]},{"id":"POP-POZ15","label":"SALONIK PRASOWY E PAPIEROSY","address":"Piłsudskiego 2B","city":"Poznań","longitude":16.95,"latitude":52.39269,"popupLines":["PN-PT 07-18 SB 08-13"]},{"id":"POP-POZ150","label":"NETTO","address":"Górna Wilda 74/69","city":"Poznań","longitude":16.924832,"latitude":52.397525,"popupLines":["PN-SB 06-22 ND 09-19"]},{"id":"POP-POZ151","label":"NETTO","address":"Os. Władysława Łokietka 102","city":"Poznań","longitude":16.941833,"latitude":52.449395,"popupLines":["PN-SB 06-22"]},{"id":"POP-POZ152","label":"SPAR","address":"os.Stare Żegrze 36","city":"Poznań","longitude":16.957839,"latitude":52.380417,"popupLines":["PN-SB 07-21"]},{"id":"POP-POZ153","label":"SPAR","address":"Hetmańska 91","city":"Poznań","longitude":16.912801,"latitude":52.386204,"popupLines":["PN-SB 07-22"]},{"id":"POP-POZ154","label":"NETTO","address":"Czermechowa 3-5","city":"Poznań","longitude":16.895559,"latitude":52.374276,"popupLines":["PN-SB 06-22"]},{"id":"POP-POZ155","label":"NETTO","address":"Szarotkowa 21","city":"Poznań","longitude":16.823557,"latitude":52.378373,"popupLines":["PN-SB 06-22"]},{"id":"POP-POZ156","label":"KOMPUTER ZA GROSZE","address":"Wierzbięcice 13","city":"Poznań","longitude":16.921103,"latitude":52.398013,"popupLines":["PN-PT 10-18 SB 10-14"]},{"id":"POP-POZ2","label":"EUROSPAR ","address":"Drużbickiego 2","city":"Poznań","longitude":16.918705,"latitude":52.440426,"popupLines":["PN-SB 09-22 ND 10-18"]},{"id":"POP-POZ24","label":"MBE MAIL BOX","address":"Głogowska 16","city":"Poznań","longitude":16.907794,"latitude":52.401339,"popupLines":["PN-PT 09-18 SB 10-14"]},{"id":"POP-POZ3","label":"PUNKT OPŁAT","address":"Promienista 104","city":"Poznań","longitude":16.8738,"latitude":52.39033,"popupLines":["PN-PT 09-17"]},{"id":"POP-POZ30","label":"PUNKT OPŁAT","address":"Os. Rzeczpospolitej 14","city":"Poznań","longitude":16.944023,"latitude":52.390362,"popupLines":["PN-PT 09-18"]},{"id":"POP-POZ32","label":"P.H. MYSZKA","address":"23 Lutego 14","city":"Poznań","longitude":16.92716,"latitude":52.40992,"popupLines":["PN-PT 09-20 SB 10-14"]},{"id":"POP-POZ33","label":"UBEZPIECZENIA BLISKO CIEBIE","address":"Jesionowa 20/4","city":"Poznań","longitude":16.895709,"latitude":52.366844,"popupLines":["PN-PT 10-20 SB 10-14"]},{"id":"POP-POZ47","label":"BIURO TURYSTYCZNE KANION","address":"Polna 2","city":"Poznań","longitude":16.897522,"latitude":52.413815,"popupLines":["PN-PT 10-19 SB 09-13"]},{"id":"POP-POZ55","label":"MER-CARS","address":"Głuszyna 58B","city":"Poznań","longitude":16.925235,"latitude":52.334301,"popupLines":["PN-PT 10-18"]},{"id":"POP-POZ60","label":"KIOSK SZEWC KOŚCIELNA","address":"Kościelna/Dąbrowskiego 1","city":"Poznań","longitude":16.903773,"latitude":52.412881,"popupLines":["PN-PT 10-18"]},{"id":"POP-POZ65","label":"MAIL BOXES ETC.2659","address":"Gałczyńskiego 46","city":"Poznań","longitude":16.851712,"latitude":52.408316,"popupLines":["PN-PT 08-20 SB 10-14"]},{"id":"POP-POZ67","label":"STIHL KIEKRZ","address":"Chojnicka 60","city":"Poznań","longitude":16.78443,"latitude":52.477661,"popupLines":["PN-PT 09-17"]},{"id":"POP-POZ68","label":"HURTOWNIA KOMETYKÓW MADRIC","address":"Langiewicza 23/U1","city":"Poznań","longitude":16.917374,"latitude":52.387822,"popupLines":["PN-PT 11-20"]},{"id":"POP-POZ69","label":"SKLEP LEWIATAN","address":"Głogowska 117","city":"Poznań","longitude":16.894355,"latitude":52.390335,"popupLines":["PN-ND 06-00"]},{"id":"POP-POZ70","label":"SKLEP LEWIATAN","address":"Falista 4A","city":"Poznań","longitude":16.94684,"latitude":52.369328,"popupLines":["PN-SB 06-22 ND 08-22"]},{"id":"POP-POZ71","label":"SKLEP SPOŻYWCZY","address":"Trzebiatowska 18C","city":"Poznań","longitude":16.837041,"latitude":52.436912,"popupLines":["PN-PT 06-22 SB 07-22 ND 16-22"]},{"id":"POP-POZ72","label":"SKLEP UKRAINOCZKA","address":"Na Miasteczku 12/LOK 8","city":"Poznań","longitude":16.949454,"latitude":52.397596,"popupLines":["PN-PT 09-22 SB 09-20"]},{"id":"POP-POZ74","label":"SKLEP ZOOLOGICZNY","address":"Os. Lecha 43","city":"Poznań","longitude":16.973679,"latitude":52.390244,"popupLines":["PN-PT 10-18"]},{"id":"POP-POZ75","label":"AUTOPLATFORMA (PARTER UBEZPIECZENIA)","address":"Mylna 23","city":"Poznań","longitude":16.908215,"latitude":52.414796,"popupLines":["PN-PT 10-18 SB 09-14"]},{"id":"POP-POZ76","label":"LEWIATAN MAŁGOSIA","address":"Os. Łokietka 1","city":"Poznań","longitude":16.936831,"latitude":52.451039,"popupLines":["PN-SB 08-22 ND 10-20"]},{"id":"POP-POZ79","label":"PAKERSI MALWOWA","address":"Malwowa 11","city":"Poznań","longitude":16.831156,"latitude":52.383469,"popupLines":["PN-PT 10-18"]},{"id":"POP-POZ83","label":"GSM DOCTOR","address":"Osiedle Stefana Batorego 14I","city":"Poznań","longitude":16.921997,"latitude":52.45809,"popupLines":["PN-PT 10-18"]},{"id":"POP-POZ86","label":"LEWIATAN ORŁA BIAŁEGO","address":"Os. Orła Białego 44A","city":"Poznań","longitude":16.964097,"latitude":52.375951,"popupLines":["PN-SB 06-22 ND 10-20"]},{"id":"POP-POZ87","label":"LEWIATAN LIBELTA","address":"Karola Libelta 6","city":"Poznań","longitude":16.923604,"latitude":52.410468,"popupLines":["PN-SB 06-22 ND 10-20"]},{"id":"POP-POZ89","label":"EPAKA KORONNA","address":"Koronna 1A","city":"Poznań","longitude":16.914899,"latitude":52.430063,"popupLines":["PN-PT 08-18"]},{"id":"POP-POZ90","label":"EPAKA WOLA","address":"Przelot 10","city":"Poznań","longitude":16.857888,"latitude":52.425343,"popupLines":["PN-PT 09-18"]},{"id":"POP-POZ91","label":"BELECO CENTRUM KOSMETYCZNE","address":"Górna Wilda 105","city":"Poznań","longitude":16.92223,"latitude":52.393829,"popupLines":["PN-PT 09-19"]},{"id":"POP-POZ92","label":"BRICOMARCHE POZNAŃ GÓRECKA","address":"Górecka 30A","city":"Poznań","longitude":16.897316,"latitude":52.381451,"popupLines":["PN-SB 08-20 ND 10-18"]},{"id":"POP-POZ93","label":"BRICOMARCHE PESTKA","address":"Al. Solidarności 47","city":"Poznań","longitude":16.916943,"latitude":52.436994,"popupLines":["PN-SB 08-21 ND 10-20"]},{"id":"POP-POZ95","label":"PAKERSI PIĄTKOWO","address":"Zygmunta Starego 14/1","city":"Poznań","longitude":16.910461,"latitude":52.459424,"popupLines":["PN-PT 10-20 SB 10-14"]},{"id":"POP-POZ96","label":"EUROSPAR GRONOWA","address":"Gronowa 18","city":"Poznań","longitude":16.934325,"latitude":52.429388,"popupLines":["PN-SB 07-22 ND 08-19"]},{"id":"POP-POZ97","label":"EUROSPAR MALWOWA","address":"Malwowa 162","city":"Poznań","longitude":16.803096,"latitude":52.396338,"popupLines":["PN-SB 08-22 ND 09-19"]},{"id":"POP-POZ98","label":"SKARPETOHOLIK.PL","address":"Półwiejska 13","city":"Poznań","longitude":16.930101,"latitude":52.403545,"popupLines":["PN-SB 11-19"]},{"id":"POP-POZ99","label":"MIKOGAMES SKLEP Z GRAMI","address":"Os. Bolesława Śmiałego 16","city":"Poznań","longitude":16.925792,"latitude":52.451254,"popupLines":["PN-PT 10-19 SB 10-16"]},{"id":"POP-PPI80","label":"EUROSPAR","address":"Obornicka 85","city":"Suchy Las","longitude":16.875556,"latitude":52.473165,"popupLines":["PN-SB 07-22 ND 08-21"]},{"id":"POP-PRM3","label":"POCZTA","address":"Ogrodowa 14","city":"Przeźmierowo","longitude":16.776074,"latitude":52.432254,"popupLines":["PN-PT 09-17"]},{"id":"POP-ROK1","label":"SKLEP KOMPUTEROWY","address":"Gminna 3 OBOK URZĘDU GMINY","city":"Rokietnica","longitude":16.754808,"latitude":52.510386,"popupLines":["PN-PT 09-17"]},{"id":"POP-ROK2","label":"SKLEP SPOŻYWCZY","address":"Golecińska 15","city":"Rokietnica","longitude":16.755418,"latitude":52.506534,"popupLines":["PN-PT 06-18 SB 07-16"]},{"id":"POP-SKW3","label":"BRICOMARCHE SKÓRZEWO","address":"Poznańska 98A","city":"Skórzewo","longitude":16.801457,"latitude":52.394887,"popupLines":["PN-SB 08-21 ND 10-18"]},{"id":"POP-SKW4","label":"FOTOTWINS FOTOGRAF","address":"Poznańska 43","city":"Skórzewo","longitude":16.789483,"latitude":52.390365,"popupLines":["PN-CZ 10-18 PT 18-18"]},{"id":"POP-SLS5","label":"REDAKCJA AGROPROFIL","address":"Osiedle Jagodowe 5","city":"Suchy Las","longitude":16.867356,"latitude":52.472398,"popupLines":["PN-PT 08-18"]},{"id":"POP-SLS6","label":"OPTYK MICHALAK ","address":"Nowy Rynek 2","city":"Suchy Las","longitude":16.880322,"latitude":52.474897,"popupLines":["PN-PT 10-18"]},{"id":"POP-SWD13","label":"FURGONETKA SWARZĘDZ","address":"Os. Cegielskiego 10","city":"Swarzędz","longitude":17.062653,"latitude":52.401761,"popupLines":["PN-PT 10-17"]},{"id":"POP-SWD14","label":"SUPERMARKET EUROSPAR","address":"Graniczna 55","city":"Swarzędz","longitude":17.060074,"latitude":52.401401,"popupLines":["PN-SB 07-22 ND 10-18"]},{"id":"POP-TRW4","label":"PUNKT INPOST OSIEDLE TARNOWO CENTRUM","address":"Ks. Zbigniewa Sasa 4/U3","city":"Tarnowo Podgórne","longitude":16.665828,"latitude":52.467334,"popupLines":["PN-PT 09-18 SB 09-13"]},{"id":"POP-WRY1","label":"AGENCJA POCZTOWA ","address":"Komornicka 175","city":"Wiry","longitude":16.852218,"latitude":52.320964,"popupLines":["PN-PT 09-17"]},{"id":"POP-ZAS2","label":"JULANDO SKLEP Z ART DZIECIĘCYMI","address":"Planetarna 15A","city":"Zalasewo","longitude":17.07046,"latitude":52.389867,"popupLines":["PN-PT 10-18 SB 10-14"]},{"id":"POP-ZLN1","label":"SKLEP OGÓLNOSPOŻYWCZY","address":"Łagiewnicka 28","city":"Złotniki","longitude":16.848995,"latitude":52.494842,"popupLines":["PN-SB 06-18 ND 09-13"]},{"id":"POZ01A","label":"Przy Fitness Club Podolany","address":"Strzeszyńska 61A","city":"Poznań","longitude":16.89353,"latitude":52.44772,"popupLines":["24/7"]},{"id":"POZ01H","label":"Lokal użytkowy - wejście od ulicy Prusa","address":"Zwierzyniecka 28","city":"Poznań","longitude":16.90393,"latitude":52.40927,"popupLines":["24/7"]},{"id":"POZ01HO","label":"poziom -3 przy schodach ruchomych","address":"Półwiejska 42","city":"Poznań","longitude":16.9275,"latitude":52.40174,"popupLines":["PN-SB 09-21"]},{"id":"POZ01M","label":"Przy pasażu handlowym","address":"os. Rusa 54","city":"Poznań","longitude":16.98695,"latitude":52.39127,"popupLines":["24/7"]},{"id":"POZ01N","label":"Stacja paliw Watis","address":"Wieruszowska 20","city":"Poznań","longitude":16.84755,"latitude":52.38172,"popupLines":["24/7"]},{"id":"POZ02A","label":"Przy sklepie Żabka","address":"Os. Orła Białego 58","city":"Poznań","longitude":16.96652,"latitude":52.37717,"popupLines":["24/7"]},{"id":"POZ02B","label":"Stacja paliw BP","address":"Bukowska 285","city":"Poznań","longitude":16.83406,"latitude":52.4133,"popupLines":["24/7"]},{"id":"POZ02G","label":"Na stacji paliw MOYA","address":"Tatrzańska 1/5","city":"Poznań","longitude":16.84928,"latitude":52.42939,"popupLines":["24/7"]},{"id":"POZ02HO","label":"przejście z galerii na parking poziom 2","address":"Stanisława Matyi 2","city":"Poznań","longitude":16.91298,"latitude":52.4012,"popupLines":["PN-SB 09-21"]},{"id":"POZ02M","label":"Przy Osiedlowym Domu Kultury Orle Gniazdo","address":"os. Lecha 43","city":"Poznań","longitude":16.97488,"latitude":52.39084,"popupLines":["24/7"]},{"id":"POZ02N","label":"Przy markecie Rabat","address":"Łabiszyńska 2","city":"Poznań","longitude":16.98233,"latitude":52.41263,"popupLines":["24/7"]},{"id":"POZ03A","label":"Przy markecie Netto","address":"Czeremchowa 3-5","city":"Poznań","longitude":16.89551,"latitude":52.37424,"popupLines":["24/7"]},{"id":"POZ03B","label":"Parking pasażu Czerwona Torebka","address":"Szwajcarska 1","city":"Poznań","longitude":16.99138,"latitude":52.39374,"popupLines":["24/7"]},{"id":"POZ03H","label":"W pawilonie handlowym","address":"Dmowskiego 3","city":"Poznań","longitude":16.90102,"latitude":52.39374,"popupLines":["24/7"]},{"id":"POZ03L","label":"Przy myjni bezdotykowej","address":"Bułgarska 117","city":"Poznań","longitude":16.8679,"latitude":52.40988,"popupLines":["24/7"]},{"id":"POZ03M","label":"Przy prywatnej posesji na ulicy Dąbrowskiego 154B","address":"Dąbrowskiego 154B","city":"Poznań","longitude":16.88111,"latitude":52.41769,"popupLines":["24/7"]},{"id":"POZ03N","label":"Przy markecie Rabat","address":"Pniewska 15","city":"Poznań","longitude":16.82384,"latitude":52.43111,"popupLines":["24/7"]},{"id":"POZ04A","label":"Stacja paliw Shell","address":"Bułgarska 119","city":"Poznań","longitude":16.86814,"latitude":52.41052,"popupLines":["24/7"]},{"id":"POZ04B","label":"Stacja paliw Shell","address":"Jana Pawła II 12","city":"Poznań","longitude":16.95335,"latitude":52.40515,"popupLines":["24/7"]},{"id":"POZ04H","label":"pawilon handlowo-usługowy Równość","address":"os. Piastowskie 119","city":"Poznań","longitude":16.94407,"latitude":52.38678,"popupLines":["24/7"]},{"id":"POZ04L","label":"Stacja paliw Lotos","address":"Żeromskiego 3","city":"Poznań","longitude":16.8913,"latitude":52.41574,"popupLines":["24/7"]},{"id":"POZ04M","label":"Przy parkingu DS Eskulap","address":"Przybyszewskiego 39","city":"Poznań","longitude":16.88928,"latitude":52.40524,"popupLines":["24/7"]},{"id":"POZ05A","label":"Stacja paliw Shell","address":"Al. Solidarności 55","city":"Poznań","longitude":16.91461,"latitude":52.43599,"popupLines":["24/7"]},{"id":"POZ05B","label":"Przy Centrum Handlowym 24","address":"Tatrzańska 1/5","city":"Poznań","longitude":16.84914,"latitude":52.42978,"popupLines":["24/7"]},{"id":"POZ05H","label":"Lokal użytkowy","address":"Bielniki 1","city":"Poznań","longitude":16.93419,"latitude":52.39558,"popupLines":["24/7"]},{"id":"POZ05M","label":"Przy budynku usługowo handlowym","address":"Naramowicka 342","city":"Poznań","longitude":16.94683,"latitude":52.47502,"popupLines":["24/7"]},{"id":"POZ05N","label":"Stacja paliw Circle K","address":"Piłsudskiego 110","city":"Poznań","longitude":16.96114,"latitude":52.38632,"popupLines":["24/7"]},{"id":"POZ06A","label":"Stacja paliw Shell","address":"Lechicka 2","city":"Poznań","longitude":16.91042,"latitude":52.4429,"popupLines":["24/7"]},{"id":"POZ06L","label":"Stacja paliw Shell","address":"Krzywoustego 309","city":"Poznań","longitude":16.99442,"latitude":52.35682,"popupLines":["24/7"]},{"id":"POZ06M","label":"Na dziedzińcu pawilonu handlowego","address":"Racjonalizatorów 3","city":"Poznań","longitude":16.90478,"latitude":52.36652,"popupLines":["24/7"]},{"id":"POZ06N","label":"Przy markecie Lewiatan","address":"Chojnicka 53","city":"Poznań","longitude":16.78218,"latitude":52.47749,"popupLines":["24/7"]},{"id":"POZ07B","label":"Stacja paliw AMIC ENERGY","address":"Głogowska 268","city":"Poznań","longitude":16.86899,"latitude":52.37494,"popupLines":["24/7"]},{"id":"POZ07L","label":"Przy sklepie Agata Meble","address":"Głogowska 422","city":"Poznań","longitude":16.84378,"latitude":52.35844,"popupLines":["24/7"]},{"id":"POZ07M","label":"Przy biurowcu Victoria","address":"Strzelecka 49","city":"Poznań","longitude":16.93657,"latitude":52.39996,"popupLines":["24/7"]},{"id":"POZ08A","label":"Stacja paliw BP","address":"Grunwaldzka 108","city":"Poznań","longitude":16.86829,"latitude":52.39659,"popupLines":["24/7"]},{"id":"POZ08M","label":"Przy sklepie spożywczym","address":"Jarosławska 10","city":"Poznań","longitude":16.98649,"latitude":52.34134,"popupLines":["24/7"]},{"id":"POZ08N","label":"Przy zakładzie mięsnym Bystry","address":"os. Lotnictwa Polskiego 9","city":"Poznań","longitude":16.86553,"latitude":52.42284,"popupLines":["24/7"]},{"id":"POZ09B","label":"Parking Galerii Malwowej","address":"Malwowa 162","city":"Poznań","longitude":16.80237,"latitude":52.39692,"popupLines":["24/7"]},{"id":"POZ09M","label":"Przy sklepie Żabka","address":"Błażeja 3","city":"Poznań","longitude":16.94642,"latitude":52.45565,"popupLines":["24/7"]},{"id":"POZ09N","label":"Przy Aptece","address":"Naramowicka 172","city":"Poznań","longitude":16.94824,"latitude":52.45149,"popupLines":["24/7"]},{"id":"POZ100M","label":"Przy wjeździe od ul. Lwowskiej","address":"Baraniaka 88a","city":"Poznań","longitude":16.96423,"latitude":52.40084,"popupLines":["24/7"]},{"id":"POZ101M","label":"parking przy hotelu IBIS","address":"Kazimierza Wielkiego 23","city":"Poznań","longitude":16.94201,"latitude":52.4025,"popupLines":["24/7"]},{"id":"POZ103M","label":"Przy pływalni Atlantis","address":"Os. Stefana Batorego 101","city":"Poznań","longitude":16.92504,"latitude":52.45623,"popupLines":["24/7"]},{"id":"POZ104M","label":"Przy pływalni miejskiej Rataje","address":"Os. Piastowskie 55a","city":"Poznań","longitude":16.94389,"latitude":52.39315,"popupLines":["24/7"]},{"id":"POZ105M","label":"Parking przy basenie Chwiałka","address":"Jana Spychalskiego 34","city":"Poznań","longitude":16.92734,"latitude":52.39469,"popupLines":["24/7"]},{"id":"POZ106M","label":"Przy Lodowisku Chwiałka od strony giełdy kwiatowej","address":"o. Mariana Żelazka 1","city":"Poznań","longitude":16.929,"latitude":52.39172,"popupLines":["24/7"]},{"id":"POZ107M","label":"teren kompleksu garaży","address":"Górczyńska 25","city":"Poznań","longitude":16.88569,"latitude":52.38615,"popupLines":["24/7"]},{"id":"POZ108M","label":"front prywatnej posesji","address":"Ostrobramska 20","city":"Poznań","longitude":16.88198,"latitude":52.38358,"popupLines":["24/7"]},{"id":"POZ109M","label":"Przy Restauracji","address":"Grunwaldzka 248","city":"Poznań","longitude":16.84922,"latitude":52.38798,"popupLines":["24/7"]},{"id":"POZ10A","label":"Przy markecie Biedronka","address":"Książęca 3","city":"Poznań","longitude":16.93105,"latitude":52.36659,"popupLines":["24/7"]},{"id":"POZ10B","label":"Przy sklepie Kaufland","address":"Al. Solidarności 42","city":"Poznań","longitude":16.92752,"latitude":52.43531,"popupLines":["24/7"]},{"id":"POZ10HO","label":"W sklepie FOOD SHOP better hurry","address":"Głogowska 56","city":"Poznań","longitude":16.90168,"latitude":52.39694,"popupLines":["PN-PT 06-20 SB 08-20 ND 10-20"]},{"id":"POZ10M","label":"Na parkingu przy markecie ALDI","address":"Jugosłowiańska 33","city":"Poznań","longitude":16.86683,"latitude":52.39151,"popupLines":["24/7"]},{"id":"POZ10ML","label":"Przy markecie Biedronka","address":"Dolna Wilda 109","city":"Poznań","longitude":16.9222,"latitude":52.3841,"popupLines":["24/7"]},{"id":"POZ10N","label":"Paczkomat umieszczony na bocznej ścianie sklepu","address":"Kwiatkowskiego 55","city":"Poznań","longitude":16.88732,"latitude":52.36757,"popupLines":["24/7"]},{"id":"POZ110M","label":"teren zielony przy kontenerze spożywczym","address":"Babimojska 1","city":"Poznań","longitude":16.85917,"latitude":52.39179,"popupLines":["24/7"]},{"id":"POZ111M","label":"teren prywatnej posesji (od ulicy Grunwaldzkiej)","address":"Małoszyńska 4","city":"Poznań","longitude":16.84249,"latitude":52.3864,"popupLines":["24/7"]},{"id":"POZ112M","label":"Przy Przychodni","address":"Kasprzaka 16","city":"Poznań","longitude":16.8955,"latitude":52.39356,"popupLines":["24/7"]},{"id":"POZ113M","label":"Przy kamienicy","address":"Klonowica 8","city":"Poznań","longitude":16.90035,"latitude":52.39689,"popupLines":["24/7"]},{"id":"POZ115M","label":"W prześwicie budynku","address":"Dąbrowskiego 20/22","city":"Poznań","longitude":16.90951,"latitude":52.41124,"popupLines":["24/7"]},{"id":"POZ116M","label":"Przy Przychodni","address":"Szczepankowo 72","city":"Poznań","longitude":17.01,"latitude":52.36414,"popupLines":["24/7"]},{"id":"POZ117M","label":"Przy drogerii Rossmann","address":"28 Czerwca 1956 r. 310","city":"Poznań","longitude":16.90341,"latitude":52.37161,"popupLines":["24/7"]},{"id":"POZ118M","label":"Na parkingu sklepu Lewiatan","address":"Admiralska 25","city":"Poznań","longitude":16.77234,"latitude":52.47696,"popupLines":["24/7"]},{"id":"POZ119M","label":"teren parkingu samochodowego","address":"Niemcewicza 9","city":"Poznań","longitude":16.88841,"latitude":52.41687,"popupLines":["24/7"]},{"id":"POZ11A","label":"Stacja paliw Shell","address":"Abp.Baraniaka 100","city":"Poznań","longitude":16.96886,"latitude":52.39987,"popupLines":["24/7"]},{"id":"POZ11M","label":"Na parkingu budynku Usługowo-Handlowego","address":"Obornicka 309","city":"Poznań","longitude":16.89715,"latitude":52.45681,"popupLines":["24/7"]},{"id":"POZ11ML","label":"Przy markecie Biedronka","address":"Czecha 73","city":"Poznań","longitude":16.97684,"latitude":52.38627,"popupLines":["24/7"]},{"id":"POZ120M","label":"Przy sklepie Stokrotka","address":"Os. Chrobrego 101","city":"Poznań","longitude":16.91303,"latitude":52.45872,"popupLines":["24/7"]},{"id":"POZ121M","label":"Przy Przychodni","address":"28 czerwca 1956 r. 149","city":"Poznań","longitude":16.91808,"latitude":52.38874,"popupLines":["24/7"]},{"id":"POZ122M","label":"niezabudowana działka przy parkingu (wjazd przez parking salonu BRW)","address":"Serbska 9","city":"Poznań","longitude":16.94761,"latitude":52.43273,"popupLines":["24/7"]},{"id":"POZ124M","label":"Na parkingu","address":"Naramowicka 335","city":"Poznań","longitude":16.94665,"latitude":52.47396,"popupLines":["24/7"]},{"id":"POZ125M","label":"Przy markecie SPAR","address":"Gronowa 18","city":"Poznań","longitude":16.93454,"latitude":52.42956,"popupLines":["24/7"]},{"id":"POZ126M","label":"Parking hotelowy (dla Klientów InPost bezpłatny do 20minut)","address":"Termalna 5","city":"Poznań","longitude":16.97398,"latitude":52.40811,"popupLines":["24/7"]},{"id":"POZ127M","label":"Parking przy Żabce","address":"Strzeszyńska 284","city":"Poznań","longitude":16.8696,"latitude":52.46236,"popupLines":["24/7"]},{"id":"POZ128M","label":"parking od ul. Bosej","address":"Bosa 18","city":"Poznań","longitude":16.88959,"latitude":52.38314,"popupLines":["24/7"]},{"id":"POZ129M","label":"parking Lidla","address":"Zamenhofa 132","city":"Poznań","longitude":16.94344,"latitude":52.38501,"popupLines":["24/7"]},{"id":"POZ12A","label":"Przy Galerii Malta","address":"Maltańska 1","city":"Poznań","longitude":16.96059,"latitude":52.40132,"popupLines":["24/7"]},{"id":"POZ12B","label":"Stacja paliw BP","address":"Dąbrowskiego 543","city":"Poznań","longitude":16.80133,"latitude":52.4337,"popupLines":["24/7"]},{"id":"POZ12M","label":"Przy Cukierni Expresowa","address":"Wilczak 3","city":"Poznań","longitude":16.948786,"latitude":52.428844,"popupLines":["24/7"]},{"id":"POZ12ML","label":"Market Dino","address":"Pszczyńska 40","city":"Poznań","longitude":16.87587,"latitude":52.3698,"popupLines":["24/7"]},{"id":"POZ12N","label":"Przy sklepie spożywczym","address":"Ezopa 2","city":"Poznań","longitude":16.83661,"latitude":52.40884,"popupLines":["24/7"]},{"id":"POZ130M","label":"Na terenie prywatne posesji","address":"Wietrzna 3","city":"Poznań","longitude":16.89978,"latitude":52.46904,"popupLines":["24/7"]},{"id":"POZ131M","label":"teren zielony od ul. św. Antoniego","address":"św. Antoniego 56","city":"Poznań","longitude":16.93503,"latitude":52.36346,"popupLines":["24/7"]},{"id":"POZ132M","label":"W płocie przy posesji prywatnej","address":"Sowice 34","city":"Poznań","longitude":17.02412,"latitude":52.36292,"popupLines":["24/7"]},{"id":"POZ133M","label":"Na parkingu drukarni Prodruk","address":"Sarmacka 7","city":"Poznań","longitude":16.94193,"latitude":52.4453,"popupLines":["24/7"]},{"id":"POZ134M","label":"Obok Pizzerii Raptorius","address":"Rumcajsa 2a","city":"Poznań","longitude":16.83285,"latitude":52.41058,"popupLines":["24/7"]},{"id":"POZ135M","label":"parkin prywatnej posesji","address":"Kamienna 28","city":"Poznań","longitude":16.88784,"latitude":52.37176,"popupLines":["24/7"]},{"id":"POZ136M","label":"przy wjeździe na posesję","address":"Szarotkowa 147","city":"Poznań","longitude":16.80821,"latitude":52.38633,"popupLines":["24/7"]},{"id":"POZ137M","label":"Na parkingu przy sklepie Żabka","address":"Fabianowo 87","city":"Poznań","longitude":16.85529,"latitude":52.36583,"popupLines":["24/7"]},{"id":"POZ138M","label":"Na posesji ul. Jana Henryka Dąbrowskiego 182","address":"Jana Henryka Dąbrowskiego 182","city":"Poznań","longitude":16.8765,"latitude":52.41957,"popupLines":["24/7"]},{"id":"POZ139M","label":"front posesji od ul. Malwowej","address":"Malwowa 91","city":"Poznań","longitude":16.82131,"latitude":52.38572,"popupLines":["24/7"]},{"id":"POZ13A","label":"Przy markecie Chata Polska","address":"Muszkowska 2","city":"Poznań","longitude":16.82706,"latitude":52.43463,"popupLines":["24/7"]},{"id":"POZ13M","label":"Przy Lidlu","address":"Głogowska 228-234","city":"Poznań","longitude":16.87393,"latitude":52.37856,"popupLines":["24/7"]},{"id":"POZ13N","label":"Przy sklepie Żabka","address":"Omańkowskiej 108","city":"Poznań","longitude":16.8958,"latitude":52.45694,"popupLines":["24/7"]},{"id":"POZ140M","label":"na froncie posesji od ul. Smolnej","address":"Smolna 15","city":"Poznań","longitude":16.96771,"latitude":52.42169,"popupLines":["24/7"]},{"id":"POZ141M","label":"niezabudowana działka","address":"Chotomińska 19","city":"Poznań","longitude":16.99724,"latitude":52.36794,"popupLines":["24/7"]},{"id":"POZ143M","label":"Przy wjeździe na posesję","address":"Studzienna 4","city":"Poznań","longitude":16.96486,"latitude":52.42015,"popupLines":["24/7"]},{"id":"POZ144M","label":"Na parkingu przy Akubat System","address":"Rawicka 11","city":"Poznań","longitude":16.87249,"latitude":52.37443,"popupLines":["24/7"]},{"id":"POZ145M","label":"teren prywatnej posesji","address":"Folwarczna 18","city":"Poznań","longitude":17.00623,"latitude":52.39036,"popupLines":["24/7"]},{"id":"POZ146M","label":"na tyłach restauracji od ul. Kostrzyńskiej","address":"Warszawska 133","city":"Poznań","longitude":16.9856,"latitude":52.41014,"popupLines":["24/7"]},{"id":"POZ147M","label":"Przy parkingu","address":"Katowicka 11C","city":"Poznań","longitude":16.9625,"latitude":52.39929,"popupLines":["24/7"]},{"id":"POZ148M","label":"teren prywatnej posesji od ul. Podkomorskiej","address":"Marszałkowska 36","city":"Poznań","longitude":16.86751,"latitude":52.40035,"popupLines":["24/7"]},{"id":"POZ149M","label":"Galeria Podolany","address":"Strzeszyńska 63","city":"Poznań","longitude":16.89379,"latitude":52.44909,"popupLines":["24/7"]},{"id":"POZ14A","label":"Przy markecie Chata Polska","address":"Stróżyńskiego 29","city":"Poznań","longitude":16.90312,"latitude":52.46326,"popupLines":["24/7"]},{"id":"POZ14B","label":"Stacja paliw BP","address":"Czechosłowacka 102","city":"Poznań","longitude":16.89423,"latitude":52.37517,"popupLines":["24/7"]},{"id":"POZ14M","label":"Przy Chacie Polskiej","address":"Chrobrego 119","city":"Poznań","longitude":16.91462,"latitude":52.45026,"popupLines":["24/7"]},{"id":"POZ150M","label":"Przy bloku mieszkalnym Keplera 4a","address":"Keplera 4a","city":"Poznań","longitude":16.86393,"latitude":52.39129,"popupLines":["24/7"]},{"id":"POZ151M","label":"Przy bloku mieszkalnym Newtona 1a","address":"Newtona 1a","city":"Poznań","longitude":16.86514,"latitude":52.38294,"popupLines":["24/7"]},{"id":"POZ152M","label":"Przy osiedlowym parkingu","address":"Palacza 134","city":"Poznań","longitude":16.87139,"latitude":52.39487,"popupLines":["24/7"]},{"id":"POZ154M","label":"Na parkingu przy pizzerii Szybka Pizza","address":"Smardzewska 2","city":"Poznań","longitude":16.85687,"latitude":52.388,"popupLines":["24/7"]},{"id":"POZ155M","label":"Na parkingu przy sklepie Żabka","address":"Opolska 29","city":"Poznań","longitude":16.89837,"latitude":52.36836,"popupLines":["24/7"]},{"id":"POZ156M","label":"Na posesji, róg ulic Kołłątaja i Worcella","address":"Rejewskiego 34","city":"Poznań","longitude":16.88642,"latitude":52.37,"popupLines":["24/7"]},{"id":"POZ157M","label":"Róg ul. Chodzieskiej i Wolińskiej","address":"Chodzieska 11","city":"Poznań","longitude":16.84087,"latitude":52.43293,"popupLines":["24/7"]},{"id":"POZ158M","label":"Róg Sokolnickiej i Strzeszyńskiej","address":"Strzeszyńska 180","city":"Poznań","longitude":16.88076,"latitude":52.45654,"popupLines":["24/7"]},{"id":"POZ159M","label":"Myjnia Piątkowo - paczkomat od strony Jaroczyńskiego","address":"Stróżyńskiego 9","city":"Poznań","longitude":16.90384,"latitude":52.45402,"popupLines":["24/7"]},{"id":"POZ15A","label":"Przy markecie Chata Polska","address":"os. Leśne 21A","city":"Koziegłowy","longitude":16.99347,"latitude":52.44875,"popupLines":["24/7"]},{"id":"POZ15B","label":"Przy Zakładzie Opieki Zdrowotnej","address":"Obornicka 262","city":"Poznań","longitude":16.90797,"latitude":52.44796,"popupLines":["24/7"]},{"id":"POZ15M","label":"przy hurtowni GRACJA","address":"Żytnia 17A","city":"Poznań","longitude":16.94385,"latitude":52.4359,"popupLines":["24/7"]},{"id":"POZ15N","label":"Na parkingu","address":"Szczepankowo 99A","city":"Poznań","longitude":17.01712,"latitude":52.36115,"popupLines":["24/7"]},{"id":"POZ160M","label":"Poznań ul. Bonin 28","address":"Bonin 28","city":"Poznań","longitude":16.90631,"latitude":52.43107,"popupLines":["24/7"]},{"id":"POZ161M","label":"Przy budynku techników SM BLOK","address":"Norwida 17a","city":"Poznań","longitude":16.91284,"latitude":52.41577,"popupLines":["24/7"]},{"id":"POZ162M","label":"ściana szczytowa bloku mieszkalnego","address":"Oświecenia 56","city":"Poznań","longitude":16.95956,"latitude":52.39228,"popupLines":["24/7"]},{"id":"POZ163M","label":"przy markecie Stokrotka","address":"os. Rusa 58","city":"Poznań","longitude":16.98412,"latitude":52.3879,"popupLines":["24/7"]},{"id":"POZ164M","label":"Poznań ul. Kosowska 25/27","address":"Kosowska 25/27","city":"Poznań","longitude":16.8758,"latitude":52.45485,"popupLines":["24/7"]},{"id":"POZ165M","label":"Prywatna posesja na ul. Rubież","address":"Rubież 1","city":"Poznań","longitude":16.9482,"latitude":52.44994,"popupLines":["24/7"]},{"id":"POZ166M","label":"Przy wjeździe na teren Noclegi Kańdulski","address":"Żmigrodzka 52","city":"Poznań","longitude":16.83868,"latitude":52.37872,"popupLines":["24/7"]},{"id":"POZ167M","label":"Na posesji ul. Górnicza 2/134","address":"Górnicza 2/134","city":"Poznań","longitude":16.8714,"latitude":52.3834,"popupLines":["24/7"]},{"id":"POZ168M","label":"parking przy budynku","address":"Obornicka 295","city":"Poznań","longitude":16.8994,"latitude":52.45493,"popupLines":["24/7"]},{"id":"POZ169M","label":"przed domem studenckim","address":"Gąsiorowskich 7","city":"Poznań","longitude":16.90654,"latitude":52.39838,"popupLines":["24/7"]},{"id":"POZ16A","label":"Na parkingu Galerii Dębiec","address":"28 Czerwca 1956 roku 384","city":"Poznań","longitude":16.90322,"latitude":52.36281,"popupLines":["24/7"]},{"id":"POZ16B","label":"Stacja paliw AMIC ENERGY","address":"Warszawska 67","city":"Poznań","longitude":16.9731,"latitude":52.40977,"popupLines":["24/7"]},{"id":"POZ16M","label":"Na parkingu sklepu Lidl","address":"Fabryczna 23","city":"Poznań","longitude":16.90893,"latitude":52.38664,"popupLines":["24/7"]},{"id":"POZ16N","label":"Przy sklepie Freshmarket","address":"Głuszyna 2","city":"Poznań","longitude":16.91823,"latitude":52.34171,"popupLines":["24/7"]},{"id":"POZ170M","label":"teren stacji Shell","address":"Traugutta 1-3","city":"Poznań","longitude":16.91142,"latitude":52.38649,"popupLines":["24/7"]},{"id":"POZ171M","label":"Wasz Sklep Spar Sp. z o.o","address":"Druskienicka 12","city":"Poznań","longitude":16.88909,"latitude":52.44614,"popupLines":["24/7"]},{"id":"POZ172M","label":"teren posesji","address":"Naramowicka 30","city":"Poznań","longitude":16.94724,"latitude":52.42875,"popupLines":["24/7"]},{"id":"POZ173M","label":"Na parkingu za Stokrotką","address":"Osiedle Dębina 105","city":"Poznań","longitude":16.90731,"latitude":52.36264,"popupLines":["24/7"]},{"id":"POZ174M","label":"Stacja benzynowa Circle K","address":"Wojciechowskiego 4","city":"Poznań","longitude":16.91428,"latitude":52.44382,"popupLines":["24/7"]},{"id":"POZ175M","label":"Galeria Arkada","address":"Obornicka 229","city":"Poznań","longitude":16.90777,"latitude":52.44677,"popupLines":["24/7"]},{"id":"POZ176M","label":"Przy parkingu osiedlowym","address":"Osiedle Wichrowe Wzgórze b/n","city":"Poznań","longitude":16.93013,"latitude":52.44214,"popupLines":["24/7"]},{"id":"POZ177M","label":"Na dworcu PKS","address":"Matyi 2","city":"Poznań","longitude":16.91401,"latitude":52.40269,"popupLines":["24/7"]},{"id":"POZ178M","label":"Przy pawilonie handlowym","address":"Murawa 21","city":"Poznań","longitude":16.93571,"latitude":52.42968,"popupLines":["24/7"]},{"id":"POZ17A","label":"Przy PIXEL Allegro","address":"Grunwaldzka 182","city":"Poznań","longitude":16.85788,"latitude":52.39152,"popupLines":["24/7"]},{"id":"POZ17B","label":"Na terenie Business Garden","address":"Kolorowa 2","city":"Poznań","longitude":16.86557,"latitude":52.40583,"popupLines":["24/7"]},{"id":"POZ17M","label":"Przy sklepie Chata Polska","address":"Wojska Polskiego 6/8","city":"Poznań","longitude":16.90844,"latitude":52.42472,"popupLines":["24/7"]},{"id":"POZ17N","label":"Przy sklepie Carrefour","address":"Nowogrodzka 13/15","city":"Poznań","longitude":16.98522,"latitude":52.4088,"popupLines":["24/7"]},{"id":"POZ181M","label":"Przy pawilonie handlowym","address":"Os. Zwycięstwa 109","city":"Poznań","longitude":16.92316,"latitude":52.4385,"popupLines":["24/7"]},{"id":"POZ182M","label":"parking przed budynkiem","address":"Robocza 4A","city":"Poznań","longitude":16.91651,"latitude":52.39459,"popupLines":["24/7"]},{"id":"POZ183M","label":"Przy Przychodni","address":"Chrobrego 118","city":"Poznań","longitude":16.91545,"latitude":52.44943,"popupLines":["24/7"]},{"id":"POZ184M","label":"Przy stacji Circle K","address":"Szymanowskiego 13","city":"Poznań","longitude":16.9068,"latitude":52.45987,"popupLines":["24/7"]},{"id":"POZ185M","label":"Za restauracją Ratajska","address":"Os. Czecha 5a","city":"Poznań","longitude":16.97709,"latitude":52.38272,"popupLines":["24/7"]},{"id":"POZ186M","label":"Przy Ninja Pizza","address":"Jaroczyńskiego 37A","city":"Poznań","longitude":16.90643,"latitude":52.4536,"popupLines":["24/7"]},{"id":"POZ187M","label":"Przed wjazdem na posesję","address":"28 Czerwca 1956r. 323","city":"Poznań","longitude":16.90367,"latitude":52.37019,"popupLines":["24/7"]},{"id":"POZ188M","label":"Na posesji ul. Krośnieńska 1c","address":"Krośnieńska 1c","city":"Poznań","longitude":16.85978,"latitude":52.3846,"popupLines":["24/7"]},{"id":"POZ18A","label":"Przy markecie Kaufland","address":"Opieńskiego 1","city":"Poznań","longitude":16.92039,"latitude":52.46095,"popupLines":["24/7"]},{"id":"POZ18B","label":"Przy sklepie Społem","address":"Czechosłowacka 53A","city":"Poznań","longitude":16.90052,"latitude":52.37,"popupLines":["24/7"]},{"id":"POZ18M","label":"Przy budynku usługowo-handlowym","address":"Piątkowska 105","city":"Poznań","longitude":16.91506,"latitude":52.43036,"popupLines":["24/7"]},{"id":"POZ18N","label":"Przy sklepie Chata Polska","address":"Naramowicka 234","city":"Poznań","longitude":16.9478,"latitude":52.46132,"popupLines":["24/7"]},{"id":"POZ190M","label":"Przy Siedzibie ZKZL","address":"Ognik 20a","city":"Poznań","longitude":16.86984,"latitude":52.40683,"popupLines":["24/7"]},{"id":"POZ191M","label":"Przy obiekcie handlowo-usługowym","address":"Os. Władysława Łokietka 102","city":"Poznań","longitude":16.9411,"latitude":52.44919,"popupLines":["24/7"]},{"id":"POZ192M","label":"Przy Przedszkolu","address":"Łagodna 4","city":"Poznań","longitude":16.95043,"latitude":52.46907,"popupLines":["24/7"]},{"id":"POZ193M","label":"Przy bloku mieszkalnym ul. Podolańska 44","address":"Podolańska 44","city":"Poznań","longitude":16.888417,"latitude":52.43622,"popupLines":["24/7"]},{"id":"POZ198M","label":"parking samochodowy","address":"Nad Wierzbakiem 28","city":"Poznań","longitude":16.909491,"latitude":52.422705,"popupLines":["24/7"]},{"id":"POZ19A","label":"Przy sklepie Biedronka","address":"Naramowicka 104","city":"Poznań","longitude":16.94853,"latitude":52.43916,"popupLines":["24/7"]},{"id":"POZ19M","label":"Przy sklepie Lidl","address":"Bobrzańska 19","city":"Poznań","longitude":16.97237,"latitude":52.3831,"popupLines":["24/7"]},{"id":"POZ19N","label":"Przy Galerii A2","address":"Głogowska 440","city":"Poznań","longitude":16.84078,"latitude":52.35383,"popupLines":["24/7"]},{"id":"POZ20A","label":"Parking Apteki Krzyżowniki","address":"Sianowska 151A","city":"Poznań","longitude":16.8095,"latitude":52.43495,"popupLines":["24/7"]},{"id":"POZ20M","label":"Na parkingu sklepu Lidl","address":"28 Czerwca 1956 r. 418","city":"Poznań","longitude":16.90368,"latitude":52.35771,"popupLines":["24/7"]},{"id":"POZ21A","label":"W pobliżu marketu Biedronka","address":"Bogusławskiego 16","city":"Suchy Las","longitude":16.87917,"latitude":52.47441,"popupLines":["24/7"]},{"id":"POZ21M","label":"Na Parkingu przy markecie Lidl","address":"Ku Cytadeli 2","city":"Poznań","longitude":16.9343,"latitude":52.41521,"popupLines":["24/7"]},{"id":"POZ21N","label":"Przy sklepie Green Point","address":"Hetmańska 91","city":"Poznań","longitude":16.912,"latitude":52.38663,"popupLines":["24/7"]},{"id":"POZ22A","label":"Stacja paliw BP","address":"Przybyszewskiego 39A","city":"Poznań","longitude":16.88914,"latitude":52.40656,"popupLines":["24/7"]},{"id":"POZ22M","label":"Parking Lidla","address":"Bułgarska 113","city":"Poznań","longitude":16.86759,"latitude":52.40884,"popupLines":["24/7"]},{"id":"POZ22N","label":"Przy sklepie Społem PSS","address":"Os. Oświecenia 59","city":"Poznań","longitude":16.95897,"latitude":52.39017,"popupLines":["24/7"]},{"id":"POZ23A","label":"Stacja paliw BP","address":"RONDO RATAJE","city":"Poznań","longitude":16.94844,"latitude":52.39657,"popupLines":["24/7"]},{"id":"POZ23N","label":"Przy Centrum Handlowym Świerczewo","address":"Leszczyńska 3","city":"Poznań","longitude":16.88109,"latitude":52.37751,"popupLines":["24/7"]},{"id":"POZ24M","label":"Przy sklepie Aldi","address":"Umultowska 67","city":"Poznań","longitude":16.92726,"latitude":52.45904,"popupLines":["24/7"]},{"id":"POZ25A","label":"Przy sklepie Tesco EXTRA 24H","address":"Serbska 7","city":"Poznań","longitude":16.951546,"latitude":52.433808,"popupLines":["24/7"]},{"id":"POZ25M","label":"Przy parkingu sklepu Lidl","address":"Wilkońskich 1","city":"Poznań","longitude":16.89019,"latitude":52.41695,"popupLines":["24/7"]},{"id":"POZ25N","label":"Na parkingu przy budynku mieszkalnym","address":"Aleksandra Gabszewicza 6","city":"Poznań","longitude":16.96651,"latitude":52.31251,"popupLines":["24/7"]},{"id":"POZ26A","label":"Stacja paliw BP","address":"Bałtycka 37","city":"Poznań","longitude":16.97776,"latitude":52.42669,"popupLines":["24/7"]},{"id":"POZ26M","label":"Na terenie zielonym przy ulicy Raszyńskej 4","address":"Raszyńska 4","city":"Poznań","longitude":16.87518,"latitude":52.38919,"popupLines":["24/7"]},{"id":"POZ26N","label":"Przy markecie Biedronka","address":"Czecha 111","city":"Poznań","longitude":16.98295,"latitude":52.38662,"popupLines":["24/7"]},{"id":"POZ27A","label":"Stacja paliw BP","address":"Serbska 24","city":"Poznań","longitude":16.94669,"latitude":52.431,"popupLines":["24/7"]},{"id":"POZ27M","label":"Na terenie Spółdzielni Mieszkaniowej","address":"Bonin","city":"Poznań","longitude":16.90768,"latitude":52.43075,"popupLines":["24/7"]},{"id":"POZ27N","label":"Przy wejściu do Galerii od ulicy Łubieńskiej","address":"Bukowska 156","city":"Poznań","longitude":16.86388,"latitude":52.41155,"popupLines":["24/7"]},{"id":"POZ28A","label":"Przy markecie E.Leclerc","address":"Winklera 1","city":"Poznań","longitude":16.89106,"latitude":52.38777,"popupLines":["24/7"]},{"id":"POZ28N","label":"Przy markecie Eurospar","address":"Promienista 160","city":"Poznań","longitude":16.86405,"latitude":52.38652,"popupLines":["24/7"]},{"id":"POZ29A","label":"Hol główny dworca PKP - Poznań","address":"Dworcowa 1","city":"Poznań","longitude":16.91328,"latitude":52.4025,"popupLines":["24/7"]},{"id":"POZ29M","label":"Przy budynku obok parkingu sklepu Lidl","address":"Obornicka 282-284","city":"Poznań","longitude":16.90632,"latitude":52.45107,"popupLines":["24/7"]},{"id":"POZ29N","label":"Przy wejściu głównym do budynku","address":"Szamarzewskiego 89","city":"Poznań","longitude":16.88468,"latitude":52.41363,"popupLines":["24/7"]},{"id":"POZ30M","label":"Przy sklepie Lidl, od strony stacji paliw Orlen","address":"Piątkowska 64","city":"Poznań","longitude":16.91841,"latitude":52.42542,"popupLines":["24/7"]},{"id":"POZ30N","label":"Przy domach studenckich","address":"Piątkowska 80","city":"Poznań","longitude":16.91721,"latitude":52.42844,"popupLines":["24/7"]},{"id":"POZ31A","label":"Stacja paliw BP","address":"Umultowska 2","city":"Poznań","longitude":16.92987,"latitude":52.44375,"popupLines":["24/7"]},{"id":"POZ31M","label":"Na parkingu sklepu Lidl","address":"Dymka 212","city":"Poznań","longitude":16.99484,"latitude":52.39327,"popupLines":["24/7"]},{"id":"POZ32A","label":"Stacja paliw BP","address":"Mieszka I 28","city":"Poznań","longitude":16.92134,"latitude":52.43871,"popupLines":["24/7"]},{"id":"POZ32M","label":"Na parkingu sklepu Lidl","address":"Piłsudskiego 116","city":"Poznań","longitude":16.9602,"latitude":52.38636,"popupLines":["24/7"]},{"id":"POZ32N","label":"Parking przy UAM","address":"Krygowskiego 10","city":"Poznań","longitude":16.94085,"latitude":52.46279,"popupLines":["24/7"]},{"id":"POZ33A","label":"Przy lokalu wolnostojącym Sprzedaż okien","address":"os. Zwycięstwa 13","city":"Poznań","longitude":16.92954,"latitude":52.436,"popupLines":["24/7"]},{"id":"POZ33M","label":"Przy sklepie Lidl","address":"Ostrowska 340","city":"Poznań","longitude":16.99312,"latitude":52.36693,"popupLines":["24/7"]},{"id":"POZ33N","label":"Przy Wydziale Fizyki Uniwersytetu im. Adama Mickiewicza","address":"Umultowska 85","city":"Poznań","longitude":16.92875,"latitude":52.46686,"popupLines":["24/7"]},{"id":"POZ34A","label":"Stacja paliw BP","address":"Kurlandzka 2","city":"Poznań","longitude":16.95758,"latitude":52.37651,"popupLines":["24/7"]},{"id":"POZ34M","label":"Na parkingu przy sklepie Lidl","address":"Starołęcka 109B","city":"Poznań","longitude":16.92463,"latitude":52.3579,"popupLines":["24/7"]},{"id":"POZ34N","label":"Przy markecie Biedronka","address":"Piaskowa 2/3","city":"Poznań","longitude":16.93984,"latitude":52.41111,"popupLines":["24/7"]},{"id":"POZ35A","label":"CH Posnania, poziom -1, parking różowy, przy słupie A03, wejście -1A, pod ruchomymi schodami","address":"Pleszewska 1","city":"Poznań","longitude":16.95471,"latitude":52.39832,"popupLines":["PN-SB 10-22 ND 10-21"]},{"id":"POZ35M","label":"Przy sklepie spożywczym","address":"Fabianowo 12","city":"Poznań","longitude":16.84585,"latitude":52.36865,"popupLines":["24/7"]},{"id":"POZ35N","label":"Przy Centrum Handlowym Panorama","address":"Górecka 30","city":"Poznań","longitude":16.89644,"latitude":52.38183,"popupLines":["24/7"]},{"id":"POZ36A","label":"Stacja paliw BP","address":"Hetmańska 98","city":"Poznań","longitude":16.91583,"latitude":52.38421,"popupLines":["24/7"]},{"id":"POZ36M","label":"Przy parkingu sklepu Lidl","address":"Wejherowska 4","city":"Poznań","longitude":16.82427,"latitude":52.43125,"popupLines":["24/7"]},{"id":"POZ36N","label":"Przy Domu Studenckim Jowita","address":"Zwierzyniecka 7","city":"Poznań","longitude":16.90812,"latitude":52.40768,"popupLines":["24/7"]},{"id":"POZ37M","label":"Na parkingu sklepu Lidl","address":"Szarych Szeregów 42","city":"Poznań","longitude":16.88449,"latitude":52.45989,"popupLines":["24/7"]},{"id":"POZ38A","label":"Przy prywatnej posesji","address":"Główna 65","city":"Poznań","longitude":16.97537,"latitude":52.42237,"popupLines":["24/7"]},{"id":"POZ38M","label":"Na parkingu za sklepem Lidl, od strony CH Plaza","address":"Księcia Mieszka I 38","city":"Poznań","longitude":16.92115,"latitude":52.4439,"popupLines":["24/7"]},{"id":"POZ38N","label":"Przy Uniwersytecie im. Adama Mickiewicza - Wydział Prawa i Administracji","address":"Al. Niepodległości 53","city":"Poznań","longitude":16.92467,"latitude":52.41522,"popupLines":["24/7"]},{"id":"POZ393","label":"Przy markecie Netto","address":"os. Stare Żegrze 109","city":"Poznań","longitude":16.96673,"latitude":52.38357,"popupLines":["24/7"]},{"id":"POZ39A","label":"Przy sklepie Stokrotka","address":"Jastrzębia 4","city":"Poznań","longitude":16.94989,"latitude":52.38854,"popupLines":["24/7"]},{"id":"POZ39M","label":"Na parkingu sklepu Lidl","address":"Główna 28","city":"Poznań","longitude":16.96869,"latitude":52.41975,"popupLines":["24/7"]},{"id":"POZ39N","label":"Przy Auto Serwisie","address":"Obornicka 288","city":"Poznań","longitude":16.90415,"latitude":52.45186,"popupLines":["24/7"]},{"id":"POZ406","label":"Stacja paliw BP","address":"RONDO OBORNICKIE","city":"Poznań","longitude":16.91032,"latitude":52.44339,"popupLines":["24/7"]},{"id":"POZ40A","label":"Przy sklepie Lidl","address":"Palacza 18","city":"Poznań","longitude":16.88857,"latitude":52.38821,"popupLines":["24/7"]},{"id":"POZ40M","label":"Przy sklepie Lewiatan","address":"Palacza 30/34","city":"Poznań","longitude":16.8851,"latitude":52.38826,"popupLines":["24/7"]},{"id":"POZ40N","label":"Przy bloku mieszkalnym","address":"Szarych Szeregów 24","city":"Poznań","longitude":16.88223,"latitude":52.45853,"popupLines":["24/7"]},{"id":"POZ412","label":"Przy markecie M1","address":"Szwajcarska 14","city":"Poznań","longitude":16.99457,"latitude":52.38252,"popupLines":["24/7"]},{"id":"POZ41M","label":"Parking przy sklepie Lidl","address":"Kościelna 40","city":"Poznań","longitude":16.90832,"latitude":52.41565,"popupLines":["24/7"]},{"id":"POZ41N","label":"Przy sklepie Wielkie Wina","address":"Olsztyńska 2","city":"Poznań","longitude":16.83779,"latitude":52.43203,"popupLines":["24/7"]},{"id":"POZ42A","label":"Przy sklepie Lidl","address":"Grunwaldzka 533-541","city":"Plewiska","longitude":16.81028,"latitude":52.36748,"popupLines":["24/7"]},{"id":"POZ42M","label":"parking Lidla","address":"Naramowicka 142","city":"Poznań","longitude":16.94804,"latitude":52.44276,"popupLines":["24/7"]},{"id":"POZ42N","label":"Przy sklepie Stokrotka","address":"Leszka 13","city":"Poznań","longitude":17.02434,"latitude":52.40776,"popupLines":["24/7"]},{"id":"POZ43A","label":"Przy sklepie Społem","address":"Podkomorska 2","city":"Poznań","longitude":16.86574,"latitude":52.39769,"popupLines":["24/7"]},{"id":"POZ43M","label":"Niezabudowana posesja od strony ul. Skalskiego","address":"Przelot 39","city":"Poznań","longitude":16.85681,"latitude":52.42255,"popupLines":["24/7"]},{"id":"POZ43N","label":"Przy parkingu strzeżonym","address":"Obrzyca 7","city":"Poznań","longitude":16.9463,"latitude":52.39064,"popupLines":["24/7"]},{"id":"POZ44A","label":"parking za budynkiem usługowym","address":"Grochowska 56","city":"Poznań","longitude":16.87616,"latitude":52.4021,"popupLines":["24/7"]},{"id":"POZ44M","label":"Przy Pasażu Handlowym","address":"os. Jagiellońskie 121b 121B","city":"Poznań","longitude":16.95252,"latitude":52.39116,"popupLines":["24/7"]},{"id":"POZ45A","label":"Przy Aptece","address":"os. Stare Żegrze 110A","city":"Poznań","longitude":16.96734,"latitude":52.38358,"popupLines":["24/7"]},{"id":"POZ45M","label":"Przy Żabce","address":"Pawia 16","city":"Poznań","longitude":16.94562,"latitude":52.38082,"popupLines":["24/7"]},{"id":"POZ45N","label":"Przy sklepie Społem","address":"Grunwaldzka 279","city":"Poznań","longitude":16.84408,"latitude":52.38684,"popupLines":["24/7"]},{"id":"POZ46A","label":"Po lewej stronie od wejścia do sklepu","address":"Ożarowska 2","city":"Poznań","longitude":16.94291,"latitude":52.35502,"popupLines":["24/7"]},{"id":"POZ46M","label":"Teren zielony przed sklepem Stokrotka","address":"Langiewicza 23","city":"Poznań","longitude":16.91703,"latitude":52.38762,"popupLines":["24/7"]},{"id":"POZ46N","label":"Na parkingu","address":"Piekary 1","city":"Poznań","longitude":16.92761,"latitude":52.40565,"popupLines":["24/7"]},{"id":"POZ47A","label":"Na stacji paliw Circle K","address":"Bobrzańska 21","city":"Poznań","longitude":16.97356,"latitude":52.3822,"popupLines":["24/7"]},{"id":"POZ47N","label":"Myjnia samochodowa F1 CarWash","address":"Złotowska 6-8","city":"Poznań","longitude":16.83205,"latitude":52.41251,"popupLines":["24/7"]},{"id":"POZ48M","label":"Na Terenie firmy |Ferrodo| od strony ul. Biskupińskiej","address":"Zakopiańska 239","city":"Poznań","longitude":16.86607,"latitude":52.46158,"popupLines":["24/7"]},{"id":"POZ48N","label":"Na tyłach stacji paliw Circle K","address":"Chartowo 21","city":"Poznań","longitude":16.98113,"latitude":52.39171,"popupLines":["24/7"]},{"id":"POZ49A","label":"Przy sklepie Lidl","address":"Grunwaldzka 104","city":"Poznań","longitude":16.87005,"latitude":52.39646,"popupLines":["24/7"]},{"id":"POZ49M","label":"Przy Hotelu Dorrian","address":"Stanisława Wyspiańskiego 29","city":"Poznań","longitude":16.89319,"latitude":52.3991,"popupLines":["24/7"]},{"id":"POZ49N","label":"Na parkingu przy sklepie Biedronka","address":"Starołęcka 1","city":"Poznań","longitude":16.94333,"latitude":52.37852,"popupLines":["24/7"]},{"id":"POZ50A","label":"Na parkingu przy sklepie Lidl","address":"Szymanowskiego 13","city":"Poznań","longitude":16.90852,"latitude":52.45954,"popupLines":["24/7"]},{"id":"POZ50M","label":"Teren zielony przy pawilonie handlowym","address":"Gminna 3","city":"Poznań","longitude":17.02659,"latitude":52.35066,"popupLines":["24/7"]},{"id":"POZ50N","label":"Na parkingu naziemnym przy Galerii Pestka","address":"Aleje Solidarności 47","city":"Poznań","longitude":16.91799,"latitude":52.43718,"popupLines":["24/7"]},{"id":"POZ51A","label":"Na terenie myjni samoobsługowej","address":"Kacza 15","city":"Poznań","longitude":16.86187,"latitude":52.38195,"popupLines":["24/7"]},{"id":"POZ51M","label":"Przy sklepie Lewiatan","address":"Winiary 54","city":"Poznań","longitude":16.91072,"latitude":52.43358,"popupLines":["24/7"]},{"id":"POZ51N","label":"Przy supermarkecie Intermarche po prawej stronie","address":"Umultowska 32","city":"Poznań","longitude":16.9293,"latitude":52.4518,"popupLines":["24/7"]},{"id":"POZ52A","label":"Niezabudowana działka od strony ul. Wachowiaka","address":"Wachowiaka 15","city":"Poznań","longitude":16.92319,"latitude":52.44873,"popupLines":["24/7"]},{"id":"POZ52M","label":"Parking przy sklepie Społem","address":"Andrychowska 27","city":"Poznań","longitude":16.92407,"latitude":52.34159,"popupLines":["24/7"]},{"id":"POZ52N","label":"przy parkingu","address":"Rabczańska 1","city":"Poznań","longitude":16.88434,"latitude":52.44512,"popupLines":["24/7"]},{"id":"POZ53M","label":"Skrzyżowanie ulic Morasko/Hodowlana","address":"Morasko","city":"Poznań","longitude":16.90519,"latitude":52.47561,"popupLines":["24/7"]},{"id":"POZ53N","label":"Przy sklepie Społem","address":"Lelewela 8","city":"Poznań","longitude":16.88573,"latitude":52.36009,"popupLines":["24/7"]},{"id":"POZ54A","label":"przy budynku usługowym","address":"Stanisława Zwierzchowskiego 7","city":"Poznań","longitude":16.97337,"latitude":52.377,"popupLines":["24/7"]},{"id":"POZ54M","label":"wzdłuż bocznej ściany budynku","address":"Szamarzewskiego 53","city":"Poznań","longitude":16.89363,"latitude":52.41193,"popupLines":["24/7"]},{"id":"POZ54N","label":"Przy prywatnej posesji","address":"Skwierzyńska 1","city":"Poznań","longitude":16.93595,"latitude":52.44628,"popupLines":["24/7"]},{"id":"POZ55M","label":"Teren zielony przed blokIem","address":"Dolina 11","city":"Poznań","longitude":16.92434,"latitude":52.39291,"popupLines":["24/7"]},{"id":"POZ56M","label":"Przy Sklepie spożywczo-monopolowym","address":"os. Armii Krajowej 94A","city":"Poznań","longitude":16.95071,"latitude":52.38137,"popupLines":["24/7"]},{"id":"POZ56N","label":"Przy sklepie Ecomark","address":"Rzeszowska 2","city":"Poznań","longitude":16.85046,"latitude":52.45345,"popupLines":["24/7"]},{"id":"POZ57M","label":"Przy budynku administarcji osiedla","address":"os. Przemysława 21","city":"Poznań","longitude":17.00318,"latitude":52.38794,"popupLines":["24/7"]},{"id":"POZ58M","label":"Stacja paliw Lotos","address":"Chociszewskiego 49","city":"Poznań","longitude":16.88521,"latitude":52.39392,"popupLines":["24/7"]},{"id":"POZ59M","label":"Teren zielony przed budynkiem","address":"Bogusławskiego 31","city":"Poznań","longitude":16.89302,"latitude":52.39199,"popupLines":["24/7"]},{"id":"POZ59N","label":"Przy Delikatesach Szymex","address":"Wspólna 32","city":"Poznań","longitude":16.90985,"latitude":52.37706,"popupLines":["24/7"]},{"id":"POZ60M","label":"Parking przy skrzyżowaniu ulic Poznańska i Wąska","address":"Poznańska 11-17","city":"Poznań","longitude":16.90596,"latitude":52.41388,"popupLines":["24/7"]},{"id":"POZ60N","label":"na parkingu za centrum handlowym","address":"Łukaszewicza 43","city":"Poznań","longitude":16.90326,"latitude":52.3899,"popupLines":["24/7"]},{"id":"POZ61M","label":"Przy Aptece GEMINI","address":"Os. Wichrowe Wzgórze 105","city":"Poznań","longitude":16.93995,"latitude":52.43837,"popupLines":["24/7"]},{"id":"POZ62M","label":"Przy budynku produkcyjnym","address":"Ostrówek 8","city":"Poznań","longitude":16.95225,"latitude":52.4116,"popupLines":["24/7"]},{"id":"POZ62N","label":"Parking samochodowy","address":"Strzałowa 6","city":"Poznań","longitude":16.93131,"latitude":52.40314,"popupLines":["24/7"]},{"id":"POZ63M","label":"Pensjonat Akropol od ul. Wegiliusza","address":"Teokryta 34","city":"Poznań","longitude":16.88082,"latitude":52.44471,"popupLines":["24/7"]},{"id":"POZ63N","label":"Na stacji paliw Poztel","address":"Wołczyńska 50","city":"Poznań","longitude":16.82821,"latitude":52.37623,"popupLines":["24/7"]},{"id":"POZ64M","label":"Niezabudowana działka przy pawilonie handlowym","address":"Kórnicka 28","city":"Poznań","longitude":16.95141,"latitude":52.39949,"popupLines":["24/7"]},{"id":"POZ65M","label":"Na parkingu samochodowym","address":"Sokoła 5a","city":"Poznań","longitude":16.91208,"latitude":52.4244,"popupLines":["24/7"]},{"id":"POZ65N","label":"Przy sklepie Społem","address":"Główna 35","city":"Poznań","longitude":16.96966,"latitude":52.42099,"popupLines":["24/7"]},{"id":"POZ66M","label":"Przy Administracji Osiedla","address":"Os. Przyjaźni 142","city":"Poznań","longitude":16.92128,"latitude":52.4298,"popupLines":["24/7"]},{"id":"POZ66N","label":"Na parkingu sklepu Zaopatrzenie Ogrodnicze","address":"Franowo 1","city":"Poznań","longitude":16.98376,"latitude":52.37739,"popupLines":["24/7"]},{"id":"POZ67M","label":"Paczkomat umieszczony wzdłuż chodnika, na pasie zieleni","address":"Zorza 3","city":"Poznań","longitude":16.87953,"latitude":52.40693,"popupLines":["24/7"]},{"id":"POZ67N","label":"Teren zielony przed budynkiem nr 4","address":"Falista 4","city":"Poznań","longitude":16.94816,"latitude":52.36998,"popupLines":["24/7"]},{"id":"POZ68M","label":"Parking przy budynku usługowo-handlowym","address":"Ławica 2","city":"Poznań","longitude":16.82367,"latitude":52.41004,"popupLines":["24/7"]},{"id":"POZ68N","label":"Przy sklepie Duży Ben od strony ul. Połabskiej","address":"Os. Wichrowe Wzgórze 121","city":"Poznań","longitude":16.9312,"latitude":52.43919,"popupLines":["24/7"]},{"id":"POZ69M","label":"Parking warsztatu samochodowego","address":"28 Czerwca 1956 r. 283","city":"Poznań","longitude":16.90557,"latitude":52.37507,"popupLines":["24/7"]},{"id":"POZ69N","label":"Przy Centrum Fitness","address":"Budziszyńska 23/27","city":"Poznań","longitude":16.84568,"latitude":52.38953,"popupLines":["24/7"]},{"id":"POZ70M","label":"Przy posesji","address":"Murawa 26a","city":"Poznań","longitude":16.93646,"latitude":52.42925,"popupLines":["24/7"]},{"id":"POZ70N","label":"niezabudowana działka od ul. Polanka","address":"Polanka 13","city":"Poznań","longitude":16.95772,"latitude":52.39979,"popupLines":["24/7"]},{"id":"POZ71M","label":"Przy sklepie Żabka","address":"Łozowa 101","city":"Poznań","longitude":16.90705,"latitude":52.36298,"popupLines":["24/7"]},{"id":"POZ72M","label":"Przy punkcie ksero","address":"Wołyńska 42","city":"Poznań","longitude":16.90768,"latitude":52.42793,"popupLines":["24/7"]},{"id":"POZ73M","label":"Market Dino","address":"Starołęcka 219","city":"Poznań","longitude":16.91869,"latitude":52.34413,"popupLines":["24/7"]},{"id":"POZ74M","label":"Przy supermarkecie","address":"Chojnicka 72/74","city":"Poznań","longitude":16.7823,"latitude":52.4784,"popupLines":["24/7"]},{"id":"POZ76M","label":"Stacja paliw Lotos","address":"Al.Solidarności 48","city":"Poznań","longitude":16.92341,"latitude":52.43533,"popupLines":["24/7"]},{"id":"POZ77M","label":"Przy wypożyczalni Ramirent","address":"Głogowska 267","city":"Poznań","longitude":16.8689,"latitude":52.37391,"popupLines":["24/7"]},{"id":"POZ78M","label":"Ściana frontowa ALDI","address":"Bobrzańska 11","city":"Poznań","longitude":16.96803,"latitude":52.38698,"popupLines":["24/7"]},{"id":"POZ79M","label":"Pod schodami od ulicy Kościuszki","address":"Andersa 1","city":"Poznań","longitude":16.92485,"latitude":52.40189,"popupLines":["24/7"]},{"id":"POZ80M","label":"Trawnik przy bloku mieszkalnym","address":"Junacka 2","city":"Poznań","longitude":16.86799,"latitude":52.39046,"popupLines":["24/7"]},{"id":"POZ81M","label":"Przy biurowcu","address":"Jugosłowiańska 22","city":"Poznań","longitude":16.86334,"latitude":52.39398,"popupLines":["24/7"]},{"id":"POZ82M","label":"Przy wjeździe na posesję","address":"Śniadeckich 40","city":"Poznań","longitude":16.90296,"latitude":52.40274,"popupLines":["24/7"]},{"id":"POZ84M","label":"Parking samochodowy","address":"Piątkowska 149","city":"Poznań","longitude":16.91244,"latitude":52.43502,"popupLines":["24/7"]},{"id":"POZ85M","label":"Parking przed Mleczarnią Naramowice","address":"Karpia 31","city":"Poznań","longitude":16.96133,"latitude":52.44456,"popupLines":["24/7"]},{"id":"POZ86M","label":"Przy pasażu handlowym","address":"Os. Przyjaźni 125A","city":"Poznań","longitude":16.9295,"latitude":52.43086,"popupLines":["24/7"]},{"id":"POZ87M","label":"Przy stacji paliwowej Shell","address":"Obornicka 337","city":"Poznań","longitude":16.89308,"latitude":52.45994,"popupLines":["24/7"]},{"id":"POZ88M","label":"Za Apteką Wrzosowa, od strony ul. Turkusowej","address":"Błękitna 1-7","city":"Poznań","longitude":16.90425,"latitude":52.43051,"popupLines":["24/7"]},{"id":"POZ89M","label":"Przy sklepie Społem","address":"Okulickiego 68","city":"Poznań","longitude":16.88337,"latitude":52.36383,"popupLines":["24/7"]},{"id":"POZ90M","label":"Parking przed kościołem","address":"Warzywna 17","city":"Poznań","longitude":16.92875,"latitude":52.42789,"popupLines":["24/7"]},{"id":"POZ91M","label":"Prywatna posesja od ul. Kasprzaka","address":"Hetmańska 42","city":"Poznań","longitude":16.89277,"latitude":52.39031,"popupLines":["24/7"]},{"id":"POZ92M","label":"Na parkingu myjni Banieczka","address":"Dmowskiego 105","city":"Poznań","longitude":16.89415,"latitude":52.38378,"popupLines":["24/7"]},{"id":"POZ93M","label":"Kompleks garaży od ulicy Kordeckiego","address":"Kordeckiego 8A","city":"Poznań","longitude":16.88136,"latitude":52.38655,"popupLines":["24/7"]},{"id":"POZ94M","label":"Przy parkingu samochodowym","address":"Mickiewicza 11","city":"Poznań","longitude":16.9114,"latitude":52.41198,"popupLines":["24/7"]},{"id":"POZ95M","label":"teren zielony przy bloku mieszkalnym ul. Czeremchowa 2","address":"Czechosłowacka 98","city":"Poznań","longitude":16.89493,"latitude":52.37349,"popupLines":["24/7"]},{"id":"POZ96M","label":"na tyłach posesji od strony stacji paliw Orlen","address":"Stróżyńskiego 19","city":"Poznań","longitude":16.90322,"latitude":52.45744,"popupLines":["24/7"]},{"id":"POZ97M","label":"Parking hotelowy od ulicy Zwierzynieckiej","address":"Roosevelta 20","city":"Poznań","longitude":16.91081,"latitude":52.4085,"popupLines":["24/7"]},{"id":"POZ989","label":"Przy Delikatesach Centrum","address":"Osiedle Armii Krajowej 125","city":"Poznań","longitude":16.9539,"latitude":52.37917,"popupLines":["24/7"]},{"id":"POZ98M","label":"Przy biurowcu","address":"Kargowska 7","city":"Poznań","longitude":16.87628,"latitude":52.39088,"popupLines":["24/7"]},{"id":"POZ99M","label":"Przy boisku Szkoły Podstawowej","address":"Druskienicka 32","city":"Poznań","longitude":16.88774,"latitude":52.45118,"popupLines":["24/7"]},{"id":"PRM01A","label":"Przy pasażu Przeźmierowo","address":"Rynkowa 75 C","city":"Przeźmierowo","longitude":16.78612,"latitude":52.42612,"popupLines":["24/7"]},{"id":"PRM01M","label":"Na parkingu Sklepu Rowerowego Małgośka","address":"Rynkowa 26","city":"Przeźmierowo","longitude":16.78173,"latitude":52.43289,"popupLines":["24/7"]},{"id":"PRM02M","label":"Na parkingu - Rzeczoznawcy SIM-TECH","address":"Rzemieślnicza 31","city":"Przeźmierowo","longitude":16.79444,"latitude":52.42022,"popupLines":["24/7"]},{"id":"PRM03M","label":"Przy parkingu posesji","address":"Kościelna 16","city":"Przeźmierowo","longitude":16.79105,"latitude":52.42682,"popupLines":["24/7"]},{"id":"PUS01A","label":"Przy sklepie Żabka","address":"Poznańska 46B","city":"Puszczykowo","longitude":16.85886,"latitude":52.29005,"popupLines":["24/7"]},{"id":"PUS01M","label":"Na parkingu przy sklepie Stokrotka","address":"Moniuszki 1A","city":"Puszczykowo","longitude":16.86251,"latitude":52.27102,"popupLines":["24/7"]},{"id":"PUS01N","label":"Przy sklepie Społem PSS","address":"Dworcowa 45","city":"Puszczykowo","longitude":16.85965,"latitude":52.27244,"popupLines":["24/7"]},{"id":"PUS02M","label":"Na ścianie frontowej sklepu","address":"Piaskowa 28a","city":"Puszczykowo","longitude":16.85356,"latitude":52.27831,"popupLines":["24/7"]},{"id":"PUS03M","label":"Przy prywatnej posesji, od ulicy Studziennej","address":"Gołebia 2","city":"Puszczykowo","longitude":16.84819,"latitude":52.28656,"popupLines":["24/7"]},{"id":"PUS04M","label":"Przy sklepie Arturo","address":"Nowe Osiedle 7","city":"Puszczykowo","longitude":16.86867,"latitude":52.26891,"popupLines":["24/7"]},{"id":"PUS05M","label":"teren prywatnej posesji","address":"Poznańska 89","city":"Puszczykowo","longitude":16.8544,"latitude":52.28451,"popupLines":["24/7"]},{"id":"PUS392","label":"Przy sklepie Społem","address":"Poznańska 75","city":"Puszczykowo","longitude":16.85712,"latitude":52.28747,"popupLines":["24/7"]},{"id":"QNK01M","label":"Market Dino","address":"Radiowa 8","city":"Koninko","longitude":17.01762,"latitude":52.30784,"popupLines":["24/7"]},{"id":"RGN01M","label":"Parking przy Aptece","address":"Mostowa 10","city":"Rogalinek","longitude":16.89622,"latitude":52.25107,"popupLines":["24/7"]},{"id":"RGN02M","label":"Przy sklepie wielobranżowym","address":"Kościelna 1","city":"Rogalinek","longitude":16.89946,"latitude":52.24874,"popupLines":["24/7"]},{"id":"ROA01M","label":"Market Dino","address":"Szkolna 2A","city":"Robakowo","longitude":17.05297,"latitude":52.29552,"popupLines":["24/7"]},{"id":"ROA01N","label":"Na parkingu za budynkiem Centrum Medycznego KORMED","address":"Szkolna 18","city":"Robakowo","longitude":17.05732,"latitude":52.30071,"popupLines":["24/7"]},{"id":"ROK01M","label":"Na parkingu Galerii Napoleońskiej","address":"Trakt Napoleoński 11","city":"Rokietnica","longitude":16.73785,"latitude":52.50817,"popupLines":["24/7"]},{"id":"ROK01ML","label":"Market Dino","address":"Obornicka 1b","city":"Rokietnica","longitude":16.75463,"latitude":52.51291,"popupLines":["24/7"]},{"id":"ROK01N","label":"Przy budynku dentysty Rokietnica Trakt Napoleoński 41","address":"Trakt Napoleoński 41","city":"Rokietnica","longitude":16.73158,"latitude":52.51286,"popupLines":["24/7"]},{"id":"ROK02A","label":"Na parkingu przy Galerii Handlowej","address":"Szamotulska 29D","city":"Rokietnica","longitude":16.7409,"latitude":52.51295,"popupLines":["24/7"]},{"id":"ROK02M","label":"na parkingu","address":"Szamotulska 1B","city":"Rokietnica","longitude":16.75211,"latitude":52.51267,"popupLines":["24/7"]},{"id":"ROK02N","label":"Na parkingu stacji paliw BP","address":"Poznańska 126","city":"Rokietnica","longitude":16.75529,"latitude":52.49746,"popupLines":["24/7"]},{"id":"ROK03M","label":"Na parkingu prywatnej posesji","address":"Trakt Napoleoński 2","city":"Rokietnica","longitude":16.74093,"latitude":52.50636,"popupLines":["24/7"]},{"id":"ROK04M","label":"Na parkingu Bafra Kebab","address":"Szamotulska 4","city":"Rokietnica","longitude":16.74981,"latitude":52.51203,"popupLines":["24/7"]},{"id":"ROK05M","label":"Przy skrzyżowaniu ul. Chabrowa/Rolna","address":"Chabrowa 1","city":"Rokietnica","longitude":16.75248,"latitude":52.508,"popupLines":["24/7"]},{"id":"ROK06M","label":"Na parkingu sklepu Lidl","address":"Szkolna 16","city":"Rokietnica","longitude":16.73722,"latitude":52.50775,"popupLines":["24/7"]},{"id":"RQW01M","label":"Przy sklepie spożywczym","address":"Goślińska 56A","city":"Rakownia","longitude":17.03398,"latitude":52.55803,"popupLines":["24/7"]},{"id":"SDM01N","label":"Przy hipermarkecie Auchan","address":"św. Antoniego 2","city":"Swadzim","longitude":16.76441,"latitude":52.44008,"popupLines":["24/7"]},{"id":"SDY01M","label":"Przy Żabce","address":"Kobylnicka 2a","city":"Sady","longitude":16.72522,"latitude":52.44993,"popupLines":["24/7"]},{"id":"SII01M","label":"Przy pawilonie handlowym","address":"Kościelna 1","city":"Siekierki Wielkie","longitude":17.16347,"latitude":52.38123,"popupLines":["24/7"]},{"id":"SII02M","label":"Market Dino","address":"Poznańska 43","city":"Siekierki Wielkie","longitude":17.15644,"latitude":52.39053,"popupLines":["24/7"]},{"id":"SKW01M","label":"Przy Lidlu","address":"Poznańska 100","city":"Skórzewo","longitude":16.80178,"latitude":52.3956,"popupLines":["24/7"]},{"id":"SKW01N","label":"Przy sklepie Żabka","address":"Poznańska 40","city":"Skórzewo","longitude":16.78933,"latitude":52.39001,"popupLines":["24/7"]},{"id":"SKW02A","label":"Przy markecie Bricomarche","address":"Poznańska 98A","city":"Skórzewo","longitude":16.8014,"latitude":52.39478,"popupLines":["24/7"]},{"id":"SKW02M","label":"Przy prywatnej posesji","address":"Sadowa 11","city":"Skórzewo","longitude":16.80139,"latitude":52.38507,"popupLines":["24/7"]},{"id":"SKW03M","label":"Na parkingu przychodni La Medica","address":"Lawendowa 20","city":"Skórzewo","longitude":16.78025,"latitude":52.39618,"popupLines":["24/7"]},{"id":"SKW04M","label":"Market Dino","address":"Kozierowskiego 18","city":"Skórzewo","longitude":16.77529,"latitude":52.39159,"popupLines":["24/7"]},{"id":"SKW05M","label":"Na parkingu sklepu Żabka","address":"Poznańska 80","city":"Skórzewo","longitude":16.79726,"latitude":52.39386,"popupLines":["24/7"]},{"id":"SKW06M","label":"Na parkingu prywatnej posesji","address":"Batorowska 32","city":"Skórzewo","longitude":16.78651,"latitude":52.39589,"popupLines":["24/7"]},{"id":"SLS01A","label":"Parking przed magazynem Grupa Aptekarska","address":"Nektarowa 15","city":"Suchy Las","longitude":16.86044,"latitude":52.48093,"popupLines":["24/7"]},{"id":"SLS01G","label":"Przy sklepie Żabka","address":"Leśna 62","city":"Suchy Las","longitude":16.89152,"latitude":52.47465,"popupLines":["24/7"]},{"id":"SLS01M","label":"Przy wejściu na teren posesji","address":"Stefana Stefańskiego 2","city":"Suchy Las","longitude":16.86883,"latitude":52.46637,"popupLines":["24/7"]},{"id":"SLS01N","label":"Po lewej stronie od wejścia do Galerii","address":"Obornicka 85","city":"Suchy Las","longitude":16.87514,"latitude":52.47298,"popupLines":["24/7"]},{"id":"SLS02M","label":"Na parkingu sklepu Lidl","address":"Obornicka 127","city":"Suchy Las","longitude":16.86949,"latitude":52.47721,"popupLines":["24/7"]},{"id":"SLS03M","label":"Na prywatnej posesji w miejscu ogrodzenia terenu","address":"Bogusławskiego 58","city":"Suchy Las","longitude":16.87932,"latitude":52.4801,"popupLines":["24/7"]},{"id":"SLS04M","label":"Na terenie myjni samochodowej","address":"Sucholeska 12","city":"Suchy Las","longitude":16.87512,"latitude":52.47044,"popupLines":["24/7"]},{"id":"SLS05M","label":"Na parkingu","address":"Stefanskiego 25","city":"Suchy Las","longitude":16.85683,"latitude":52.47125,"popupLines":["24/7"]},{"id":"SWD01A","label":"Boczna ściana sklepu Netto","address":"Cieszkowskiego 39","city":"Swarzędz","longitude":17.08336,"latitude":52.419918,"popupLines":["24/7"]},{"id":"SWD01B","label":"Stacja paliw BP","address":"Poznańska 45","city":"Swarzędz","longitude":17.05408,"latitude":52.40341,"popupLines":["24/7"]},{"id":"SWD01HO","label":"Przy kasach sklepu SPAR.","address":"Graniczna 55","city":"Swarzędz","longitude":17.06006,"latitude":52.40132,"popupLines":["PN-SB 07-22"]},{"id":"SWD01M","label":"Centrum Handlowe ETC PN-SO 10:00-21:00 ND 11:00-20:00","address":"Poznańska 6","city":"Swarzędz","longitude":17.09371,"latitude":52.4041,"popupLines":["24/7"]},{"id":"SWD01N","label":"Przy markecie Kaufland","address":"Polna 24","city":"Swarzędz","longitude":17.08366,"latitude":52.40891,"popupLines":["24/7"]},{"id":"SWD02A","label":"Przy supermarkecie Eurospar","address":"Graniczna 55","city":"Swarzędz","longitude":17.06001,"latitude":52.40132,"popupLines":["24/7"]},{"id":"SWD02M","label":"Przy parkingu sklepu Lidl","address":"Polna 23","city":"Swarzędz","longitude":17.082737,"latitude":52.407389,"popupLines":["24/7"]},{"id":"SWD02N","label":"Przy sklepie Media Expert","address":"Dworcowa 7","city":"Swarzędz","longitude":17.07424,"latitude":52.40569,"popupLines":["24/7"]},{"id":"SWD03A","label":"Przy sklepie Żabka","address":"Tysiąclecia 4A","city":"Swarzędz","longitude":17.07395,"latitude":52.40241,"popupLines":["24/7"]},{"id":"SWD03M","label":"Parking przy Parku Handlowym","address":"Graniczna 63","city":"Swarzędz","longitude":17.0575,"latitude":52.40147,"popupLines":["24/7"]},{"id":"SWD03N","label":"Przy budynku usługowo-handlowym","address":"Serdeczna 3","city":"Swarzędz","longitude":17.07553,"latitude":52.38614,"popupLines":["24/7"]},{"id":"SWD04M","label":"Parking na terenie posesji","address":"Napoleońska 14","city":"Swarzędz","longitude":17.06729,"latitude":52.40711,"popupLines":["24/7"]},{"id":"SWD04N","label":"Przy sklepie Stokrotka","address":"Kórnicka 91","city":"Swarzędz","longitude":17.07776,"latitude":52.39947,"popupLines":["24/7"]},{"id":"SWD05M","label":"Boki sklepu odzieżowego","address":"Czwartaków 13 (dz. 103/37)","city":"Swarzędz","longitude":17.07996,"latitude":52.41746,"popupLines":["24/7"]},{"id":"SWD06M","label":"Supermarket ALDI","address":"Tysiąclecia 38","city":"Swarzędz","longitude":17.06796,"latitude":52.40156,"popupLines":["24/7"]},{"id":"SWD07M","label":"lokalizacja na tyłach marketu spożywczego","address":"os. Czwartaków 103/45, 103/46","city":"Swarzędz","longitude":17.08001,"latitude":52.4172,"popupLines":["24/7"]},{"id":"SWD08M","label":"Przed biurem rachunkowym Marbar","address":"Żeromskiego 22","city":"Swarzędz","longitude":17.07674,"latitude":52.40125,"popupLines":["24/7"]},{"id":"SWD09M","label":"Wzdłuż płotu prywatnej posesji","address":"Jasińska 20","city":"Swarzędz","longitude":17.08856,"latitude":52.4084,"popupLines":["24/7"]},{"id":"SWD10M","label":"Obok sklepu &quot;ADI&quot;","address":"Plac Handlowy 1","city":"Swarzędz","longitude":17.05246,"latitude":52.39758,"popupLines":["24/7"]},{"id":"SWD11M","label":"Parking przed budynkami wzdłuż płotu","address":"Cieszkowskiego 74","city":"Swarzędz","longitude":17.085275,"latitude":52.417612,"popupLines":["24/7"]},{"id":"SWD971","label":"Przy markecie POLOmarket","address":"Tysiąclecia 17","city":"Swarzędz","longitude":17.06917,"latitude":52.40216,"popupLines":["24/7"]},{"id":"SYT01M","label":"Parking budynku handlowego","address":"Jeziorna 4","city":"Szczytniki","longitude":17.01763,"latitude":52.30265,"popupLines":["24/7"]},{"id":"TRP01A","label":"Na parkingu przy sklepie Żabka","address":"Poznańska 100B","city":"Tarnowo Podgórne","longitude":16.65711,"latitude":52.46344,"popupLines":["24/7"]},{"id":"TRP01M","label":"Przy sklepie Lidl","address":"Poznańska 135","city":"Tarnowo Podgórne","longitude":16.65316,"latitude":52.46095,"popupLines":["24/7"]},{"id":"TRP01N","label":"Przy markecie Netto","address":"Krucza 1","city":"Tarnowo Podgórne","longitude":16.67591,"latitude":52.46121,"popupLines":["24/7"]},{"id":"TRP03M","label":"Market Dino","address":"Rokietnicka 21A","city":"Tarnowo Podgórne","longitude":16.67044,"latitude":52.46704,"popupLines":["24/7"]},{"id":"TRP04M","label":"Market Dino","address":"23 Października 57A","city":"Tarnowo Podgórne","longitude":16.65537,"latitude":52.46759,"popupLines":["24/7"]},{"id":"TRP05M","label":"Na parkingu Lodowiska Misiałek","address":"Poznańska 131A","city":"Tarnowo Podgórne","longitude":16.65524,"latitude":52.46169,"popupLines":["24/7"]},{"id":"TUC01M","label":"Na terenie myjni","address":"Dębowa 46","city":"Tulce","longitude":17.074,"latitude":52.34849,"popupLines":["24/7"]},{"id":"TUC01N","label":"Przy sklepie spożywczym","address":"Poznańska 10","city":"Tulce","longitude":17.07429,"latitude":52.34376,"popupLines":["24/7"]},{"id":"WGT01M","label":"Na parkingu Auto Części","address":"Wierzbowa 184","city":"Wysogotowo","longitude":16.77396,"latitude":52.41877,"popupLines":["24/7"]},{"id":"WIY01M","label":"Przy myjni bezdotykowej Banieczka.","address":"Polna 1","city":"Wiry","longitude":16.85318,"latitude":52.32086,"popupLines":["24/7"]},{"id":"WOK01M","label":"parking przy sklepie","address":"Poznańska 30","city":"Wiórek","longitude":16.90815,"latitude":52.30444,"popupLines":["24/7"]},{"id":"XNW01M","label":"Przy Sklepie","address":"Kwiatowa 5","city":"Konarzewo","longitude":16.7211,"latitude":52.33565,"popupLines":["24/7"]},{"id":"ZAL01M","label":"Niezabudowana działka naprzeciw Centrum Medycznego Diagnosis","address":"Planetarna 13","city":"Zalasewo","longitude":17.06912,"latitude":52.39121,"popupLines":["24/7"]},{"id":"ZAL02M","label":"Parking przy Lidlu","address":"Planetarna 20","city":"Zalasewo","longitude":17.06699,"latitude":52.39031,"popupLines":["24/7"]},{"id":"ZAL03M","label":"Market Dino","address":"Kórnicka 188","city":"Zalasewo","longitude":17.07666,"latitude":52.39095,"popupLines":["24/7"]},{"id":"ZAL04M","label":"&quot;Projekt Wakacje&quot;","address":"Planetarna 15A/6","city":"Zalasewo","longitude":17.07087,"latitude":52.38996,"popupLines":["24/7"]},{"id":"ZAL05M","label":"Wzdłuż płotu na prywatnej posesji","address":"Średzka 59","city":"Zalasewo","longitude":17.08968,"latitude":52.39412,"popupLines":["24/7"]},{"id":"ZAL06M","label":"Parking Zalasewo Center","address":"Kórnicka 198B","city":"Zalasewo","longitude":17.07577,"latitude":52.38822,"popupLines":["24/7"]},{"id":"ZLT01G","label":"Przy myjni samochodowej","address":"Łagiewnicka 23","city":"Złotniki","longitude":16.84528,"latitude":52.4935,"popupLines":["24/7"]},{"id":"ZLT01M","label":"Na terenie parkingu firmowego","address":"Krzemowa 1","city":"Złotniki","longitude":16.84991,"latitude":52.48596,"popupLines":["24/7"]}]