[{"id":"1fe82f97-acd4-47b8-bcbc-d5da18fbe607","label":"Netto Poznań","address":"Ul. Skibowa 16A","city":"Poznań","longitude":17.009543,"latitude":52.363483,"popupLines":[]},{"id":"22793b20-b66d-40e3-92da-208711f23016","label":"Netto Poznań","address":"Ul. Jana Brzechwy 56","city":"Poznań","longitude":16.83255,"latitude":52.41218,"popupLines":[]},{"id":"2bce1aec-7040-4d8f-9203-43208ab5c967","label":"Netto Poznań Czeremchowa","address":"Ul. Czeremchowa 3-5","city":"Poznań","longitude":16.895548,"latitude":52.374294,"popupLines":[]},{"id":"2c93d569-0ecd-4dd1-b948-b3d957e97a56","label":"Netto Poznań Łokietka","address":"Os. Władysława Łokietka 102","city":"Poznań","longitude":16.941496,"latitude":52.44927,"popupLines":[]},{"id":"2d403f18-773d-4388-b893-02931fe7f751","label":"Netto Komorniki Młyńska 684/9","address":"Ul. Mlynska 4","city":"Komorniki","longitude":16.80694,"latitude":52.33445,"popupLines":[]},{"id":"363dd271-2abd-46a0-b98f-bf35e45d2cde","label":"Netto Kamionki Poznańska 150","address":"Ul. Poznańska 150","city":"Kamionki","longitude":16.978226,"latitude":52.28975,"popupLines":[]},{"id":"425a1d71-b869-4bc8-a300-510878ec2f60","label":"Netto Poznań","address":"Ul. Gąsiorowskich","city":"Poznań","longitude":16.906391,"latitude":52.39895,"popupLines":[]},{"id":"435b49bc-b2a5-493a-afa9-1d85ed148c69","label":"Netto Poznań","address":"Szarotkowa 21","city":"Poznań","longitude":16.823965,"latitude":52.37839,"popupLines":[]},{"id":"49733677-fe3b-444d-af36-b47557684a62","label":"Netto Kostrzyn Wlkp.","address":"Poznańska 118","city":"Kostrzyn","longitude":17.20869,"latitude":52.3982,"popupLines":[]},{"id":"4e3bdf71-9282-43e2-8b5b-3e72b14f4e59","label":"Netto Poznań Łużycka 112","address":"Ul. Luzycka 112","city":"Poznań","longitude":16.94638,"latitude":52.44689,"popupLines":[]},{"id":"5aba71ee-bcbe-4ab8-b3ea-fea9fd38c820","label":"Netto Poznań","address":"Ul. Grunwaldzka 104A","city":"Poznań","longitude":16.869516,"latitude":52.396874,"popupLines":[]},{"id":"5cd7eea8-6745-43c5-bce9-65180adb5d31","label":"Netto Poznań","address":"Ul. Hawelańska 2a/48","city":"Poznań","longitude":16.94948,"latitude":52.43577,"popupLines":[]},{"id":"63d16f47-8667-47be-80c8-e0a56db4751a","label":"Netto Skórzewo","address":"Poznańska 98","city":"Wielkopolskie","longitude":16.800524,"latitude":52.395367,"popupLines":[]},{"id":"6613053b-c4fb-452f-a8ad-e6943d1e6004","label":"Netto Mosina Konopnickiej 33","address":"Ul. Konopnickiej 33","city":"Mosina","longitude":16.84276,"latitude":52.24517,"popupLines":[]},{"id":"746a6cd4-f436-4fb5-b48d-24c51a63ab45","label":"Netto Luboń","address":"Żabikowska 34","city":"Luboń","longitude":16.877218,"latitude":52.345444,"popupLines":[]},{"id":"7cb7f1a4-11e8-485f-905d-3c4232628e3b","label":"Netto Przeźmierowo","address":"Ul. Rynkowa 121","city":"Przeźmierowo","longitude":16.78982,"latitude":52.418636,"popupLines":[]},{"id":"8a683a8f-bdf7-43be-8712-04c73e032fcc","label":"Netto Poznań - Żegrze","address":"Os. Stare Żegrze 109","city":"Poznań","longitude":16.96688,"latitude":52.38347,"popupLines":[]},{"id":"92c7b910-107a-467e-b26d-da6e4bcd2896","label":"Netto Tarnowo Podgórne Krucza 1","address":"Ul. Krucza 1","city":"Tarnowo Podgórne","longitude":16.67619,"latitude":52.4597,"popupLines":[]},{"id":"9a09421d-0c38-474a-b5d9-c484b6271b84","label":"Netto Poznań","address":"Oś. Przyjaźni 125A","city":"Poznań","longitude":16.92949,"latitude":52.43103,"popupLines":[]},{"id":"9c0ebad2-518e-4ea1-8906-c066b7fecc6d","label":"Netto Kostrzyn Dworcowa 31","address":"Ul. Dworcowa 31","city":"Kostrzyń","longitude":17.22525,"latitude":52.39408,"popupLines":[]},{"id":"b09f12a8-9d62-49f0-bc3f-76dc39b136c7","label":"Netto Poznań","address":"Ul. Kasprzaka 13","city":"Poznań","longitude":16.897356,"latitude":52.39354,"popupLines":[]},{"id":"b2a355f0-1095-4224-9018-99ecd09c10bb","label":"Netto Mosina","address":"Ul. Kolejowa 33","city":"Mosina","longitude":16.853315,"latitude":52.243088,"popupLines":[]},{"id":"be9a889c-cc7d-41f1-8d0b-192a5ad701c1","label":"Netto Bolechowo Poznanska 74","address":"Ul. Poznanska 74","city":"Bolechowo","longitude":16.99938,"latitude":52.55935,"popupLines":[]},{"id":"c8f1bc08-ae7c-4e40-a463-90b6079785aa","label":"Netto Swarzędz Cieszkowskiego 39","address":"Ul. Cieszkowskiego 39","city":"Swarzędz","longitude":17.08315,"latitude":52.41995,"popupLines":[]},{"id":"caacaac7-8244-407c-9fd9-fe7caa9f8b4f","label":"Netto Komorniki","address":"Nizinna 10","city":"Komorniki","longitude":16.814993,"latitude":52.338043,"popupLines":[]},{"id":"d5f340f1-d67e-4968-a715-6e4cc5ed7202","label":"Netto Poznań Solidarności","address":"Ul. Solidarności 50","city":"Poznań","longitude":16.922457,"latitude":52.435314,"popupLines":[]},{"id":"d77bcaee-2b8c-4e78-8610-3d191f8e71c0","label":"Netto Poznań Polna","address":"Polna 28","city":"Poznań","longitude":16.895407,"latitude":52.411556,"popupLines":[]},{"id":"da387bba-5d59-45b6-93a9-a4d9a7369674","label":"Netto Kórnik","address":"Poznańska 87","city":"Kórnik","longitude":17.077066,"latitude":52.255913,"popupLines":[]},{"id":"e7ef4ab7-eb47-425f-b285-998f0e9ae415","label":"Netto Poznań Dąbrówka","address":"Ul. Malinowa","city":"Dąbrówka(doplewo Commune)","longitude":16.736727,"latitude":52.376095,"popupLines":[]},{"id":"ec59c67f-c1d7-44b9-8333-155cf600bd25","label":"Netto Poznań Poznańska","address":"Ul. Poznańska 62","city":"Poznań","longitude":16.91285,"latitude":52.41401,"popupLines":[]}]