[{"id":"1000","label":"Sycowska I","address":"","city":"","longitude":16.838983,"latitude":52.3644,"closestLines":["Bus: 180","Other bus: 710"],"popupLines":["Bus: 180","Other bus: 710"]},{"id":"1001","label":"Sycowska I","address":"","city":"","longitude":16.839093,"latitude":52.36434,"closestLines":["Bus: 180","Other bus: 710"],"popupLines":["Bus: 180","Other bus: 710"]},{"id":"1004","label":"Kowalewicka","address":"","city":"","longitude":16.845826,"latitude":52.368682,"closestLines":["Bus: 180","Other bus: 610, 702"],"popupLines":["Bus: 180","Other bus: 610, 702"]},{"id":"1008","label":"Wołowska","address":"","city":"","longitude":16.842898,"latitude":52.3704,"closestLines":["Bus: 180","Other bus: 610, 702"],"popupLines":["Bus: 180","Other bus: 610, 702"]},{"id":"1009","label":"Cedzyńska","address":"","city":"","longitude":16.849151,"latitude":52.36751,"closestLines":["Bus: 180","Other bus: 610, 702"],"popupLines":["Bus: 180","Other bus: 610, 702"]},{"id":"1010","label":"Cedzyńska","address":"","city":"","longitude":16.849973,"latitude":52.367009,"closestLines":["Bus: 180","Other bus: 610, 702"],"popupLines":["Bus: 180","Other bus: 610, 702"]},{"id":"1011","label":"Fabianowo","address":"","city":"","longitude":16.855824,"latitude":52.365354,"closestLines":["Bus: 180","Other bus: 610, 616, 702","Night: 250"],"popupLines":["Bus: 180","Other bus: 610, 616, 702","Night: 250"]},{"id":"1012","label":"Kowalewicka Wiadukt","address":"","city":"","longitude":16.854019,"latitude":52.361067,"closestLines":["Bus: 180","Other bus: 610, 616, 702","Night: 250"],"popupLines":["Bus: 180","Other bus: 610, 616, 702","Night: 250"]},{"id":"1013","label":"Tyniecka","address":"","city":"","longitude":16.858045,"latitude":52.36219,"closestLines":["Bus: 180","Other bus: 610, 616, 702, 703, 705, 707","Night: 250"],"popupLines":["Bus: 180","Other bus: 610, 616, 702, 703, 705, 707","Night: 250"]},{"id":"1014","label":"Fabianowo","address":"","city":"","longitude":16.859095,"latitude":52.365902,"closestLines":["Bus: 180","Other bus: 610, 616, 702, 703, 705, 707","Night: 250"],"popupLines":["Bus: 180","Other bus: 610, 616, 702, 703, 705, 707","Night: 250"]},{"id":"1015","label":"Lerczakówny","address":"","city":"","longitude":16.852699,"latitude":52.363749,"closestLines":["Bus: 180","Other bus: 610, 616, 702","Night: 250"],"popupLines":["Bus: 180","Other bus: 610, 616, 702","Night: 250"]},{"id":"1016","label":"Kotowo","address":"","city":"","longitude":16.853792,"latitude":52.359227,"closestLines":["Other bus: 610, 616, 702, 703, 705, 707","Night: 250"],"popupLines":["Other bus: 610, 616, 702, 703, 705, 707","Night: 250"]},{"id":"1017","label":"Kotowo","address":"","city":"","longitude":16.854324,"latitude":52.358146,"closestLines":["Other bus: 610, 616, 702","Night: 250"],"popupLines":["Other bus: 610, 616, 702","Night: 250"]},{"id":"1018","label":"Uradzka","address":"","city":"","longitude":16.859971,"latitude":52.355445,"closestLines":["Other bus: 610, 616, 702","Night: 250"],"popupLines":["Other bus: 610, 616, 702","Night: 250"]},{"id":"1019","label":"Uradzka","address":"","city":"","longitude":16.858919,"latitude":52.355824,"closestLines":["Other bus: 610, 616, 702","Night: 250"],"popupLines":["Other bus: 610, 616, 702","Night: 250"]},{"id":"1020","label":"Komornicka","address":"","city":"","longitude":16.864046,"latitude":52.370584,"closestLines":["Bus: 180","Other bus: 610, 616, 702, 703, 705, 707","Night: 250"],"popupLines":["Bus: 180","Other bus: 610, 616, 702, 703, 705, 707","Night: 250"]},{"id":"1021","label":"Ostatnia","address":"","city":"","longitude":16.864808,"latitude":52.372946,"closestLines":["Bus: 180","Other bus: 610, 616, 702, 703, 704, 705, 707, 710","Night: 250"],"popupLines":["Bus: 180","Other bus: 610, 616, 702, 703, 704, 705, 707, 710","Night: 250"]},{"id":"1022","label":"Ostatnia","address":"","city":"","longitude":16.866499,"latitude":52.372937,"closestLines":["Bus: 149, 180","Other bus: 610, 616, 702, 703, 704, 705, 707, 710","Night: 250"],"popupLines":["Bus: 149, 180","Other bus: 610, 616, 702, 703, 704, 705, 707, 710","Night: 250"]},{"id":"1023","label":"Bojanowska","address":"","city":"","longitude":16.872283,"latitude":52.376058,"closestLines":["Bus: 149, 180","Other bus: 610, 616, 702, 703, 704, 705, 707, 710","Night: 250"],"popupLines":["Bus: 149, 180","Other bus: 610, 616, 702, 703, 704, 705, 707, 710","Night: 250"]},{"id":"1024","label":"Bojanowska","address":"","city":"","longitude":16.872216,"latitude":52.376385,"closestLines":["Bus: 149, 180","Other bus: 610, 616, 702, 703, 704, 705, 707, 710","Night: 250"],"popupLines":["Bus: 149, 180","Other bus: 610, 616, 702, 703, 704, 705, 707, 710","Night: 250"]},{"id":"1029","label":"Rakoniewicka","address":"","city":"","longitude":16.879291,"latitude":52.379272,"closestLines":["Bus: 175","Other bus: 614, 701","Night: 213, 251"],"popupLines":["Bus: 175","Other bus: 614, 701","Night: 213, 251"]},{"id":"1032","label":"Przełęcz","address":"","city":"","longitude":16.888097,"latitude":52.377279,"closestLines":["Other bus: 614, 701","Night: 251"],"popupLines":["Other bus: 614, 701","Night: 251"]},{"id":"1033","label":"Przełęcz","address":"","city":"","longitude":16.888637,"latitude":52.377258,"closestLines":["Other bus: 614, 701","Night: 251"],"popupLines":["Other bus: 614, 701","Night: 251"]},{"id":"1036","label":"Górecka","address":"","city":"","longitude":16.893271,"latitude":52.372996,"closestLines":["Bus: 149, 179","Other bus: 614, 701"],"popupLines":["Bus: 149, 179","Other bus: 614, 701"]},{"id":"1037","label":"Górecka","address":"","city":"","longitude":16.893728,"latitude":52.373443,"closestLines":["Bus: 149, 179","Other bus: 614, 701"],"popupLines":["Bus: 149, 179","Other bus: 614, 701"]},{"id":"1038","label":"Jesionowa","address":"","city":"","longitude":16.892897,"latitude":52.369912,"closestLines":["Bus: 149, 179","Other bus: 614, 701"],"popupLines":["Bus: 149, 179","Other bus: 614, 701"]},{"id":"1039","label":"Jesionowa","address":"","city":"","longitude":16.893001,"latitude":52.369627,"closestLines":["Bus: 149, 179","Other bus: 614, 701"],"popupLines":["Bus: 149, 179","Other bus: 614, 701"]},{"id":"1048","label":"Świerczewo","address":"","city":"","longitude":16.884895,"latitude":52.356984,"closestLines":["Bus: 175","Other bus: 611, 614, 701","Night: 213"],"popupLines":["Bus: 175","Other bus: 611, 614, 701","Night: 213"]},{"id":"1050","label":"Świerczewo","address":"","city":"","longitude":16.884361,"latitude":52.356355,"closestLines":["611, 614, 701"],"popupLines":["611, 614, 701"]},{"id":"1051","label":"Korfantego","address":"","city":"","longitude":16.886744,"latitude":52.35925,"closestLines":["Bus: 175","Other bus: 611, 614, 701","Night: 213"],"popupLines":["Bus: 175","Other bus: 611, 614, 701","Night: 213"]},{"id":"1052","label":"Korfantego","address":"","city":"","longitude":16.887514,"latitude":52.359616,"closestLines":["Bus: 175","Other bus: 611, 614, 701","Night: 213"],"popupLines":["Bus: 175","Other bus: 611, 614, 701","Night: 213"]},{"id":"1053","label":"Będzińska","address":"","city":"","longitude":16.889774,"latitude":52.361398,"closestLines":["Bus: 149, 175","Other bus: 611, 614, 701","Night: 213"],"popupLines":["Bus: 149, 175","Other bus: 611, 614, 701","Night: 213"]},{"id":"1054","label":"Będzińska","address":"","city":"","longitude":16.889079,"latitude":52.361097,"closestLines":["Bus: 149, 175","Other bus: 611, 614, 701","Night: 213"],"popupLines":["Bus: 149, 175","Other bus: 611, 614, 701","Night: 213"]},{"id":"1055","label":"Sempołowskiej","address":"","city":"","longitude":16.891323,"latitude":52.362866,"closestLines":["Bus: 149, 175","Other bus: 611, 614, 701","Night: 213"],"popupLines":["Bus: 149, 175","Other bus: 611, 614, 701","Night: 213"]},{"id":"1056","label":"Sempołowskiej","address":"","city":"","longitude":16.891935,"latitude":52.363196,"closestLines":["Bus: 149, 175","Other bus: 611, 614, 701","Night: 213"],"popupLines":["Bus: 149, 175","Other bus: 611, 614, 701","Night: 213"]},{"id":"1057","label":"Cieszyńska","address":"","city":"","longitude":16.8944,"latitude":52.365491,"closestLines":["Bus: 149, 175","Other bus: 611, 614, 701","Night: 213"],"popupLines":["Bus: 149, 175","Other bus: 611, 614, 701","Night: 213"]},{"id":"1058","label":"Opolska","address":"","city":"","longitude":16.897054,"latitude":52.367378,"closestLines":["Bus: 175, 179","Other bus: 611, 614, 701","Night: 213"],"popupLines":["Bus: 175, 179","Other bus: 611, 614, 701","Night: 213"]},{"id":"1059","label":"Opolska","address":"","city":"","longitude":16.895685,"latitude":52.367396,"closestLines":["Bus: 149, 179","Other bus: 614, 701"],"popupLines":["Bus: 149, 179","Other bus: 614, 701"]},{"id":"1133","label":"Grochowe Łąki","address":"","city":"","longitude":16.93882,"latitude":52.41295,"closestLines":["Bus: 160, 163, 167, 174, 176, 190, 911","Other bus: 603","Night: 211, 214, 220, 221, 224"],"popupLines":["Bus: 160, 163, 167, 174, 176, 190, 911","Other bus: 603","Night: 211, 214, 220, 221, 224"]},{"id":"1134","label":"Małe Garbary","address":"","city":"","longitude":16.938862,"latitude":52.411735,"closestLines":["Bus: 160, 163, 167, 174, 176, 190, 911","Other bus: 603","Night: 211, 214, 220, 221, 224"],"popupLines":["Bus: 160, 163, 167, 174, 176, 190, 911","Other bus: 603","Night: 211, 214, 220, 221, 224"]},{"id":"1136","label":"Małe Garbary","address":"","city":"","longitude":16.93809,"latitude":52.410455,"closestLines":["Bus: 174, 176, 190","Other bus: 603","Night: 211, 220, 221"],"popupLines":["Bus: 174, 176, 190","Other bus: 603","Night: 211, 220, 221"]},{"id":"1141","label":"Rondo Śródka","address":"","city":"","longitude":16.954493,"latitude":52.409439,"closestLines":["Bus: 157, 167, 173, 178, 183, 185, 320, 321, 341, 911","Other bus: 312, 323, 342, 400, 401, 405, 406, 407, 412","Night: 213, 223, 227, 231, 252"],"popupLines":["Bus: 157, 167, 173, 178, 183, 185, 320, 321, 341, 911","Other bus: 312, 323, 342, 400, 401, 405, 406, 407, 412","Night: 213, 223, 227, 231, 252"]},{"id":"1143","label":"Rondo Śródka","address":"","city":"","longitude":16.955732,"latitude":52.409397,"closestLines":["Bus: 157, 167, 173, 178, 183, 184, 185, 320, 321, 341, 911","Other bus: 312, 323, 342, 400, 401, 405, 406, 407, 412","Night: 252"],"popupLines":["Bus: 157, 167, 173, 178, 183, 184, 185, 320, 321, 341, 911","Other bus: 312, 323, 342, 400, 401, 405, 406, 407, 412","Night: 252"]},{"id":"1145","label":"Rondo Śródka","address":"","city":"","longitude":16.957897,"latitude":52.410927,"closestLines":["Bus: 173, 178, 183, 185, 320, 321, 341","Other bus: 312, 323, 342","Night: 252"],"popupLines":["Bus: 173, 178, 183, 185, 320, 321, 341","Other bus: 312, 323, 342","Night: 252"]},{"id":"1147","label":"Zawady","address":"","city":"","longitude":16.957096,"latitude":52.413062,"closestLines":["Bus: 173, 178, 183, 185, 320, 321, 341","Other bus: 312, 323, 342","Night: 227, 252"],"popupLines":["Bus: 173, 178, 183, 185, 320, 321, 341","Other bus: 312, 323, 342","Night: 227, 252"]},{"id":"1149","label":"Zawady","address":"","city":"","longitude":16.958534,"latitude":52.414856,"closestLines":["Bus: 173, 185, 320, 321, 341","Other bus: 312, 323, 342","Night: 227"],"popupLines":["Bus: 173, 185, 320, 321, 341","Other bus: 312, 323, 342","Night: 227"]},{"id":"1150","label":"Koronkarska","address":"","city":"","longitude":16.959367,"latitude":52.416058,"closestLines":["Bus: 173, 185, 320, 321, 341","Other bus: 312, 323, 342","Night: 227"],"popupLines":["Bus: 173, 185, 320, 321, 341","Other bus: 312, 323, 342","Night: 227"]},{"id":"1151","label":"Koronkarska","address":"","city":"","longitude":16.960266,"latitude":52.416613,"closestLines":["Bus: 173, 185, 320, 321, 341","Other bus: 312, 323, 342","Night: 227"],"popupLines":["Bus: 173, 185, 320, 321, 341","Other bus: 312, 323, 342","Night: 227"]},{"id":"1152","label":"Studzienna","address":"","city":"","longitude":16.96467,"latitude":52.419542,"closestLines":["Bus: 173, 185, 320, 321, 341","Other bus: 312, 323, 342","Night: 227"],"popupLines":["Bus: 173, 185, 320, 321, 341","Other bus: 312, 323, 342","Night: 227"]},{"id":"1153","label":"Studzienna","address":"","city":"","longitude":16.965777,"latitude":52.419453,"closestLines":["Bus: 173, 185, 320, 321, 341","Other bus: 312, 323, 342","Night: 227"],"popupLines":["Bus: 173, 185, 320, 321, 341","Other bus: 312, 323, 342","Night: 227"]},{"id":"1154","label":"Rynek Wschodni","address":"","city":"","longitude":16.970053,"latitude":52.420819,"closestLines":["Bus: 173, 185, 320, 321, 341","Other bus: 312, 323, 342, 412","Night: 227"],"popupLines":["Bus: 173, 185, 320, 321, 341","Other bus: 312, 323, 342, 412","Night: 227"]},{"id":"1155","label":"Rynek Wschodni","address":"","city":"","longitude":16.969861,"latitude":52.42094,"closestLines":["Bus: 173, 185, 320, 321, 341","Other bus: 312, 323, 342, 412","Night: 227"],"popupLines":["Bus: 173, 185, 320, 321, 341","Other bus: 312, 323, 342, 412","Night: 227"]},{"id":"1156","label":"Główna","address":"","city":"","longitude":16.976465,"latitude":52.422787,"closestLines":["Bus: 185, 320, 321, 341","Other bus: 312, 323, 342","Night: 227"],"popupLines":["Bus: 185, 320, 321, 341","Other bus: 312, 323, 342","Night: 227"]},{"id":"1157","label":"Główna","address":"","city":"","longitude":16.97419,"latitude":52.422082,"closestLines":["Bus: 173, 185, 320, 321, 341","Other bus: 312, 323, 342, 412","Night: 227"],"popupLines":["Bus: 173, 185, 320, 321, 341","Other bus: 312, 323, 342, 412","Night: 227"]},{"id":"1158","label":"Główna","address":"","city":"","longitude":16.976744,"latitude":52.422313,"closestLines":["Bus: 173","Other bus: 412","Night: 227"],"popupLines":["Bus: 173","Other bus: 412","Night: 227"]},{"id":"1159","label":"Bałtycka","address":"","city":"","longitude":16.977823,"latitude":52.425456,"closestLines":["Bus: 185, 320, 321, 322, 341","Other bus: 312, 323, 342","Night: 227"],"popupLines":["Bus: 185, 320, 321, 322, 341","Other bus: 312, 323, 342","Night: 227"]},{"id":"1161","label":"Bałtycka","address":"","city":"","longitude":16.978579,"latitude":52.426785,"closestLines":["Bus: 320, 321, 322, 341","Other bus: 312, 323, 342","Night: 227, 252"],"popupLines":["Bus: 320, 321, 322, 341","Other bus: 312, 323, 342","Night: 227, 252"]},{"id":"1173","label":"Gnieźnieńska Cmentarz","address":"","city":"","longitude":16.99377,"latitude":52.425179,"closestLines":["Bus: 173","Other bus: 412","Night: 227"],"popupLines":["Bus: 173","Other bus: 412","Night: 227"]},{"id":"1176","label":"Bogucin Bałtycka","address":"","city":"","longitude":17.009079,"latitude":52.429873,"closestLines":["Bus: 173","Other bus: 412","Night: 227"],"popupLines":["Bus: 173","Other bus: 412","Night: 227"]},{"id":"1177","label":"Bogucin Bałtycka","address":"","city":"","longitude":17.01129,"latitude":52.430205,"closestLines":["Bus: 173","Other bus: 400, 412"],"popupLines":["Bus: 173","Other bus: 400, 412"]},{"id":"1178","label":"Bogucin/Pętla","address":"","city":"","longitude":17.019434,"latitude":52.432223,"closestLines":["Bus: 173","Other bus: 400, 412"],"popupLines":["Bus: 173","Other bus: 400, 412"]},{"id":"1187","label":"Janikowo/Ogrodnicza","address":"","city":"","longitude":17.032469,"latitude":52.443605,"closestLines":["Bus: 173","Other bus: 412"],"popupLines":["Bus: 173","Other bus: 412"]},{"id":"1195","label":"Koziegłowy/Krótka","address":"","city":"","longitude":16.995638,"latitude":52.44711,"closestLines":["Bus: 320, 321","Other bus: 388, 394, 396","Night: 227"],"popupLines":["Bus: 320, 321","Other bus: 388, 394, 396","Night: 227"]},{"id":"1196","label":"Koziegłowy/Krótka","address":"","city":"","longitude":16.996641,"latitude":52.447326,"closestLines":["Bus: 320, 321","Other bus: 388, 396","Night: 227"],"popupLines":["Bus: 320, 321","Other bus: 388, 396","Night: 227"]},{"id":"1197","label":"Koziegłowy/Pływalnia","address":"","city":"","longitude":16.992067,"latitude":52.449333,"closestLines":["Bus: 322","Other bus: 312, 323, 388, 394","Night: 227"],"popupLines":["Bus: 322","Other bus: 312, 323, 388, 394","Night: 227"]},{"id":"1198","label":"Koziegłowy/Pływalnia","address":"","city":"","longitude":16.992288,"latitude":52.448118,"closestLines":["Bus: 322","Other bus: 312, 323, 388, 394","Night: 227"],"popupLines":["Bus: 322","Other bus: 312, 323, 388, 394","Night: 227"]},{"id":"1199","label":"Koziegłowy/Piaskowa Szkoła","address":"","city":"","longitude":16.991004,"latitude":52.445616,"closestLines":["Bus: 322","Other bus: 323, 388, 396","Night: 227"],"popupLines":["Bus: 322","Other bus: 323, 388, 396","Night: 227"]},{"id":"1200","label":"Koziegłowy/Piaskowa Szkoła","address":"","city":"","longitude":16.990547,"latitude":52.446615,"closestLines":["Bus: 322","Other bus: 312, 323, 388, 394","Night: 227"],"popupLines":["Bus: 322","Other bus: 312, 323, 388, 394","Night: 227"]},{"id":"1201","label":"Koziegłowy/Os. Karolin","address":"","city":"","longitude":16.989956,"latitude":52.443708,"closestLines":["Bus: 320, 321, 322","Other bus: 323","Night: 227"],"popupLines":["Bus: 320, 321, 322","Other bus: 323","Night: 227"]},{"id":"1202","label":"Koziegłowy/Os. Karolin","address":"","city":"","longitude":16.990576,"latitude":52.444095,"closestLines":["Bus: 320, 321, 322","Other bus: 323","Night: 227"],"popupLines":["Bus: 320, 321, 322","Other bus: 323","Night: 227"]},{"id":"1203","label":"Koziegłowy/Os. Leśne","address":"","city":"","longitude":16.99206,"latitude":52.453386,"closestLines":["Bus: 322","Other bus: 312, 323, 388, 394"],"popupLines":["Bus: 322","Other bus: 312, 323, 388, 394"]},{"id":"1204","label":"Koziegłowy/Os. Leśne","address":"","city":"","longitude":16.991373,"latitude":52.452429,"closestLines":["Bus: 322","Other bus: 312, 323, 388, 394","Night: 227"],"popupLines":["Bus: 322","Other bus: 312, 323, 388, 394","Night: 227"]},{"id":"1213","label":"Termalna","address":"","city":"","longitude":16.971584,"latitude":52.409124,"closestLines":["Other bus: 401, 405, 406, 407","Night: 213, 223"],"popupLines":["Other bus: 401, 405, 406, 407","Night: 213, 223"]},{"id":"1216","label":"Łomżyńska","address":"","city":"","longitude":16.984763,"latitude":52.409585,"closestLines":["Other bus: 400, 401, 405, 406, 407","Night: 213, 223"],"popupLines":["Other bus: 400, 401, 405, 406, 407","Night: 213, 223"]},{"id":"1217","label":"Pusta","address":"","city":"","longitude":16.994858,"latitude":52.409921,"closestLines":["Bus: 157","Other bus: 401, 405, 406, 407","Night: 222, 223"],"popupLines":["Bus: 157","Other bus: 401, 405, 406, 407","Night: 222, 223"]},{"id":"1218","label":"Miłostowo","address":"","city":"","longitude":17.004357,"latitude":52.410249,"closestLines":["Bus: 157","Other bus: 400, 401, 405, 406, 407","Night: 222, 223"],"popupLines":["Bus: 157","Other bus: 400, 401, 405, 406, 407","Night: 222, 223"]},{"id":"1219","label":"Bożeny","address":"","city":"","longitude":17.016073,"latitude":52.410665,"closestLines":["Bus: 157","Other bus: 401, 405, 406, 407","Night: 222, 223"],"popupLines":["Bus: 157","Other bus: 401, 405, 406, 407","Night: 222, 223"]},{"id":"1246","label":"Swarzędz/Os. Cegielskiego","address":"","city":"","longitude":17.059147,"latitude":52.401158,"closestLines":["Bus: 425","Other bus: 405, 406, 407"],"popupLines":["Bus: 425","Other bus: 405, 406, 407"]},{"id":"1247","label":"Swarzędz/Os. Cegielskiego","address":"","city":"","longitude":17.059058,"latitude":52.401072,"closestLines":["Bus: 425","Other bus: 405, 406, 407"],"popupLines":["Bus: 425","Other bus: 405, 406, 407"]},{"id":"1248","label":"Swarzędz/Os. Raczyńskiego","address":"","city":"","longitude":17.063363,"latitude":52.400014,"closestLines":["Bus: 425","Other bus: 405, 406, 407"],"popupLines":["Bus: 425","Other bus: 405, 406, 407"]},{"id":"1249","label":"Swarzędz/Os. Raczyńskiego","address":"","city":"","longitude":17.064712,"latitude":52.399104,"closestLines":["Bus: 425","Other bus: 484, 494, 497, 499"],"popupLines":["Bus: 425","Other bus: 484, 494, 497, 499"]},{"id":"1250","label":"Swarzędz/Kupiecka","address":"","city":"","longitude":17.070842,"latitude":52.397649,"closestLines":["Bus: 425","Other bus: 497"],"popupLines":["Bus: 425","Other bus: 497"]},{"id":"1251","label":"Swarzędz/Kupiecka","address":"","city":"","longitude":17.072182,"latitude":52.397747,"closestLines":["Bus: 425","Other bus: 484, 494, 497, 499"],"popupLines":["Bus: 425","Other bus: 484, 494, 497, 499"]},{"id":"1252","label":"Zalasewo/Planetarna Szkoła","address":"","city":"","longitude":17.068719,"latitude":52.391817,"closestLines":["Bus: 425","Other bus: 497, 499"],"popupLines":["Bus: 425","Other bus: 497, 499"]},{"id":"1253","label":"Zalasewo/Planetarna Szkoła","address":"","city":"","longitude":17.068917,"latitude":52.392884,"closestLines":["Bus: 425","Other bus: 497, 499"],"popupLines":["Bus: 425","Other bus: 497, 499"]},{"id":"1296","label":"Borówiec/Szkoła","address":"","city":"","longitude":17.047362,"latitude":52.277376,"closestLines":["511, 512"],"popupLines":["511, 512"]},{"id":"1297","label":"Borówiec/Deszczowa","address":"","city":"","longitude":17.038248,"latitude":52.280642,"closestLines":["511, 512"],"popupLines":["511, 512"]},{"id":"1298","label":"Borówiec/Deszczowa","address":"","city":"","longitude":17.037986,"latitude":52.280603,"closestLines":["511, 512"],"popupLines":["511, 512"]},{"id":"1299","label":"Borówiec/Pod Borem","address":"","city":"","longitude":17.027608,"latitude":52.280414,"closestLines":["511, 512"],"popupLines":["511, 512"]},{"id":"1300","label":"Borówiec/Pod Borem","address":"","city":"","longitude":17.026932,"latitude":52.280595,"closestLines":["511, 512"],"popupLines":["511, 512"]},{"id":"1301","label":"Borówiec/Borówkowa","address":"","city":"","longitude":17.014131,"latitude":52.282127,"closestLines":["511, 512"],"popupLines":["511, 512"]},{"id":"1302","label":"Borówiec/Borówkowa","address":"","city":"","longitude":17.012113,"latitude":52.282716,"closestLines":["511, 512"],"popupLines":["511, 512"]},{"id":"1303","label":"Kamionki/Lisia","address":"","city":"","longitude":17.006623,"latitude":52.284046,"closestLines":["511, 512"],"popupLines":["511, 512"]},{"id":"1304","label":"Kamionki/Lisia","address":"","city":"","longitude":17.00617,"latitude":52.284054,"closestLines":["511, 512"],"popupLines":["511, 512"]},{"id":"1305","label":"Kamionki/Lotnicza","address":"","city":"","longitude":17.000123,"latitude":52.28496,"closestLines":["511, 512"],"popupLines":["511, 512"]},{"id":"1306","label":"Kamionki/Lotnicza","address":"","city":"","longitude":16.99937,"latitude":52.285107,"closestLines":["511, 512"],"popupLines":["511, 512"]},{"id":"1307","label":"Kamionki/Pętla","address":"","city":"","longitude":16.994265,"latitude":52.286014,"closestLines":["511, 512, 527"],"popupLines":["511, 512, 527"]},{"id":"1308","label":"Kamionki/Łąkowa","address":"","city":"","longitude":16.981687,"latitude":52.288401,"closestLines":["511, 527"],"popupLines":["511, 527"]},{"id":"1309","label":"Kamionki/Łąkowa","address":"","city":"","longitude":16.981803,"latitude":52.288308,"closestLines":["511, 527"],"popupLines":["511, 527"]},{"id":"1310","label":"Kamionki/Platanowa","address":"","city":"","longitude":16.978798,"latitude":52.289173,"closestLines":["527"],"popupLines":["527"]},{"id":"1311","label":"Kamionki/Platanowa","address":"","city":"","longitude":16.978259,"latitude":52.289256,"closestLines":["527"],"popupLines":["527"]},{"id":"1312","label":"Daszewice/Lipowa","address":"","city":"","longitude":16.968361,"latitude":52.292621,"closestLines":["527"],"popupLines":["527"]},{"id":"1313","label":"Daszewice/Lipowa","address":"","city":"","longitude":16.967969,"latitude":52.292716,"closestLines":["527"],"popupLines":["527"]},{"id":"1314","label":"Daszewice/Pętla","address":"","city":"","longitude":16.962782,"latitude":52.295755,"closestLines":["527"],"popupLines":["527"]},{"id":"1315","label":"Daszewice/Piotrowska","address":"","city":"","longitude":16.958334,"latitude":52.2991,"closestLines":["527"],"popupLines":["527"]},{"id":"1316","label":"Daszewice/Piotrowska","address":"","city":"","longitude":16.958054,"latitude":52.299391,"closestLines":["527"],"popupLines":["527"]},{"id":"1317","label":"Daszewice/Leśna","address":"","city":"","longitude":16.953896,"latitude":52.301987,"closestLines":["527"],"popupLines":["527"]},{"id":"1318","label":"Daszewice/Leśna","address":"","city":"","longitude":16.953325,"latitude":52.302428,"closestLines":["527"],"popupLines":["527"]},{"id":"1319","label":"Babki/Jednostka Wojskowa","address":"","city":"","longitude":16.937746,"latitude":52.311634,"closestLines":["527"],"popupLines":["527"]},{"id":"1320","label":"Babki/Jednostka Wojskowa","address":"","city":"","longitude":16.937951,"latitude":52.311586,"closestLines":["527"],"popupLines":["527"]},{"id":"1321","label":"Babki/Ośrodek Zdrowia","address":"","city":"","longitude":16.936247,"latitude":52.313467,"closestLines":["527"],"popupLines":["527"]},{"id":"1322","label":"Babki/Ośrodek Zdrowia","address":"","city":"","longitude":16.93602,"latitude":52.313683,"closestLines":["527"],"popupLines":["527"]},{"id":"1323","label":"Głuszyna Kościół","address":"","city":"","longitude":16.951032,"latitude":52.31997,"closestLines":["527"],"popupLines":["527"]},{"id":"1335","label":"Babki/","address":"","city":"","longitude":16.931397,"latitude":52.316908,"closestLines":["527"],"popupLines":["527"]},{"id":"1336","label":"Babki/","address":"","city":"","longitude":16.930475,"latitude":52.317712,"closestLines":["527"],"popupLines":["527"]},{"id":"1337","label":"Czapury/Gromadzka","address":"","city":"","longitude":16.922321,"latitude":52.319803,"closestLines":["527"],"popupLines":["527"]},{"id":"1338","label":"Czapury/Głuszynka","address":"","city":"","longitude":16.91294,"latitude":52.318009,"closestLines":["527"],"popupLines":["527"]},{"id":"1339","label":"Czapury/Głuszynka","address":"","city":"","longitude":16.912941,"latitude":52.318308,"closestLines":["527"],"popupLines":["527"]},{"id":"1340","label":"Czapury/Szkoła","address":"","city":"","longitude":16.911743,"latitude":52.313935,"closestLines":["527"],"popupLines":["527"]},{"id":"1341","label":"Czapury/Szkoła","address":"","city":"","longitude":16.911717,"latitude":52.314489,"closestLines":["527"],"popupLines":["527"]},{"id":"1342","label":"Czapury/Warta","address":"","city":"","longitude":16.910188,"latitude":52.308841,"closestLines":["527"],"popupLines":["527"]},{"id":"1343","label":"Wiórek/Podleśna","address":"","city":"","longitude":16.908873,"latitude":52.306489,"closestLines":["527"],"popupLines":["527"]},{"id":"1344","label":"Wiórek/Pętla","address":"","city":"","longitude":16.907584,"latitude":52.303547,"closestLines":["527"],"popupLines":["527"]},{"id":"1345","label":"Czapury/Leśna","address":"","city":"","longitude":16.911623,"latitude":52.324139,"closestLines":["527"],"popupLines":["527"]},{"id":"1346","label":"Czapury/Leśna","address":"","city":"","longitude":16.912534,"latitude":52.323038,"closestLines":["527"],"popupLines":["527"]},{"id":"1347","label":"Czapury/Dębowa","address":"","city":"","longitude":16.910634,"latitude":52.326127,"closestLines":["527"],"popupLines":["527"]},{"id":"1348","label":"Rydzowa","address":"","city":"","longitude":16.911954,"latitude":52.334357,"closestLines":["527"],"popupLines":["527"]},{"id":"1349","label":"Rydzowa","address":"","city":"","longitude":16.911956,"latitude":52.334081,"closestLines":["527"],"popupLines":["527"]},{"id":"1351","label":"Starołęka Wielka","address":"","city":"","longitude":16.917536,"latitude":52.341587,"closestLines":["527"],"popupLines":["527"]},{"id":"1354","label":"Starołęka Wielka","address":"","city":"","longitude":16.918205,"latitude":52.342421,"closestLines":["Bus: 158","Other bus: 527","Night: 221"],"popupLines":["Bus: 158","Other bus: 527","Night: 221"]},{"id":"1359","label":"Tarnobrzeska","address":"","city":"","longitude":16.918372,"latitude":52.345202,"closestLines":["Bus: 158","Other bus: 527","Night: 221"],"popupLines":["Bus: 158","Other bus: 527","Night: 221"]},{"id":"1360","label":"Tarnobrzeska","address":"","city":"","longitude":16.918582,"latitude":52.345976,"closestLines":["Bus: 158","Other bus: 527","Night: 221"],"popupLines":["Bus: 158","Other bus: 527","Night: 221"]},{"id":"1362","label":"Czernichowska","address":"","city":"","longitude":16.91912,"latitude":52.346801,"closestLines":["Bus: 158, 189","Other bus: 527","Night: 221"],"popupLines":["Bus: 158, 189","Other bus: 527","Night: 221"]},{"id":"1386","label":"Św. Antoniego","address":"","city":"","longitude":16.927326,"latitude":52.364027,"closestLines":["Bus: 158, 194","Other bus: 527","Night: 221"],"popupLines":["Bus: 158, 194","Other bus: 527","Night: 221"]},{"id":"1387","label":"Św. Antoniego","address":"","city":"","longitude":16.927663,"latitude":52.364304,"closestLines":["Bus: 158, 189","Other bus: 527","Night: 221"],"popupLines":["Bus: 158, 189","Other bus: 527","Night: 221"]},{"id":"1388","label":"Żeglarska","address":"","city":"","longitude":16.923755,"latitude":52.356634,"closestLines":["Bus: 158, 194","Other bus: 527","Night: 221"],"popupLines":["Bus: 158, 194","Other bus: 527","Night: 221"]},{"id":"1389","label":"Żeglarska","address":"","city":"","longitude":16.924061,"latitude":52.356938,"closestLines":["Bus: 158, 189","Other bus: 527","Night: 221"],"popupLines":["Bus: 158, 189","Other bus: 527","Night: 221"]},{"id":"1390","label":"Dziedzicka","address":"","city":"","longitude":16.922246,"latitude":52.353577,"closestLines":["Bus: 158, 194","Other bus: 527","Night: 221"],"popupLines":["Bus: 158, 194","Other bus: 527","Night: 221"]},{"id":"1391","label":"Dziedzicka","address":"","city":"","longitude":16.92281,"latitude":52.354304,"closestLines":["Bus: 158, 189","Other bus: 527","Night: 221"],"popupLines":["Bus: 158, 189","Other bus: 527","Night: 221"]},{"id":"1392","label":"Starołęcka Wiadukt","address":"","city":"","longitude":16.920811,"latitude":52.350568,"closestLines":["Bus: 158, 194","Other bus: 527","Night: 221"],"popupLines":["Bus: 158, 194","Other bus: 527","Night: 221"]},{"id":"1393","label":"Starołęcka Wiadukt","address":"","city":"","longitude":16.921335,"latitude":52.351264,"closestLines":["Bus: 158, 189","Other bus: 527","Night: 221"],"popupLines":["Bus: 158, 189","Other bus: 527","Night: 221"]},{"id":"1425","label":"Droga Dębińska","address":"","city":"","longitude":16.930576,"latitude":52.387442,"closestLines":["603"],"popupLines":["603"]},{"id":"1426","label":"Droga Dębińska","address":"","city":"","longitude":16.930583,"latitude":52.387013,"closestLines":["603"],"popupLines":["603"]},{"id":"1427","label":"Bielniki","address":"","city":"","longitude":16.933403,"latitude":52.394722,"closestLines":["Bus: 176","Other bus: 603"],"popupLines":["Bus: 176","Other bus: 603"]},{"id":"1428","label":"Bielniki","address":"","city":"","longitude":16.933545,"latitude":52.394425,"closestLines":["Bus: 176","Other bus: 603"],"popupLines":["Bus: 176","Other bus: 603"]},{"id":"1431","label":"AWF","address":"","city":"","longitude":16.935922,"latitude":52.399747,"closestLines":["Bus: 174, 176, 190","Other bus: 603"],"popupLines":["Bus: 174, 176, 190","Other bus: 603"]},{"id":"1433","label":"Most Św. Rocha","address":"","city":"","longitude":16.940615,"latitude":52.402268,"closestLines":["Bus: 174, 176, 190","Other bus: 603"],"popupLines":["Bus: 174, 176, 190","Other bus: 603"]},{"id":"1434","label":"Pl. Bernardyński","address":"","city":"","longitude":16.937026,"latitude":52.404024,"closestLines":["Bus: 174, 176, 190","Other bus: 603","Night: 211, 220, 221"],"popupLines":["Bus: 174, 176, 190","Other bus: 603","Night: 211, 220, 221"]},{"id":"1435","label":"Grobla","address":"","city":"","longitude":16.937687,"latitude":52.406778,"closestLines":["Bus: 174, 176, 190","Other bus: 603","Night: 211, 220, 221"],"popupLines":["Bus: 174, 176, 190","Other bus: 603","Night: 211, 220, 221"]},{"id":"1436","label":"Mostowa","address":"","city":"","longitude":16.939637,"latitude":52.40487,"closestLines":["Bus: 174, 176, 190","Other bus: 603","Night: 211, 220, 221"],"popupLines":["Bus: 174, 176, 190","Other bus: 603","Night: 211, 220, 221"]},{"id":"1437","label":"Wielka","address":"","city":"","longitude":16.938316,"latitude":52.408838,"closestLines":["Bus: 174, 176, 190","Other bus: 603","Night: 211, 220, 221"],"popupLines":["Bus: 174, 176, 190","Other bus: 603","Night: 211, 220, 221"]},{"id":"1511","label":"Szwajcarska Centrum Handlowe","address":"","city":"","longitude":16.996917,"latitude":52.384492,"closestLines":["Bus: 154, 166","Other bus: 431, 432, 435, 501, 502, 511, 512, 560, 561","Night: 218, 222"],"popupLines":["Bus: 154, 166","Other bus: 431, 432, 435, 501, 502, 511, 512, 560, 561","Night: 218, 222"]},{"id":"1512","label":"Szwajcarska Centrum Handlowe","address":"","city":"","longitude":16.997064,"latitude":52.384792,"closestLines":["Bus: 154, 166, 184","Other bus: 431, 432, 435, 501, 502, 511, 512, 560","Night: 218, 222"],"popupLines":["Bus: 154, 166, 184","Other bus: 431, 432, 435, 501, 502, 511, 512, 560","Night: 218, 222"]},{"id":"1513","label":"Franowo","address":"","city":"","longitude":17.000679,"latitude":52.381877,"closestLines":["Bus: 154","Other bus: 431, 432, 435, 501, 502, 511, 512, 560, 561","Night: 218"],"popupLines":["Bus: 154","Other bus: 431, 432, 435, 501, 502, 511, 512, 560, 561","Night: 218"]},{"id":"1516","label":"Torowa Wiadukt","address":"","city":"","longitude":16.988149,"latitude":52.369834,"closestLines":["Bus: 154, 196","Other bus: 431, 432, 435, 511, 512","Night: 220"],"popupLines":["Bus: 154, 196","Other bus: 431, 432, 435, 511, 512","Night: 220"]},{"id":"1519","label":"Torowa Wiadukt","address":"","city":"","longitude":16.987942,"latitude":52.368714,"closestLines":["Bus: 162","Other bus: 511, 512"],"popupLines":["Bus: 162","Other bus: 511, 512"]},{"id":"1520","label":"Torowa Wiadukt","address":"","city":"","longitude":16.988291,"latitude":52.368745,"closestLines":["Bus: 196","Other bus: 511, 512","Night: 220"],"popupLines":["Bus: 196","Other bus: 511, 512","Night: 220"]},{"id":"1521","label":"Ługańska","address":"","city":"","longitude":16.995467,"latitude":52.371469,"closestLines":["Bus: 154, 162","Other bus: 431, 432, 435"],"popupLines":["Bus: 154, 162","Other bus: 431, 432, 435"]},{"id":"1522","label":"Ługańska","address":"","city":"","longitude":16.994527,"latitude":52.37133,"closestLines":["Bus: 154","Other bus: 431, 432, 435","Night: 220"],"popupLines":["Bus: 154","Other bus: 431, 432, 435","Night: 220"]},{"id":"1523","label":"Wieprawska","address":"","city":"","longitude":17.000923,"latitude":52.368824,"closestLines":["Bus: 154, 162","Other bus: 431, 432, 435"],"popupLines":["Bus: 154, 162","Other bus: 431, 432, 435"]},{"id":"1524","label":"Wieprawska","address":"","city":"","longitude":17.000211,"latitude":52.369056,"closestLines":["Bus: 154","Other bus: 431, 432, 435","Night: 220"],"popupLines":["Bus: 154","Other bus: 431, 432, 435","Night: 220"]},{"id":"1527","label":"Urszulanek","address":"","city":"","longitude":16.981691,"latitude":52.365309,"closestLines":["Bus: 196","Other bus: 511, 512","Night: 220"],"popupLines":["Bus: 196","Other bus: 511, 512","Night: 220"]},{"id":"1528","label":"Urszulanek","address":"","city":"","longitude":16.983382,"latitude":52.366845,"closestLines":["Bus: 162","Other bus: 511, 512"],"popupLines":["Bus: 162","Other bus: 511, 512"]},{"id":"1529","label":"Sanocka","address":"","city":"","longitude":16.979466,"latitude":52.361105,"closestLines":["Bus: 162","Other bus: 511, 512"],"popupLines":["Bus: 162","Other bus: 511, 512"]},{"id":"1530","label":"Sanocka","address":"","city":"","longitude":16.979723,"latitude":52.361335,"closestLines":["Bus: 196","Other bus: 511, 512","Night: 220"],"popupLines":["Bus: 196","Other bus: 511, 512","Night: 220"]},{"id":"1531","label":"Strzyżowska","address":"","city":"","longitude":16.980828,"latitude":52.354609,"closestLines":["Bus: 196","Other bus: 511, 512","Night: 220"],"popupLines":["Bus: 196","Other bus: 511, 512","Night: 220"]},{"id":"1532","label":"Strzyżowska","address":"","city":"","longitude":16.980609,"latitude":52.355159,"closestLines":["Bus: 162","Other bus: 511, 512"],"popupLines":["Bus: 162","Other bus: 511, 512"]},{"id":"1533","label":"Pokrzywno","address":"","city":"","longitude":16.982062,"latitude":52.350779,"closestLines":["Bus: 196","Other bus: 511, 512","Night: 220"],"popupLines":["Bus: 196","Other bus: 511, 512","Night: 220"]},{"id":"1534","label":"Pokrzywno","address":"","city":"","longitude":16.981668,"latitude":52.351281,"closestLines":["Bus: 162","Other bus: 511, 512"],"popupLines":["Bus: 162","Other bus: 511, 512"]},{"id":"1535","label":"Niżańska","address":"","city":"","longitude":16.984676,"latitude":52.345073,"closestLines":["Bus: 196","Other bus: 511, 512","Night: 220"],"popupLines":["Bus: 196","Other bus: 511, 512","Night: 220"]},{"id":"1536","label":"Niżańska","address":"","city":"","longitude":16.984396,"latitude":52.345388,"closestLines":["Bus: 162","Other bus: 511, 512"],"popupLines":["Bus: 162","Other bus: 511, 512"]},{"id":"1537","label":"Jarosławska","address":"","city":"","longitude":16.985366,"latitude":52.343189,"closestLines":["Bus: 162","Other bus: 511, 512"],"popupLines":["Bus: 162","Other bus: 511, 512"]},{"id":"1538","label":"Jarosławska","address":"","city":"","longitude":16.98542,"latitude":52.34339,"closestLines":["Bus: 196","Other bus: 511, 512","Night: 220"],"popupLines":["Bus: 196","Other bus: 511, 512","Night: 220"]},{"id":"1539","label":"Krzesiny","address":"","city":"","longitude":16.987795,"latitude":52.341102,"closestLines":["Bus: 154, 162","Other bus: 511, 512"],"popupLines":["Bus: 154, 162","Other bus: 511, 512"]},{"id":"1540","label":"Krzesiny","address":"","city":"","longitude":16.988139,"latitude":52.341258,"closestLines":["Bus: 196","Other bus: 511, 512","Night: 220"],"popupLines":["Bus: 196","Other bus: 511, 512","Night: 220"]},{"id":"1541","label":"Krzesiny Szkoła","address":"","city":"","longitude":16.992408,"latitude":52.34114,"closestLines":["Bus: 154, 162","Other bus: 511, 512"],"popupLines":["Bus: 154, 162","Other bus: 511, 512"]},{"id":"1542","label":"Krzesiny Szkoła","address":"","city":"","longitude":16.99196,"latitude":52.341311,"closestLines":["Bus: 154, 196","Other bus: 511, 512","Night: 220"],"popupLines":["Bus: 154, 196","Other bus: 511, 512","Night: 220"]},{"id":"1543","label":"Krzesiny Wiadukt","address":"","city":"","longitude":16.999656,"latitude":52.339978,"closestLines":["Bus: 154, 162","Other bus: 511, 512"],"popupLines":["Bus: 154, 162","Other bus: 511, 512"]},{"id":"1544","label":"Krzesiny Wiadukt","address":"","city":"","longitude":16.999362,"latitude":52.340148,"closestLines":["Bus: 154, 196","Other bus: 511, 512","Night: 220"],"popupLines":["Bus: 154, 196","Other bus: 511, 512","Night: 220"]},{"id":"1545","label":"Siewierska","address":"","city":"","longitude":17.005427,"latitude":52.340558,"closestLines":["Bus: 154, 196","Other bus: 512","Night: 220"],"popupLines":["Bus: 154, 196","Other bus: 512","Night: 220"]},{"id":"1546","label":"Siewierska","address":"","city":"","longitude":17.005471,"latitude":52.340421,"closestLines":["Bus: 154, 162","Other bus: 512"],"popupLines":["Bus: 154, 162","Other bus: 512"]},{"id":"1547","label":"Tarnowska","address":"","city":"","longitude":17.009953,"latitude":52.342,"closestLines":["Bus: 154, 196","Other bus: 512","Night: 220"],"popupLines":["Bus: 154, 196","Other bus: 512","Night: 220"]},{"id":"1548","label":"Tarnowska","address":"","city":"","longitude":17.01025,"latitude":52.341979,"closestLines":["Bus: 154, 162","Other bus: 512"],"popupLines":["Bus: 154, 162","Other bus: 512"]},{"id":"1549","label":"Świątniczki","address":"","city":"","longitude":17.010832,"latitude":52.336,"closestLines":["501, 502, 560, 561"],"popupLines":["501, 502, 560, 561"]},{"id":"1550","label":"Żerniki/Wieś","address":"","city":"","longitude":17.057575,"latitude":52.332515,"closestLines":["512"],"popupLines":["512"]},{"id":"1560","label":"Oliwkowa","address":"","city":"","longitude":17.019959,"latitude":52.359645,"closestLines":["Bus: 154, 162","Other bus: 431, 432, 435"],"popupLines":["Bus: 154, 162","Other bus: 431, 432, 435"]},{"id":"1561","label":"Oliwkowa","address":"","city":"","longitude":17.019355,"latitude":52.359824,"closestLines":["Bus: 154","Other bus: 431, 432, 435","Night: 220"],"popupLines":["Bus: 154","Other bus: 431, 432, 435","Night: 220"]},{"id":"1562","label":"Gospodarska","address":"","city":"","longitude":17.028224,"latitude":52.355714,"closestLines":["431, 432, 435"],"popupLines":["431, 432, 435"]},{"id":"1563","label":"Szczepankowo","address":"","city":"","longitude":17.009382,"latitude":52.36459,"closestLines":["Bus: 154","Other bus: 431, 432, 435","Night: 220"],"popupLines":["Bus: 154","Other bus: 431, 432, 435","Night: 220"]},{"id":"1564","label":"Szczepankowo","address":"","city":"","longitude":17.009375,"latitude":52.364794,"closestLines":["Bus: 154, 162","Other bus: 431, 432, 435"],"popupLines":["Bus: 154, 162","Other bus: 431, 432, 435"]},{"id":"1567","label":"Komorniki/Zakładowa Wirenka","address":"","city":"","longitude":16.808425,"latitude":52.33543,"closestLines":["702"],"popupLines":["702"]},{"id":"1568","label":"Komorniki/Zakładowa Wirenka","address":"","city":"","longitude":16.808392,"latitude":52.335286,"closestLines":["702"],"popupLines":["702"]},{"id":"1569","label":"Komorniki/Centrum","address":"","city":"","longitude":16.806965,"latitude":52.335584,"closestLines":["Other bus: 701, 703, 705, 707","Night: 250"],"popupLines":["Other bus: 701, 703, 705, 707","Night: 250"]},{"id":"1570","label":"Komorniki/Centrum","address":"","city":"","longitude":16.807278,"latitude":52.335467,"closestLines":["Other bus: 701, 703, 705, 707","Night: 250"],"popupLines":["Other bus: 701, 703, 705, 707","Night: 250"]},{"id":"1617","label":"Franowo","address":"","city":"","longitude":17.001465,"latitude":52.381445,"closestLines":["Bus: 154, 425","Other bus: 431, 432, 435, 501, 502, 511, 512, 560","Night: 218, 222"],"popupLines":["Bus: 154, 425","Other bus: 431, 432, 435, 501, 502, 511, 512, 560","Night: 218, 222"]},{"id":"1623","label":"Gnieźnieńska Cmentarz","address":"","city":"","longitude":16.994656,"latitude":52.42559,"closestLines":["Bus: 173","Other bus: 412","Night: 227"],"popupLines":["Bus: 173","Other bus: 412","Night: 227"]},{"id":"1628","label":"AWF","address":"","city":"","longitude":16.934811,"latitude":52.398249,"closestLines":["Bus: 176","Other bus: 603"],"popupLines":["Bus: 176","Other bus: 603"]},{"id":"1632","label":"Wykopy","address":"","city":"","longitude":16.863558,"latitude":52.371243,"closestLines":["Bus: 180","Other bus: 610, 616, 702","Night: 250"],"popupLines":["Bus: 180","Other bus: 610, 616, 702","Night: 250"]},{"id":"1634","label":"Komorniki/Nowa","address":"","city":"","longitude":16.816568,"latitude":52.338068,"closestLines":["Other bus: 701, 702","Night: 250"],"popupLines":["Other bus: 701, 702","Night: 250"]},{"id":"1635","label":"Komorniki/Jeziorna","address":"","city":"","longitude":16.803234,"latitude":52.330554,"closestLines":["Other bus: 701, 707","Night: 250"],"popupLines":["Other bus: 701, 707","Night: 250"]},{"id":"1636","label":"Rezerwat Morasko","address":"","city":"","longitude":16.897451,"latitude":52.487936,"closestLines":["902"],"popupLines":["902"]},{"id":"1637","label":"Rezerwat Morasko","address":"","city":"","longitude":16.897698,"latitude":52.487897,"closestLines":["902"],"popupLines":["902"]},{"id":"1648","label":"Krzesinki","address":"","city":"","longitude":17.012572,"latitude":52.340217,"closestLines":["512"],"popupLines":["512"]},{"id":"1649","label":"Podjaryszki","address":"","city":"","longitude":17.015086,"latitude":52.337704,"closestLines":["512"],"popupLines":["512"]},{"id":"1650","label":"Porzeczkowa","address":"","city":"","longitude":17.015598,"latitude":52.361627,"closestLines":["Bus: 154","Other bus: 431, 432, 435","Night: 220"],"popupLines":["Bus: 154","Other bus: 431, 432, 435","Night: 220"]},{"id":"1651","label":"Porzeczkowa","address":"","city":"","longitude":17.014411,"latitude":52.362317,"closestLines":["Bus: 154, 162","Other bus: 431, 432, 435"],"popupLines":["Bus: 154, 162","Other bus: 431, 432, 435"]},{"id":"1658","label":"Miłostowo","address":"","city":"","longitude":17.004245,"latitude":52.410528,"closestLines":["Bus: 157","Other bus: 400, 401, 405, 406, 407","Night: 222, 223"],"popupLines":["Bus: 157","Other bus: 400, 401, 405, 406, 407","Night: 222, 223"]},{"id":"1659","label":"Pusta","address":"","city":"","longitude":16.995811,"latitude":52.410256,"closestLines":["Bus: 157","Other bus: 401, 405, 406, 407","Night: 222, 223"],"popupLines":["Bus: 157","Other bus: 401, 405, 406, 407","Night: 222, 223"]},{"id":"1660","label":"Łomżyńska","address":"","city":"","longitude":16.985165,"latitude":52.409875,"closestLines":["Other bus: 400, 401, 405, 406, 407","Night: 213, 223"],"popupLines":["Other bus: 400, 401, 405, 406, 407","Night: 213, 223"]},{"id":"1661","label":"Termalna","address":"","city":"","longitude":16.973075,"latitude":52.409456,"closestLines":["Other bus: 401, 405, 406, 407","Night: 213, 223"],"popupLines":["Other bus: 401, 405, 406, 407","Night: 213, 223"]},{"id":"1669","label":"Os. Sobieskiego","address":"","city":"","longitude":16.916375,"latitude":52.465241,"closestLines":["Bus: 174, 190, 191, 193","Other bus: 832, 907","Night: 215, 218"],"popupLines":["Bus: 174, 190, 191, 193","Other bus: 832, 907","Night: 215, 218"]},{"id":"1685","label":"Wilków Morskich","address":"","city":"","longitude":16.781282,"latitude":52.478,"closestLines":["Bus: 186, 195, 833, 834","Other bus: 830","Night: 219"],"popupLines":["Bus: 186, 195, 833, 834","Other bus: 830","Night: 219"]},{"id":"1736","label":"Plewiska/Wołczyńska","address":"","city":"","longitude":16.822753,"latitude":52.375873,"closestLines":["Other bus: 716","Night: 224"],"popupLines":["Other bus: 716","Night: 224"]},{"id":"1737","label":"Plewiska/Wołczyńska","address":"","city":"","longitude":16.823569,"latitude":52.376338,"closestLines":["Other bus: 716","Night: 224"],"popupLines":["Other bus: 716","Night: 224"]},{"id":"1738","label":"Plewiska/Słoneczna","address":"","city":"","longitude":16.831909,"latitude":52.366361,"closestLines":["710"],"popupLines":["710"]},{"id":"1739","label":"Plewiska/Słoneczna","address":"","city":"","longitude":16.830794,"latitude":52.366257,"closestLines":["710"],"popupLines":["710"]},{"id":"1740","label":"Plewiska/Podgórna","address":"","city":"","longitude":16.824711,"latitude":52.366577,"closestLines":["710"],"popupLines":["710"]},{"id":"1741","label":"Plewiska/Podgórna","address":"","city":"","longitude":16.824995,"latitude":52.366188,"closestLines":["710"],"popupLines":["710"]},{"id":"1742","label":"Plewiska/Zachodnia","address":"","city":"","longitude":16.82105,"latitude":52.369399,"closestLines":["710"],"popupLines":["710"]},{"id":"1743","label":"Plewiska/Zachodnia","address":"","city":"","longitude":16.821131,"latitude":52.369422,"closestLines":["710"],"popupLines":["710"]},{"id":"1744","label":"Plewiska/Rynek","address":"","city":"","longitude":16.812777,"latitude":52.368689,"closestLines":["Other bus: 710, 716","Night: 224"],"popupLines":["Other bus: 710, 716","Night: 224"]},{"id":"1745","label":"Plewiska/Rynek","address":"","city":"","longitude":16.813723,"latitude":52.369441,"closestLines":["Other bus: 710, 716","Night: 224"],"popupLines":["Other bus: 710, 716","Night: 224"]},{"id":"1746","label":"Plewiska/Skryta","address":"","city":"","longitude":16.816968,"latitude":52.371659,"closestLines":["Other bus: 710, 716","Night: 224"],"popupLines":["Other bus: 710, 716","Night: 224"]},{"id":"1747","label":"Plewiska/Skryta","address":"","city":"","longitude":16.817026,"latitude":52.371786,"closestLines":["Other bus: 710, 716","Night: 224"],"popupLines":["Other bus: 710, 716","Night: 224"]},{"id":"1748","label":"Plewiska/Straż Pożarna","address":"","city":"","longitude":16.807995,"latitude":52.365327,"closestLines":["Other bus: 710, 716","Night: 224"],"popupLines":["Other bus: 710, 716","Night: 224"]},{"id":"1749","label":"Plewiska/Straż Pożarna","address":"","city":"","longitude":16.807837,"latitude":52.365336,"closestLines":["710, 716"],"popupLines":["710, 716"]},{"id":"1750","label":"Plewiska/Boisko","address":"","city":"","longitude":16.802406,"latitude":52.366948,"closestLines":["710"],"popupLines":["710"]},{"id":"1751","label":"Plewiska/Boisko","address":"","city":"","longitude":16.800882,"latitude":52.368331,"closestLines":["710"],"popupLines":["710"]},{"id":"1752","label":"Plewiska/Stacja Energetyczna","address":"","city":"","longitude":16.78105,"latitude":52.371135,"closestLines":["710"],"popupLines":["710"]},{"id":"1753","label":"Gołuski/Pętla","address":"","city":"","longitude":16.757068,"latitude":52.361341,"closestLines":["716, 799"],"popupLines":["716, 799"]},{"id":"1754","label":"Gołuski/Szkolna","address":"","city":"","longitude":16.753051,"latitude":52.358099,"closestLines":["716, 799"],"popupLines":["716, 799"]},{"id":"1755","label":"Gołuski/Szkolna","address":"","city":"","longitude":16.752857,"latitude":52.357965,"closestLines":["716, 799"],"popupLines":["716, 799"]},{"id":"1756","label":"Głuchowo/Spokojna","address":"","city":"","longitude":16.772548,"latitude":52.348853,"closestLines":["716"],"popupLines":["716"]},{"id":"1757","label":"Głuchowo/Spokojna","address":"","city":"","longitude":16.771884,"latitude":52.348717,"closestLines":["716"],"popupLines":["716"]},{"id":"1758","label":"Głuchowo/Stawna","address":"","city":"","longitude":16.768814,"latitude":52.346544,"closestLines":["Other bus: 704, 716","Night: 250"],"popupLines":["Other bus: 704, 716","Night: 250"]},{"id":"1759","label":"Głuchowo/Tęczowa","address":"","city":"","longitude":16.776931,"latitude":52.344857,"closestLines":["716"],"popupLines":["716"]},{"id":"1760","label":"Głuchowo/Tęczowa","address":"","city":"","longitude":16.774998,"latitude":52.344965,"closestLines":["704, 716"],"popupLines":["704, 716"]},{"id":"1761","label":"Komorniki/Topolowa","address":"","city":"","longitude":16.795074,"latitude":52.34032,"closestLines":["716"],"popupLines":["716"]},{"id":"1762","label":"Komorniki/Topolowa","address":"","city":"","longitude":16.796122,"latitude":52.339921,"closestLines":["716"],"popupLines":["716"]},{"id":"1763","label":"Komorniki/Ks.Malinowskiego","address":"","city":"","longitude":16.800453,"latitude":52.339236,"closestLines":["716"],"popupLines":["716"]},{"id":"1764","label":"Komorniki/Ks.Malinowskiego","address":"","city":"","longitude":16.8004,"latitude":52.339511,"closestLines":["710, 716"],"popupLines":["710, 716"]},{"id":"1765","label":"Komorniki/Ks.Wawrzyniaka","address":"","city":"","longitude":16.803429,"latitude":52.347148,"closestLines":["716"],"popupLines":["716"]},{"id":"1766","label":"Komorniki/Ks.Wawrzyniaka","address":"","city":"","longitude":16.803227,"latitude":52.347087,"closestLines":["710, 716"],"popupLines":["710, 716"]},{"id":"1767","label":"Plewiska/Szkolna","address":"","city":"","longitude":16.807367,"latitude":52.357773,"closestLines":["710, 716"],"popupLines":["710, 716"]},{"id":"1768","label":"Plewiska/Szkolna","address":"","city":"","longitude":16.807092,"latitude":52.357249,"closestLines":["710, 716"],"popupLines":["710, 716"]},{"id":"1770","label":"Plewiska/Szkoła","address":"","city":"","longitude":16.807479,"latitude":52.362706,"closestLines":["710, 716"],"popupLines":["710, 716"]},{"id":"1771","label":"Plewiska/Szkoła","address":"","city":"","longitude":16.807253,"latitude":52.362983,"closestLines":["710, 716"],"popupLines":["710, 716"]},{"id":"1777","label":"Kowalewicka Wiadukt","address":"","city":"","longitude":16.8537,"latitude":52.362353,"closestLines":["704, 710"],"popupLines":["704, 710"]},{"id":"1778","label":"Kowalewicka Wiadukt","address":"","city":"","longitude":16.852544,"latitude":52.362498,"closestLines":["703, 704, 705, 707, 710"],"popupLines":["703, 704, 705, 707, 710"]},{"id":"1781","label":"Komorniki/Nowa","address":"","city":"","longitude":16.814843,"latitude":52.338804,"closestLines":["Other bus: 701, 702, 703, 705, 707","Night: 250"],"popupLines":["Other bus: 701, 702, 703, 705, 707","Night: 250"]},{"id":"1782","label":"Modlibowskiej","address":"","city":"","longitude":16.848769,"latitude":52.354512,"closestLines":["703, 705, 707"],"popupLines":["703, 705, 707"]},{"id":"1783","label":"Komorniki/Nowa","address":"","city":"","longitude":16.815728,"latitude":52.339255,"closestLines":["703, 705, 707"],"popupLines":["703, 705, 707"]},{"id":"1784","label":"Komorniki/Magazynowa","address":"","city":"","longitude":16.827387,"latitude":52.345452,"closestLines":["703, 705, 707"],"popupLines":["703, 705, 707"]},{"id":"1785","label":"Komorniki/Magazynowa","address":"","city":"","longitude":16.828523,"latitude":52.345822,"closestLines":["703, 705, 707"],"popupLines":["703, 705, 707"]},{"id":"1786","label":"Konarzewo/Pętla","address":"","city":"","longitude":16.717203,"latitude":52.334764,"closestLines":["Other bus: 703, 705, 729, 791","Night: 250, 257"],"popupLines":["Other bus: 703, 705, 729, 791","Night: 250, 257"]},{"id":"1787","label":"Konarzewo/Os. 25-lecia","address":"","city":"","longitude":16.722904,"latitude":52.334942,"closestLines":["Other bus: 703, 705, 729","Night: 250, 257"],"popupLines":["Other bus: 703, 705, 729","Night: 250, 257"]},{"id":"1788","label":"Konarzewo/Os. 25-lecia","address":"","city":"","longitude":16.724506,"latitude":52.334555,"closestLines":["Other bus: 703, 705, 729","Night: 250"],"popupLines":["Other bus: 703, 705, 729","Night: 250"]},{"id":"1789","label":"Chomęcice/Szkoła","address":"","city":"","longitude":16.740783,"latitude":52.333666,"closestLines":["Other bus: 703, 705, 729","Night: 250, 257"],"popupLines":["Other bus: 703, 705, 729","Night: 250, 257"]},{"id":"1790","label":"Chomęcice/Szkoła","address":"","city":"","longitude":16.740813,"latitude":52.333608,"closestLines":["Other bus: 703, 705, 716, 729","Night: 250"],"popupLines":["Other bus: 703, 705, 716, 729","Night: 250"]},{"id":"1791","label":"Chomęcice/Środkowa","address":"","city":"","longitude":16.746404,"latitude":52.331583,"closestLines":["Other bus: 703, 705, 729","Night: 250, 257"],"popupLines":["Other bus: 703, 705, 729","Night: 250, 257"]},{"id":"1792","label":"Chomęcice/Środkowa","address":"","city":"","longitude":16.746538,"latitude":52.331568,"closestLines":["Other bus: 703, 705, 716, 729","Night: 250"],"popupLines":["Other bus: 703, 705, 716, 729","Night: 250"]},{"id":"1793","label":"Chomęcice/Jesionowa","address":"","city":"","longitude":16.75836,"latitude":52.33058,"closestLines":["Other bus: 703, 705","Night: 250"],"popupLines":["Other bus: 703, 705","Night: 250"]},{"id":"1794","label":"Chomęcice/Jesionowa","address":"","city":"","longitude":16.75794,"latitude":52.33076,"closestLines":["Other bus: 703, 705","Night: 250"],"popupLines":["Other bus: 703, 705","Night: 250"]},{"id":"1795","label":"Rosnowo/","address":"","city":"","longitude":16.782295,"latitude":52.325239,"closestLines":["703, 707"],"popupLines":["703, 707"]},{"id":"1796","label":"Rosnowo/","address":"","city":"","longitude":16.78033,"latitude":52.32563,"closestLines":["Other bus: 703, 705","Night: 250"],"popupLines":["Other bus: 703, 705","Night: 250"]},{"id":"1797","label":"Rosnowo/","address":"","city":"","longitude":16.780862,"latitude":52.324882,"closestLines":["Other bus: 705","Night: 250"],"popupLines":["Other bus: 705","Night: 250"]},{"id":"1798","label":"Rosnowo/","address":"","city":"","longitude":16.781135,"latitude":52.324972,"closestLines":["Other bus: 705, 707","Night: 250"],"popupLines":["Other bus: 705, 707","Night: 250"]},{"id":"1799","label":"Walerianowo/Brzozowa","address":"","city":"","longitude":16.774407,"latitude":52.319972,"closestLines":["Other bus: 705, 707","Night: 250"],"popupLines":["Other bus: 705, 707","Night: 250"]},{"id":"1800","label":"Walerianowo/Brzozowa","address":"","city":"","longitude":16.77344,"latitude":52.31868,"closestLines":["Other bus: 705, 707","Night: 250"],"popupLines":["Other bus: 705, 707","Night: 250"]},{"id":"1801","label":"Szreniawa/Dworcowa","address":"","city":"","longitude":16.793695,"latitude":52.318645,"closestLines":["Other bus: 703, 705, 707","Night: 250"],"popupLines":["Other bus: 703, 705, 707","Night: 250"]},{"id":"1802","label":"Szreniawa/Dworcowa","address":"","city":"","longitude":16.792175,"latitude":52.318618,"closestLines":["703, 707"],"popupLines":["703, 707"]},{"id":"1803","label":"Szreniawa/Dworcowa","address":"","city":"","longitude":16.793061,"latitude":52.317815,"closestLines":["Other bus: 705","Night: 250"],"popupLines":["Other bus: 705","Night: 250"]},{"id":"1804","label":"Szreniawa/Nowa","address":"","city":"","longitude":16.790021,"latitude":52.313681,"closestLines":["Other bus: 705","Night: 250"],"popupLines":["Other bus: 705","Night: 250"]},{"id":"1805","label":"Rosnówko/Stawnego","address":"","city":"","longitude":16.772533,"latitude":52.299398,"closestLines":["Other bus: 705, 707","Night: 250"],"popupLines":["Other bus: 705, 707","Night: 250"]},{"id":"1806","label":"Rosnówko/Stawnego","address":"","city":"","longitude":16.771958,"latitude":52.299615,"closestLines":["Other bus: 705, 707","Night: 250"],"popupLines":["Other bus: 705, 707","Night: 250"]},{"id":"1807","label":"Rosnówko/Dom Kultury","address":"","city":"","longitude":16.76335,"latitude":52.30327,"closestLines":["Other bus: 705, 707","Night: 250"],"popupLines":["Other bus: 705, 707","Night: 250"]},{"id":"1808","label":"Rosnówko/Dom Kultury","address":"","city":"","longitude":16.762277,"latitude":52.304445,"closestLines":["Other bus: 705, 707","Night: 250"],"popupLines":["Other bus: 705, 707","Night: 250"]},{"id":"1809","label":"Walerianowo/Bukowa","address":"","city":"","longitude":16.770438,"latitude":52.314971,"closestLines":["Other bus: 705, 707","Night: 250"],"popupLines":["Other bus: 705, 707","Night: 250"]},{"id":"1810","label":"Walerianowo/Bukowa","address":"","city":"","longitude":16.770113,"latitude":52.314556,"closestLines":["Other bus: 705, 707","Night: 250"],"popupLines":["Other bus: 705, 707","Night: 250"]},{"id":"1811","label":"Komorniki/Jeziorna","address":"","city":"","longitude":16.801665,"latitude":52.329411,"closestLines":["Other bus: 703, 705, 707","Night: 250"],"popupLines":["Other bus: 703, 705, 707","Night: 250"]},{"id":"1812","label":"Komorniki/Jeziorna","address":"","city":"","longitude":16.803155,"latitude":52.331342,"closestLines":["Other bus: 703, 705, 707","Night: 250"],"popupLines":["Other bus: 703, 705, 707","Night: 250"]},{"id":"1814","label":"Sycowska II","address":"","city":"","longitude":16.836673,"latitude":52.361485,"closestLines":["Bus: 180","Other bus: 710"],"popupLines":["Bus: 180","Other bus: 710"]},{"id":"1821","label":"Pawłowice/Pętla","address":"","city":"","longitude":16.79684,"latitude":52.495227,"closestLines":["Bus: 834","Other bus: 830"],"popupLines":["Bus: 834","Other bus: 830"]},{"id":"1822","label":"Pawłowice/Pawłowicka","address":"","city":"","longitude":16.798743,"latitude":52.487878,"closestLines":["Bus: 834","Other bus: 830"],"popupLines":["Bus: 834","Other bus: 830"]},{"id":"1823","label":"Pawłowice/Pawłowicka","address":"","city":"","longitude":16.798773,"latitude":52.487988,"closestLines":["Bus: 834","Other bus: 830"],"popupLines":["Bus: 834","Other bus: 830"]},{"id":"1824","label":"Kiekrz/Czysta","address":"","city":"","longitude":16.793418,"latitude":52.483494,"closestLines":["Bus: 834","Other bus: 830"],"popupLines":["Bus: 834","Other bus: 830"]},{"id":"1825","label":"Kiekrz/Czysta","address":"","city":"","longitude":16.791669,"latitude":52.482398,"closestLines":["Bus: 834","Other bus: 830"],"popupLines":["Bus: 834","Other bus: 830"]},{"id":"1829","label":"Czerwonak/Cmentarz","address":"","city":"","longitude":16.995501,"latitude":52.458167,"closestLines":["Bus: 322","Other bus: 312, 323, 388, 394"],"popupLines":["Bus: 322","Other bus: 312, 323, 388, 394"]},{"id":"1830","label":"Kicin/Pętla","address":"","city":"","longitude":17.020552,"latitude":52.465554,"closestLines":["Bus: 321","Other bus: 323, 388, 394, 396","Night: 227"],"popupLines":["Bus: 321","Other bus: 323, 388, 394, 396","Night: 227"]},{"id":"1831","label":"Kicin/Szkoła","address":"","city":"","longitude":17.018501,"latitude":52.462935,"closestLines":["Bus: 321","Other bus: 323, 388, 394, 396","Night: 227"],"popupLines":["Bus: 321","Other bus: 323, 388, 394, 396","Night: 227"]},{"id":"1832","label":"Kicin/Szkoła","address":"","city":"","longitude":17.018973,"latitude":52.463432,"closestLines":["Bus: 321","Other bus: 323, 388, 396","Night: 227"],"popupLines":["Bus: 321","Other bus: 323, 388, 396","Night: 227"]},{"id":"1833","label":"Kicin/Jonschera","address":"","city":"","longitude":17.016894,"latitude":52.457627,"closestLines":["Bus: 321","Other bus: 388, 394, 396","Night: 227"],"popupLines":["Bus: 321","Other bus: 388, 394, 396","Night: 227"]},{"id":"1834","label":"Kicin/Jonschera","address":"","city":"","longitude":17.016688,"latitude":52.457409,"closestLines":["Bus: 321","Other bus: 388, 396","Night: 227"],"popupLines":["Bus: 321","Other bus: 388, 396","Night: 227"]},{"id":"1835","label":"Koziegłowy/Działki","address":"","city":"","longitude":17.003025,"latitude":52.449647,"closestLines":["Bus: 321","Other bus: 388, 394, 396","Night: 227"],"popupLines":["Bus: 321","Other bus: 388, 394, 396","Night: 227"]},{"id":"1836","label":"Koziegłowy/Działki","address":"","city":"","longitude":17.005168,"latitude":52.450578,"closestLines":["Bus: 321","Other bus: 388, 396","Night: 227"],"popupLines":["Bus: 321","Other bus: 388, 396","Night: 227"]},{"id":"1837","label":"Dąbrówka/Szkoła","address":"","city":"","longitude":16.739184,"latitude":52.376032,"closestLines":["Bus: 727","Other bus: 799"],"popupLines":["Bus: 727","Other bus: 799"]},{"id":"1851","label":"Rokietnica/ROS","address":"","city":"","longitude":16.7436,"latitude":52.512333,"closestLines":["Bus: 833, 834","Other bus: 832, 882, 891, 893","Night: 219"],"popupLines":["Bus: 833, 834","Other bus: 832, 882, 891, 893","Night: 219"]},{"id":"1852","label":"Rokietnica/ROS","address":"","city":"","longitude":16.742014,"latitude":52.512393,"closestLines":["Bus: 833","Other bus: 832, 882, 891","Night: 219"],"popupLines":["Bus: 833","Other bus: 832, 882, 891","Night: 219"]},{"id":"1853","label":"Rokietnica/ROS","address":"","city":"","longitude":16.742373,"latitude":52.51268,"closestLines":["Bus: 834","Other bus: 893"],"popupLines":["Bus: 834","Other bus: 893"]},{"id":"1854","label":"Rokietnica/ROS","address":"","city":"","longitude":16.742434,"latitude":52.512862,"closestLines":["Bus: 834","Other bus: 893"],"popupLines":["Bus: 834","Other bus: 893"]},{"id":"1855","label":"Rokietnica/Szkoła","address":"","city":"","longitude":16.740169,"latitude":52.510024,"closestLines":["Bus: 833","Other bus: 832, 882, 891","Night: 219"],"popupLines":["Bus: 833","Other bus: 832, 882, 891","Night: 219"]},{"id":"1856","label":"Rokietnica/Szkoła","address":"","city":"","longitude":16.740186,"latitude":52.509858,"closestLines":["Bus: 833","Other bus: 832, 882, 891","Night: 219"],"popupLines":["Bus: 833","Other bus: 832, 882, 891","Night: 219"]},{"id":"1860","label":"Przybroda/Pętla","address":"","city":"","longitude":16.655748,"latitude":52.520613,"closestLines":["832"],"popupLines":["832"]},{"id":"1861","label":"Przybroda/Kolejowa","address":"","city":"","longitude":16.663011,"latitude":52.520548,"closestLines":["832"],"popupLines":["832"]},{"id":"1862","label":"Przybroda/Kolejowa","address":"","city":"","longitude":16.66296,"latitude":52.520596,"closestLines":["832"],"popupLines":["832"]},{"id":"1863","label":"Cerekwica/Przybrodzka","address":"","city":"","longitude":16.690933,"latitude":52.518781,"closestLines":["832"],"popupLines":["832"]},{"id":"1864","label":"Cerekwica/Przybrodzka","address":"","city":"","longitude":16.690982,"latitude":52.518742,"closestLines":["832"],"popupLines":["832"]},{"id":"1865","label":"Mrowino/Szkoła","address":"","city":"","longitude":16.69968,"latitude":52.513211,"closestLines":["832"],"popupLines":["832"]},{"id":"1866","label":"Mrowino/Szkoła","address":"","city":"","longitude":16.698614,"latitude":52.513663,"closestLines":["832, 891"],"popupLines":["832, 891"]},{"id":"1868","label":"Mrowino/Szkoła","address":"","city":"","longitude":16.698598,"latitude":52.514331,"closestLines":["891"],"popupLines":["891"]},{"id":"1869","label":"Mrowino/Towarowa","address":"","city":"","longitude":16.706913,"latitude":52.505988,"closestLines":["832"],"popupLines":["832"]},{"id":"1870","label":"Mrowino/Towarowa","address":"","city":"","longitude":16.706472,"latitude":52.506966,"closestLines":["832"],"popupLines":["832"]},{"id":"1871","label":"Mrowino/Kopernika","address":"","city":"","longitude":16.70249,"latitude":52.512545,"closestLines":["891"],"popupLines":["891"]},{"id":"1872","label":"Mrowino/Park","address":"","city":"","longitude":16.705164,"latitude":52.517952,"closestLines":["891"],"popupLines":["891"]},{"id":"1873","label":"Mrowino/Park","address":"","city":"","longitude":16.70536,"latitude":52.518029,"closestLines":["891"],"popupLines":["891"]},{"id":"1874","label":"Mrowino/Gniewka","address":"","city":"","longitude":16.719695,"latitude":52.515012,"closestLines":["891"],"popupLines":["891"]},{"id":"1875","label":"Mrowino/Gniewka","address":"","city":"","longitude":16.718551,"latitude":52.515379,"closestLines":["891"],"popupLines":["891"]},{"id":"1876","label":"Mrowino/Leszka","address":"","city":"","longitude":16.725339,"latitude":52.513783,"closestLines":["891"],"popupLines":["891"]},{"id":"1877","label":"Mrowino/Leszka","address":"","city":"","longitude":16.724645,"latitude":52.51381,"closestLines":["891"],"popupLines":["891"]},{"id":"1878","label":"Rokietnica/Trakt Napoleoński","address":"","city":"","longitude":16.73143,"latitude":52.512975,"closestLines":["891"],"popupLines":["891"]},{"id":"1879","label":"Rokietnica/Trakt Napoleoński","address":"","city":"","longitude":16.731094,"latitude":52.513159,"closestLines":["891"],"popupLines":["891"]},{"id":"1880","label":"Rokietnica/Leśna","address":"","city":"","longitude":16.735681,"latitude":52.503555,"closestLines":["832, 882"],"popupLines":["832, 882"]},{"id":"1881","label":"Rokietnica/Leśna","address":"","city":"","longitude":16.735657,"latitude":52.503777,"closestLines":["832, 882"],"popupLines":["832, 882"]},{"id":"1882","label":"Napachanie/Starzyńska","address":"","city":"","longitude":16.731564,"latitude":52.489223,"closestLines":["832, 882"],"popupLines":["832, 882"]},{"id":"1883","label":"Napachanie/Starzyńska","address":"","city":"","longitude":16.731525,"latitude":52.489376,"closestLines":["832, 882"],"popupLines":["832, 882"]},{"id":"1884","label":"Napachanie/Park","address":"","city":"","longitude":16.72815,"latitude":52.48635,"closestLines":["832, 882"],"popupLines":["832, 882"]},{"id":"1885","label":"Napachanie/Park","address":"","city":"","longitude":16.72823,"latitude":52.48629,"closestLines":["832, 882"],"popupLines":["832, 882"]},{"id":"1886","label":"Rokietnica/Mickiewicza","address":"","city":"","longitude":16.739462,"latitude":52.515921,"closestLines":["Bus: 834","Other bus: 893"],"popupLines":["Bus: 834","Other bus: 893"]},{"id":"1887","label":"Rokietnica/Mickiewicza","address":"","city":"","longitude":16.739618,"latitude":52.515857,"closestLines":["Bus: 834","Other bus: 893"],"popupLines":["Bus: 834","Other bus: 893"]},{"id":"1888","label":"Krzyszkowo/Koszycy","address":"","city":"","longitude":16.736709,"latitude":52.518689,"closestLines":["Bus: 834","Other bus: 893"],"popupLines":["Bus: 834","Other bus: 893"]},{"id":"1889","label":"Krzyszkowo/Koszycy","address":"","city":"","longitude":16.73649,"latitude":52.519001,"closestLines":["Bus: 834","Other bus: 893"],"popupLines":["Bus: 834","Other bus: 893"]},{"id":"1890","label":"Krzyszkowo/Pętla","address":"","city":"","longitude":16.731227,"latitude":52.524249,"closestLines":["Bus: 834","Other bus: 893"],"popupLines":["Bus: 834","Other bus: 893"]},{"id":"1891","label":"Rokietnica/Boczna","address":"","city":"","longitude":16.745458,"latitude":52.518069,"closestLines":["Bus: 834","Other bus: 893"],"popupLines":["Bus: 834","Other bus: 893"]},{"id":"1892","label":"Rokietnica/Boczna","address":"","city":"","longitude":16.745789,"latitude":52.518432,"closestLines":["Bus: 834","Other bus: 893"],"popupLines":["Bus: 834","Other bus: 893"]},{"id":"1893","label":"Rostworowo/Jodłowa","address":"","city":"","longitude":16.750071,"latitude":52.524694,"closestLines":["Bus: 834","Other bus: 893"],"popupLines":["Bus: 834","Other bus: 893"]},{"id":"1894","label":"Rostworowo/Jodłowa","address":"","city":"","longitude":16.750272,"latitude":52.524866,"closestLines":["Bus: 834","Other bus: 893"],"popupLines":["Bus: 834","Other bus: 893"]},{"id":"1895","label":"Rostworowo/Sobocka","address":"","city":"","longitude":16.758717,"latitude":52.53702,"closestLines":["Bus: 834","Other bus: 893"],"popupLines":["Bus: 834","Other bus: 893"]},{"id":"1896","label":"Rostworowo/Sobocka","address":"","city":"","longitude":16.75912,"latitude":52.537389,"closestLines":["Bus: 834","Other bus: 893"],"popupLines":["Bus: 834","Other bus: 893"]},{"id":"1897","label":"Żydowo/Świetlica","address":"","city":"","longitude":16.754603,"latitude":52.546198,"closestLines":["Bus: 834","Other bus: 893"],"popupLines":["Bus: 834","Other bus: 893"]},{"id":"1898","label":"Żydowo/Świetlica","address":"","city":"","longitude":16.754367,"latitude":52.546737,"closestLines":["Bus: 834","Other bus: 893"],"popupLines":["Bus: 834","Other bus: 893"]},{"id":"1904","label":"Żydowo/Pętla","address":"","city":"","longitude":16.751293,"latitude":52.547227,"closestLines":["Bus: 834","Other bus: 893"],"popupLines":["Bus: 834","Other bus: 893"]},{"id":"1905","label":"Żydowo/Pętla","address":"","city":"","longitude":16.751941,"latitude":52.547283,"closestLines":["Bus: 834","Other bus: 893"],"popupLines":["Bus: 834","Other bus: 893"]},{"id":"1906","label":"Żydowo/Pętla","address":"","city":"","longitude":16.751046,"latitude":52.547004,"closestLines":["Bus: 834","Other bus: 893"],"popupLines":["Bus: 834","Other bus: 893"]},{"id":"1907","label":"Przecław/Pętla","address":"","city":"","longitude":16.713613,"latitude":52.55122,"closestLines":["Bus: 834","Other bus: 893"],"popupLines":["Bus: 834","Other bus: 893"]},{"id":"1908","label":"Rokietnica/Noblistów","address":"","city":"","longitude":16.737075,"latitude":52.508909,"closestLines":["891"],"popupLines":["891"]},{"id":"1909","label":"Rokietnica/Noblistów","address":"","city":"","longitude":16.736464,"latitude":52.509572,"closestLines":["891"],"popupLines":["891"]},{"id":"1910","label":"Rokietnica/Spokojna","address":"","city":"","longitude":16.760235,"latitude":52.513907,"closestLines":["832"],"popupLines":["832"]},{"id":"1911","label":"Rokietnica/Spokojna","address":"","city":"","longitude":16.76026,"latitude":52.513853,"closestLines":["832"],"popupLines":["832"]},{"id":"1912","label":"Rokietnica/Topolowa","address":"","city":"","longitude":16.765221,"latitude":52.514764,"closestLines":["832"],"popupLines":["832"]},{"id":"1913","label":"Rokietnica/Topolowa","address":"","city":"","longitude":16.76514,"latitude":52.514691,"closestLines":["832"],"popupLines":["832"]},{"id":"1914","label":"Bytkowo/Porzeczkowa","address":"","city":"","longitude":16.772099,"latitude":52.516156,"closestLines":["832"],"popupLines":["832"]},{"id":"1915","label":"Bytkowo/Porzeczkowa","address":"","city":"","longitude":16.771988,"latitude":52.516197,"closestLines":["832"],"popupLines":["832"]},{"id":"1916","label":"Bytkowo/Pawłowicka","address":"","city":"","longitude":16.775257,"latitude":52.517138,"closestLines":["832"],"popupLines":["832"]},{"id":"1917","label":"Bytkowo/Pawłowicka","address":"","city":"","longitude":16.777048,"latitude":52.517918,"closestLines":["832"],"popupLines":["832"]},{"id":"1918","label":"Sobota/Sanktuarium","address":"","city":"","longitude":16.798833,"latitude":52.522335,"closestLines":["832"],"popupLines":["832"]},{"id":"1919","label":"Sobota/Sanktuarium","address":"","city":"","longitude":16.797895,"latitude":52.522553,"closestLines":["832"],"popupLines":["832"]},{"id":"1920","label":"Sobota/Kasztanowa","address":"","city":"","longitude":16.803565,"latitude":52.520976,"closestLines":["832"],"popupLines":["832"]},{"id":"1921","label":"Sobota/Kasztanowa","address":"","city":"","longitude":16.802822,"latitude":52.521222,"closestLines":["832"],"popupLines":["832"]},{"id":"1922","label":"Sobota/POZ BRUK","address":"","city":"","longitude":16.813719,"latitude":52.51664,"closestLines":["832"],"popupLines":["832"]},{"id":"1923","label":"Sobota/POZ BRUK","address":"","city":"","longitude":16.812821,"latitude":52.51696,"closestLines":["832"],"popupLines":["832"]},{"id":"1924","label":"Złotkowo/Lipowa","address":"","city":"","longitude":16.834964,"latitude":52.507187,"closestLines":["Other bus: 832, 905, 907","Night: 253"],"popupLines":["Other bus: 832, 905, 907","Night: 253"]},{"id":"1925","label":"Złotkowo/Lipowa","address":"","city":"","longitude":16.83485,"latitude":52.508063,"closestLines":["832"],"popupLines":["832"]},{"id":"1928","label":"Wysogotowo/Warzywna","address":"","city":"","longitude":16.791179,"latitude":52.401251,"closestLines":["803"],"popupLines":["803"]},{"id":"1929","label":"Wysogotowo/Warzywna","address":"","city":"","longitude":16.790489,"latitude":52.402254,"closestLines":["803"],"popupLines":["803"]},{"id":"1930","label":"Wysogotowo/Piękna","address":"","city":"","longitude":16.786584,"latitude":52.405413,"closestLines":["803"],"popupLines":["803"]},{"id":"1931","label":"Wysogotowo/Piękna","address":"","city":"","longitude":16.786127,"latitude":52.405919,"closestLines":["803"],"popupLines":["803"]},{"id":"1932","label":"Wysogotowo/Długa","address":"","city":"","longitude":16.779858,"latitude":52.409858,"closestLines":["803, 889"],"popupLines":["803, 889"]},{"id":"1934","label":"Wysogotowo/Wierzbowa","address":"","city":"","longitude":16.777322,"latitude":52.413795,"closestLines":["803, 889"],"popupLines":["803, 889"]},{"id":"1935","label":"Wysogotowo/Zbożowa","address":"","city":"","longitude":16.775175,"latitude":52.41709,"closestLines":["803, 889"],"popupLines":["803, 889"]},{"id":"1936","label":"Wysogotowo/Zbożowa","address":"","city":"","longitude":16.774663,"latitude":52.417839,"closestLines":["803, 889"],"popupLines":["803, 889"]},{"id":"1937","label":"Przeźmierowo/Brzozowa","address":"","city":"","longitude":16.774752,"latitude":52.419768,"closestLines":["Other bus: 802, 803, 804, 889","Night: 258"],"popupLines":["Other bus: 802, 803, 804, 889","Night: 258"]},{"id":"1938","label":"Przeźmierowo/Brzozowa","address":"","city":"","longitude":16.774505,"latitude":52.419888,"closestLines":["Other bus: 802, 803, 804, 889","Night: 258"],"popupLines":["Other bus: 802, 803, 804, 889","Night: 258"]},{"id":"1939","label":"Przeźmierowo/Kasztanowa","address":"","city":"","longitude":16.779102,"latitude":52.418403,"closestLines":["Other bus: 802, 803, 804, 889","Night: 258"],"popupLines":["Other bus: 802, 803, 804, 889","Night: 258"]},{"id":"1940","label":"Przeźmierowo/Kasztanowa","address":"","city":"","longitude":16.777862,"latitude":52.418878,"closestLines":["Other bus: 802, 803, 804, 889","Night: 258"],"popupLines":["Other bus: 802, 803, 804, 889","Night: 258"]},{"id":"1941","label":"Przeźmierowo/Cmentarz","address":"","city":"","longitude":16.787073,"latitude":52.41688,"closestLines":["Other bus: 802, 803, 804, 889","Night: 258"],"popupLines":["Other bus: 802, 803, 804, 889","Night: 258"]},{"id":"1942","label":"Przeźmierowo/Cmentarz","address":"","city":"","longitude":16.78813,"latitude":52.417004,"closestLines":["Other bus: 802, 803, 804, 889","Night: 258"],"popupLines":["Other bus: 802, 803, 804, 889","Night: 258"]},{"id":"1943","label":"Przeźmierowo/Krańcowa","address":"","city":"","longitude":16.787689,"latitude":52.421058,"closestLines":["Other bus: 802, 803, 804, 889","Night: 258"],"popupLines":["Other bus: 802, 803, 804, 889","Night: 258"]},{"id":"1944","label":"Przeźmierowo/Krańcowa","address":"","city":"","longitude":16.787438,"latitude":52.421571,"closestLines":["Other bus: 802, 803, 804, 889","Night: 258"],"popupLines":["Other bus: 802, 803, 804, 889","Night: 258"]},{"id":"1945","label":"Przeźmierowo/Kościelna","address":"","city":"","longitude":16.785667,"latitude":52.425317,"closestLines":["Other bus: 802, 803, 804, 889","Night: 258"],"popupLines":["Other bus: 802, 803, 804, 889","Night: 258"]},{"id":"1946","label":"Przeźmierowo/Kościelna","address":"","city":"","longitude":16.785269,"latitude":52.426182,"closestLines":["Other bus: 802, 803, 804, 889","Night: 258"],"popupLines":["Other bus: 802, 803, 804, 889","Night: 258"]},{"id":"1947","label":"Przeźmierowo/Zacisze","address":"","city":"","longitude":16.788456,"latitude":52.426254,"closestLines":["889"],"popupLines":["889"]},{"id":"1948","label":"Przeźmierowo/Folwarczna","address":"","city":"","longitude":16.792043,"latitude":52.426884,"closestLines":["889"],"popupLines":["889"]},{"id":"1949","label":"Przeźmierowo/Folwarczna","address":"","city":"","longitude":16.792397,"latitude":52.426938,"closestLines":["889"],"popupLines":["889"]},{"id":"1950","label":"Baranowo/Os. Rubinowe","address":"","city":"","longitude":16.799362,"latitude":52.428928,"closestLines":["889"],"popupLines":["889"]},{"id":"1951","label":"Baranowo/Os. Rubinowe","address":"","city":"","longitude":16.799923,"latitude":52.429009,"closestLines":["Bus: 801","Other bus: 889"],"popupLines":["Bus: 801","Other bus: 889"]},{"id":"1953","label":"Baranowo/Przemysława","address":"","city":"","longitude":16.796219,"latitude":52.434104,"closestLines":["Other bus: 802, 803, 804, 811, 812, 813, 821, 889","Night: 258"],"popupLines":["Other bus: 802, 803, 804, 811, 812, 813, 821, 889","Night: 258"]},{"id":"1954","label":"Baranowo/Przemysława","address":"","city":"","longitude":16.79616,"latitude":52.433924,"closestLines":["Other bus: 802, 803, 804, 811, 812, 813, 821, 889","Night: 258"],"popupLines":["Other bus: 802, 803, 804, 811, 812, 813, 821, 889","Night: 258"]},{"id":"1955","label":"Przeźmierowo/Wiadukt","address":"","city":"","longitude":16.786686,"latitude":52.436364,"closestLines":["821, 889"],"popupLines":["821, 889"]},{"id":"1956","label":"Przeźmierowo/Wiadukt","address":"","city":"","longitude":16.786361,"latitude":52.435626,"closestLines":["Other bus: 802, 803, 804, 811, 812, 813","Night: 258"],"popupLines":["Other bus: 802, 803, 804, 811, 812, 813","Night: 258"]},{"id":"1957","label":"Przeźmierowo/Wiadukt","address":"","city":"","longitude":16.786317,"latitude":52.435418,"closestLines":["Other bus: 802, 803, 804, 811, 812, 813, 821, 889","Night: 258"],"popupLines":["Other bus: 802, 803, 804, 811, 812, 813, 821, 889","Night: 258"]},{"id":"1958","label":"Przeźmierowo/Leśna","address":"","city":"","longitude":16.782981,"latitude":52.431061,"closestLines":["Other bus: 802, 803, 804","Night: 258"],"popupLines":["Other bus: 802, 803, 804","Night: 258"]},{"id":"1959","label":"Przeźmierowo/Leśna","address":"","city":"","longitude":16.782745,"latitude":52.431575,"closestLines":["Other bus: 802, 803, 804","Night: 258"],"popupLines":["Other bus: 802, 803, 804","Night: 258"]},{"id":"1960","label":"Przeźmierowo/Wysogotowska","address":"","city":"","longitude":16.772674,"latitude":52.436395,"closestLines":["811, 812, 813"],"popupLines":["811, 812, 813"]},{"id":"1961","label":"Przeźmierowo/Wysogotowska","address":"","city":"","longitude":16.772689,"latitude":52.435898,"closestLines":["811, 812, 813"],"popupLines":["811, 812, 813"]},{"id":"1962","label":"Swadzim/Wiadukt","address":"","city":"","longitude":16.75321,"latitude":52.441045,"closestLines":["811, 812, 813"],"popupLines":["811, 812, 813"]},{"id":"1963","label":"Swadzim/Wiadukt","address":"","city":"","longitude":16.75607,"latitude":52.440043,"closestLines":["811, 812, 813"],"popupLines":["811, 812, 813"]},{"id":"1964","label":"Swadzim/Kładka","address":"","city":"","longitude":16.747577,"latitude":52.441503,"closestLines":["811, 812, 813"],"popupLines":["811, 812, 813"]},{"id":"1965","label":"Swadzim/Kładka","address":"","city":"","longitude":16.747067,"latitude":52.441196,"closestLines":["811, 812, 813"],"popupLines":["811, 812, 813"]},{"id":"1966","label":"Swadzim/Auchan","address":"","city":"","longitude":16.763441,"latitude":52.439007,"closestLines":["811, 812, 813"],"popupLines":["811, 812, 813"]},{"id":"1967","label":"Swadzim/Auchan","address":"","city":"","longitude":16.762614,"latitude":52.441487,"closestLines":["811, 812, 813"],"popupLines":["811, 812, 813"]},{"id":"1968","label":"Sady/Wiadukt","address":"","city":"","longitude":16.724675,"latitude":52.448706,"closestLines":["Other bus: 802, 811, 812, 813","Night: 258"],"popupLines":["Other bus: 802, 811, 812, 813","Night: 258"]},{"id":"1969","label":"Sady/Wiadukt","address":"","city":"","longitude":16.723368,"latitude":52.448735,"closestLines":["Other bus: 802, 811, 812, 813","Night: 258"],"popupLines":["Other bus: 802, 811, 812, 813","Night: 258"]},{"id":"1973","label":"Tarnowo Pdg/Marianowska","address":"","city":"","longitude":16.701825,"latitude":52.454938,"closestLines":["Other bus: 802, 811, 812, 813","Night: 258"],"popupLines":["Other bus: 802, 811, 812, 813","Night: 258"]},{"id":"1974","label":"Tarnowo Pdg/Marianowska","address":"","city":"","longitude":16.701669,"latitude":52.45436,"closestLines":["Other bus: 802, 811, 812, 813","Night: 258"],"popupLines":["Other bus: 802, 811, 812, 813","Night: 258"]},{"id":"1975","label":"Tarnowo Pdg/Działkowa","address":"","city":"","longitude":16.690599,"latitude":52.457695,"closestLines":["Other bus: 802, 811, 812, 813","Night: 258"],"popupLines":["Other bus: 802, 811, 812, 813","Night: 258"]},{"id":"1976","label":"Tarnowo Pdg/Działkowa","address":"","city":"","longitude":16.691077,"latitude":52.457286,"closestLines":["Other bus: 802, 811, 812, 813","Night: 258"],"popupLines":["Other bus: 802, 811, 812, 813","Night: 258"]},{"id":"1977","label":"Batorowo/Skośna","address":"","city":"","longitude":16.768203,"latitude":52.420543,"closestLines":["Other bus: 802, 804","Night: 258"],"popupLines":["Other bus: 802, 804","Night: 258"]},{"id":"1978","label":"Batorowo/Skośna","address":"","city":"","longitude":16.768379,"latitude":52.420471,"closestLines":["Other bus: 802, 804","Night: 258"],"popupLines":["Other bus: 802, 804","Night: 258"]},{"id":"1979","label":"Batorowo/Batorowska","address":"","city":"","longitude":16.754651,"latitude":52.421133,"closestLines":["Other bus: 802, 804","Night: 258"],"popupLines":["Other bus: 802, 804","Night: 258"]},{"id":"1980","label":"Batorowo/Batorowska","address":"","city":"","longitude":16.753993,"latitude":52.421329,"closestLines":["Other bus: 802, 804","Night: 258"],"popupLines":["Other bus: 802, 804","Night: 258"]},{"id":"1981","label":"Batorowo/Widok","address":"","city":"","longitude":16.745816,"latitude":52.421825,"closestLines":["Other bus: 802, 804","Night: 258"],"popupLines":["Other bus: 802, 804","Night: 258"]},{"id":"1982","label":"Batorowo/Widok","address":"","city":"","longitude":16.746358,"latitude":52.421899,"closestLines":["Other bus: 802, 804","Night: 258"],"popupLines":["Other bus: 802, 804","Night: 258"]},{"id":"1983","label":"Batorowo/Poranek","address":"","city":"","longitude":16.739623,"latitude":52.421933,"closestLines":["Other bus: 802, 804","Night: 258"],"popupLines":["Other bus: 802, 804","Night: 258"]},{"id":"1984","label":"Batorowo/Poranek","address":"","city":"","longitude":16.739944,"latitude":52.421844,"closestLines":["Other bus: 802, 804","Night: 258"],"popupLines":["Other bus: 802, 804","Night: 258"]},{"id":"1985","label":"Batorowo/Brzask","address":"","city":"","longitude":16.732282,"latitude":52.422756,"closestLines":["Other bus: 802, 804","Night: 258"],"popupLines":["Other bus: 802, 804","Night: 258"]},{"id":"1986","label":"Batorowo/Brzask","address":"","city":"","longitude":16.732155,"latitude":52.422712,"closestLines":["Other bus: 802, 804","Night: 258"],"popupLines":["Other bus: 802, 804","Night: 258"]},{"id":"1987","label":"Batorowo/Zakrzewska","address":"","city":"","longitude":16.719701,"latitude":52.424163,"closestLines":["Other bus: 802, 804","Night: 258"],"popupLines":["Other bus: 802, 804","Night: 258"]},{"id":"1988","label":"Batorowo/Zakrzewska","address":"","city":"","longitude":16.719707,"latitude":52.424105,"closestLines":["Other bus: 802, 804","Night: 258"],"popupLines":["Other bus: 802, 804","Night: 258"]},{"id":"1989","label":"Lusowo/Boczna","address":"","city":"","longitude":16.717908,"latitude":52.42146,"closestLines":["804"],"popupLines":["804"]},{"id":"1990","label":"Lusowo/Boczna","address":"","city":"","longitude":16.717995,"latitude":52.42162,"closestLines":["804"],"popupLines":["804"]},{"id":"1991","label":"Lusowo/Grzybowa","address":"","city":"","longitude":16.718142,"latitude":52.419049,"closestLines":["804"],"popupLines":["804"]},{"id":"1992","label":"Lusowo/Grzybowa","address":"","city":"","longitude":16.718037,"latitude":52.41923,"closestLines":["804"],"popupLines":["804"]},{"id":"1993","label":"Lusowo/Przylesie","address":"","city":"","longitude":16.718304,"latitude":52.414726,"closestLines":["804"],"popupLines":["804"]},{"id":"1994","label":"Lusowo/Przylesie","address":"","city":"","longitude":16.718391,"latitude":52.414772,"closestLines":["804"],"popupLines":["804"]},{"id":"1995","label":"Zakrzewo/Bukowska","address":"","city":"","longitude":16.717387,"latitude":52.406026,"closestLines":["804"],"popupLines":["804"]},{"id":"1996","label":"Zakrzewo/Zakrzewska","address":"","city":"","longitude":16.709991,"latitude":52.40575,"closestLines":["804"],"popupLines":["804"]},{"id":"1997","label":"Zakrzewo/Zakrzewska","address":"","city":"","longitude":16.708857,"latitude":52.405716,"closestLines":["804"],"popupLines":["804"]},{"id":"1998","label":"Zakrzewo/Instytut","address":"","city":"","longitude":16.702906,"latitude":52.406046,"closestLines":["804"],"popupLines":["804"]},{"id":"1999","label":"Zakrzewo/Instytut","address":"","city":"","longitude":16.701349,"latitude":52.406247,"closestLines":["804"],"popupLines":["804"]},{"id":"2000","label":"Sierosław/Kasztanowa","address":"","city":"","longitude":16.674488,"latitude":52.403506,"closestLines":["804, 811"],"popupLines":["804, 811"]},{"id":"2001","label":"Sierosław/Kasztanowa","address":"","city":"","longitude":16.676421,"latitude":52.403646,"closestLines":["804, 811"],"popupLines":["804, 811"]},{"id":"2002","label":"Sierosław/Prosta","address":"","city":"","longitude":16.667003,"latitude":52.402193,"closestLines":["804, 811"],"popupLines":["804, 811"]},{"id":"2003","label":"Sierosław/Prosta","address":"","city":"","longitude":16.67001,"latitude":52.402609,"closestLines":["804, 811"],"popupLines":["804, 811"]},{"id":"2004","label":"Sierosław/Działki","address":"","city":"","longitude":16.665755,"latitude":52.401695,"closestLines":["804, 811"],"popupLines":["804, 811"]},{"id":"2005","label":"Lusowo/Otowska","address":"","city":"","longitude":16.715052,"latitude":52.425955,"closestLines":["Other bus: 802, 804","Night: 258"],"popupLines":["Other bus: 802, 804","Night: 258"]},{"id":"2006","label":"Lusowo/Otowska","address":"","city":"","longitude":16.714274,"latitude":52.42649,"closestLines":["Other bus: 802, 804","Night: 258"],"popupLines":["Other bus: 802, 804","Night: 258"]},{"id":"2007","label":"Lusowo/Swadzimska","address":"","city":"","longitude":16.705724,"latitude":52.431357,"closestLines":["Other bus: 802, 804","Night: 258"],"popupLines":["Other bus: 802, 804","Night: 258"]},{"id":"2008","label":"Lusowo/Swadzimska","address":"","city":"","longitude":16.705644,"latitude":52.431481,"closestLines":["Other bus: 802, 804","Night: 258"],"popupLines":["Other bus: 802, 804","Night: 258"]},{"id":"2009","label":"Lusowo/Szkoła","address":"","city":"","longitude":16.701783,"latitude":52.433319,"closestLines":["Other bus: 802, 804","Night: 258"],"popupLines":["Other bus: 802, 804","Night: 258"]},{"id":"2010","label":"Lusowo/Szkoła","address":"","city":"","longitude":16.701905,"latitude":52.433437,"closestLines":["Other bus: 802, 804","Night: 258"],"popupLines":["Other bus: 802, 804","Night: 258"]},{"id":"2011","label":"Lusowo/Kościół","address":"","city":"","longitude":16.698083,"latitude":52.432953,"closestLines":["Other bus: 802, 804","Night: 258"],"popupLines":["Other bus: 802, 804","Night: 258"]},{"id":"2012","label":"Sady/Lipowa","address":"","city":"","longitude":16.718465,"latitude":52.443648,"closestLines":["Other bus: 802","Night: 258"],"popupLines":["Other bus: 802","Night: 258"]},{"id":"2013","label":"Sady/Lipowa","address":"","city":"","longitude":16.718491,"latitude":52.443574,"closestLines":["Other bus: 802","Night: 258"],"popupLines":["Other bus: 802","Night: 258"]},{"id":"2016","label":"Baranowo/Klonowa","address":"","city":"","longitude":16.785653,"latitude":52.441719,"closestLines":["821"],"popupLines":["821"]},{"id":"2017","label":"Baranowo/Klonowa","address":"","city":"","longitude":16.785844,"latitude":52.443762,"closestLines":["821"],"popupLines":["821"]},{"id":"2018","label":"Baranowo/Uniwersytet Przyrodniczy","address":"","city":"","longitude":16.783572,"latitude":52.449,"closestLines":["821, 889"],"popupLines":["821, 889"]},{"id":"2019","label":"Baranowo/Uniwersytet Przyrodniczy","address":"","city":"","longitude":16.7849,"latitude":52.447776,"closestLines":["821, 889"],"popupLines":["821, 889"]},{"id":"2020","label":"Chyby/Cedrowa","address":"","city":"","longitude":16.774673,"latitude":52.45224,"closestLines":["821, 889"],"popupLines":["821, 889"]},{"id":"2021","label":"Chyby/Cedrowa","address":"","city":"","longitude":16.77392,"latitude":52.452537,"closestLines":["821, 889"],"popupLines":["821, 889"]},{"id":"2022","label":"Chyby/Jodłowa","address":"","city":"","longitude":16.765833,"latitude":52.457117,"closestLines":["821, 889"],"popupLines":["821, 889"]},{"id":"2023","label":"Chyby/Jodłowa","address":"","city":"","longitude":16.765272,"latitude":52.45753,"closestLines":["821, 889"],"popupLines":["821, 889"]},{"id":"2024","label":"Chyby/Lipowa","address":"","city":"","longitude":16.762513,"latitude":52.460257,"closestLines":["821, 889"],"popupLines":["821, 889"]},{"id":"2025","label":"Chyby/Lipowa","address":"","city":"","longitude":16.762099,"latitude":52.460733,"closestLines":["821, 889"],"popupLines":["821, 889"]},{"id":"2026","label":"Wielkie","address":"","city":"","longitude":16.759414,"latitude":52.465052,"closestLines":["821, 889"],"popupLines":["821, 889"]},{"id":"2027","label":"Wielkie","address":"","city":"","longitude":16.759222,"latitude":52.465348,"closestLines":["821, 889"],"popupLines":["821, 889"]},{"id":"2028","label":"Kobylniki/Lipowa","address":"","city":"","longitude":16.749142,"latitude":52.472221,"closestLines":["821, 830"],"popupLines":["821, 830"]},{"id":"2029","label":"Kobylniki/Lipowa","address":"","city":"","longitude":16.748508,"latitude":52.472598,"closestLines":["821, 830"],"popupLines":["821, 830"]},{"id":"2032","label":"Napachanie/Kobylnicka","address":"","city":"","longitude":16.729161,"latitude":52.484128,"closestLines":["821, 830"],"popupLines":["821, 830"]},{"id":"2033","label":"Napachanie/Kobylnicka","address":"","city":"","longitude":16.728423,"latitude":52.484469,"closestLines":["821"],"popupLines":["821"]},{"id":"2034","label":"Napachanie/Kokoszczyńska","address":"","city":"","longitude":16.718801,"latitude":52.483732,"closestLines":["821, 882"],"popupLines":["821, 882"]},{"id":"2035","label":"Napachanie/Kokoszczyńska","address":"","city":"","longitude":16.719731,"latitude":52.484199,"closestLines":["821, 882"],"popupLines":["821, 882"]},{"id":"2036","label":"Tarnowo Pdg/Karolewo III","address":"","city":"","longitude":16.701298,"latitude":52.474406,"closestLines":["821, 882"],"popupLines":["821, 882"]},{"id":"2037","label":"Tarnowo Pdg/Karolewo III","address":"","city":"","longitude":16.701933,"latitude":52.474793,"closestLines":["821, 882"],"popupLines":["821, 882"]},{"id":"2038","label":"Tarnowo Pdg/Karolewo II","address":"","city":"","longitude":16.695513,"latitude":52.47205,"closestLines":["821, 882"],"popupLines":["821, 882"]},{"id":"2039","label":"Tarnowo Pdg/Karolewo II","address":"","city":"","longitude":16.69603,"latitude":52.472095,"closestLines":["821, 882"],"popupLines":["821, 882"]},{"id":"2040","label":"Tarnowo Pdg/Karolewo I","address":"","city":"","longitude":16.683899,"latitude":52.468848,"closestLines":["821, 882"],"popupLines":["821, 882"]},{"id":"2041","label":"Tarnowo Pdg/Karolewo I","address":"","city":"","longitude":16.684622,"latitude":52.469153,"closestLines":["821, 882"],"popupLines":["821, 882"]},{"id":"2042","label":"Tarnowo Pdg/Czereśniowa","address":"","city":"","longitude":16.676429,"latitude":52.466491,"closestLines":["821, 882"],"popupLines":["821, 882"]},{"id":"2043","label":"Tarnowo Pdg/Czereśniowa","address":"","city":"","longitude":16.675737,"latitude":52.466608,"closestLines":["821, 882"],"popupLines":["821, 882"]},{"id":"2044","label":"Tarnowo Pdg/Krótka","address":"","city":"","longitude":16.680283,"latitude":52.460306,"closestLines":["Other bus: 802, 811, 812, 813","Night: 258"],"popupLines":["Other bus: 802, 811, 812, 813","Night: 258"]},{"id":"2045","label":"Tarnowo Pdg/Rolna","address":"","city":"","longitude":16.672897,"latitude":52.462216,"closestLines":["Other bus: 802, 811, 812, 813","Night: 258"],"popupLines":["Other bus: 802, 811, 812, 813","Night: 258"]},{"id":"2046","label":"Tarnowo Pdg/Rolna","address":"","city":"","longitude":16.671314,"latitude":52.462785,"closestLines":["Other bus: 802, 811, 812, 813","Night: 258"],"popupLines":["Other bus: 802, 811, 812, 813","Night: 258"]},{"id":"2047","label":"Tarnowo Pdg/Centrum","address":"","city":"","longitude":16.664983,"latitude":52.464251,"closestLines":["Other bus: 802, 811, 812, 813, 821, 882, 886","Night: 258"],"popupLines":["Other bus: 802, 811, 812, 813, 821, 882, 886","Night: 258"]},{"id":"2048","label":"Tarnowo Pdg/Centrum","address":"","city":"","longitude":16.663901,"latitude":52.464259,"closestLines":["Other bus: 802, 811, 812, 813, 821, 882, 886","Night: 258"],"popupLines":["Other bus: 802, 811, 812, 813, 821, 882, 886","Night: 258"]},{"id":"2049","label":"Tarnowo Pdg/Nowa","address":"","city":"","longitude":16.655232,"latitude":52.462399,"closestLines":["802, 811, 812, 821, 882, 886"],"popupLines":["802, 811, 812, 821, 882, 886"]},{"id":"2050","label":"Tarnowo Pdg/Nowa","address":"","city":"","longitude":16.655886,"latitude":52.462783,"closestLines":["802, 811, 812, 821, 882, 886"],"popupLines":["802, 811, 812, 821, 882, 886"]},{"id":"2051","label":"Tarnowo Pdg/Piaskowa","address":"","city":"","longitude":16.645455,"latitude":52.458514,"closestLines":["802, 811, 812, 821, 882, 886"],"popupLines":["802, 811, 812, 821, 882, 886"]},{"id":"2052","label":"Tarnowo Pdg/Piaskowa","address":"","city":"","longitude":16.646602,"latitude":52.459088,"closestLines":["802, 811, 812, 821, 882, 886"],"popupLines":["802, 811, 812, 821, 882, 886"]},{"id":"2053","label":"Tarnowo Pdg/Ostatnia","address":"","city":"","longitude":16.64417,"latitude":52.463337,"closestLines":["802, 882"],"popupLines":["802, 882"]},{"id":"2054","label":"Tarnowo Pdg/Ostatnia","address":"","city":"","longitude":16.641812,"latitude":52.463469,"closestLines":["802, 882"],"popupLines":["802, 882"]},{"id":"2055","label":"Rumianek/Nowa I","address":"","city":"","longitude":16.637664,"latitude":52.462947,"closestLines":["811, 886"],"popupLines":["811, 886"]},{"id":"2056","label":"Rumianek/Nowa I","address":"","city":"","longitude":16.638505,"latitude":52.463207,"closestLines":["811, 886"],"popupLines":["811, 886"]},{"id":"2057","label":"Rumianek/Szkolna","address":"","city":"","longitude":16.62408,"latitude":52.462124,"closestLines":["811, 886"],"popupLines":["811, 886"]},{"id":"2058","label":"Rumianek/Szkolna","address":"","city":"","longitude":16.62379,"latitude":52.461431,"closestLines":["811, 886"],"popupLines":["811, 886"]},{"id":"2059","label":"Rumianek/Świetlica","address":"","city":"","longitude":16.620243,"latitude":52.459202,"closestLines":["811, 886"],"popupLines":["811, 886"]},{"id":"2060","label":"Rumianek/Świetlica","address":"","city":"","longitude":16.620242,"latitude":52.459406,"closestLines":["811, 886"],"popupLines":["811, 886"]},{"id":"2061","label":"Jankowice/Pętla","address":"","city":"","longitude":16.620666,"latitude":52.439391,"closestLines":["811, 812"],"popupLines":["811, 812"]},{"id":"2062","label":"Luboń/Ośrodek Kultury","address":"","city":"","longitude":16.877814,"latitude":52.327715,"closestLines":["Other bus: 614, 701","Night: 215"],"popupLines":["Other bus: 614, 701","Night: 215"]},{"id":"2063","label":"Luboń/Ośrodek Kultury","address":"","city":"","longitude":16.877489,"latitude":52.328338,"closestLines":["Other bus: 614, 701","Night: 215"],"popupLines":["Other bus: 614, 701","Night: 215"]},{"id":"2069","label":"Jankowice/Przemysłowa","address":"","city":"","longitude":16.640326,"latitude":52.454449,"closestLines":["812, 821"],"popupLines":["812, 821"]},{"id":"2070","label":"Jankowice/Przemysłowa","address":"","city":"","longitude":16.64083,"latitude":52.455085,"closestLines":["812, 821"],"popupLines":["812, 821"]},{"id":"2071","label":"Lusówko/Admiralska","address":"","city":"","longitude":16.634019,"latitude":52.442393,"closestLines":["821"],"popupLines":["821"]},{"id":"2072","label":"Lusówko/Admiralska","address":"","city":"","longitude":16.633895,"latitude":52.442429,"closestLines":["821"],"popupLines":["821"]},{"id":"2073","label":"Lusówko/Szantowa","address":"","city":"","longitude":16.644463,"latitude":52.439496,"closestLines":["821"],"popupLines":["821"]},{"id":"2074","label":"Lusówko/Szantowa","address":"","city":"","longitude":16.644372,"latitude":52.439516,"closestLines":["821"],"popupLines":["821"]},{"id":"2075","label":"Lusówko/Bosmańska","address":"","city":"","longitude":16.644785,"latitude":52.434693,"closestLines":["821"],"popupLines":["821"]},{"id":"2076","label":"Lusówko/Bosmańska","address":"","city":"","longitude":16.644875,"latitude":52.434676,"closestLines":["821"],"popupLines":["821"]},{"id":"2077","label":"Lusówko/Dopiewska","address":"","city":"","longitude":16.64572,"latitude":52.428078,"closestLines":["811, 821"],"popupLines":["811, 821"]},{"id":"2078","label":"Lusówko/Dopiewska","address":"","city":"","longitude":16.645522,"latitude":52.428375,"closestLines":["811, 821"],"popupLines":["811, 821"]},{"id":"2079","label":"Lusówko/Pętla","address":"","city":"","longitude":16.65416,"latitude":52.427584,"closestLines":["811"],"popupLines":["811"]},{"id":"2080","label":"Lusówko/Grabowa","address":"","city":"","longitude":16.639676,"latitude":52.433193,"closestLines":["811"],"popupLines":["811"]},{"id":"2081","label":"Lusówko/Grabowa","address":"","city":"","longitude":16.639422,"latitude":52.433436,"closestLines":["811"],"popupLines":["811"]},{"id":"2082","label":"Jankowice/Pałac","address":"","city":"","longitude":16.617335,"latitude":52.440794,"closestLines":["811, 812"],"popupLines":["811, 812"]},{"id":"2083","label":"Jankowice/Pałac","address":"","city":"","longitude":16.617236,"latitude":52.440878,"closestLines":["811, 812"],"popupLines":["811, 812"]},{"id":"2084","label":"Ceradz Kościelny/Jankowicka","address":"","city":"","longitude":16.602436,"latitude":52.440734,"closestLines":["811, 812"],"popupLines":["811, 812"]},{"id":"2085","label":"Ceradz Kościelny/Jankowicka","address":"","city":"","longitude":16.60298,"latitude":52.440793,"closestLines":["811, 812"],"popupLines":["811, 812"]},{"id":"2086","label":"Ceradz Kościelny/Kościół","address":"","city":"","longitude":16.592592,"latitude":52.437357,"closestLines":["811, 812"],"popupLines":["811, 812"]},